PACKAGE,ELAPSED_TIME,HOUR_GPS,MIN_GPS,SEC_GPS,CENT_GPS,HOUR_PC,MIN_PC,SEC_PC,CENT_PC,VEL_RODA,ROTACAO,TEMP,FLUIDO,AX,AY,AZ,ROLL,PITCH,HEADING,LAT,LON,ALT,VEL_GPS,SAT,HDOP,RSSI,CHECKSUM
0,1000,15,34,15,0,12,34,16,23.4181,0,0.0,0,0,0,0,0,0,0,0,0,0,0,0,0,15,223,60
1,2000,15,34,16,0,12,34,17,22.9587,0,0.0,0,0,0,0,0,0,0,0,0,0,0,0,0,15,232,42
2,3000,15,34,17,0,12,34,18,23.6233,0,0.0,0,0,0,0,0,0,0,0,0,0,0,0,0,15,234,24
3,4000,15,34,18,0,12,34,19,24.4362,0,0.0,0,0,0,0,0,0,0,0,0,0,0,0,0,15,231,6
4,5000,15,34,19,0,12,34,20,23.9327,0,0.0,0,0,0,0,0,0,0,0,0,0,0,0,0,15,234,244
5,6000,15,34,20,0,12,34,21,23.2295,0,0.0,0,0,0,0,0,0,0,0,0,0,0,0,0,15,235,226
6,7000,15,34,21,0,12,34,22,23.4395,0,0.0,0,0,0,0,0,0,0,0,0,0,0,0,0,15,234,208
7,8000,15,34,22,0,12,34,23,23.1821,0,0.0,0,0,0,0,0,0,0,0,0,0,0,0,0,15,234,190
8,9000,15,34,23,0,12,34,24,24.4268,0,0.0,0,0,0,0,0,0,0,0,0,0,0,0,4,30,234,191
9,10000,15,34,24,0,12,34,25,24.1233,3011,0.0,0,0,0,0,0,0,0,0,-202653617,-402626419,223,3011,9,94,233,55
10,11000,15,34,25,0,12,34,26,23.0029,2785,0.0,0,0,0,0,0,0,0,0,-202653388,-402626304,285,2785,10,94,235,248
11,12000,15,34,26,0,12,34,27,23.9139,2776,0.0,0,0,0,0,0,0,0,0,-202653160,-402626266,354,2776,9,101,235,42
12,13000,15,34,27,0,12,34,28,23.3678,1974,0.0,0,0,0,0,0,0,0,0,-202652988,-402626190,387,1974,10,94,235,225
13,14000,15,34,28,0,12,34,29,23.7322,2342,0.0,0,0,0,0,0,0,0,0,-202652626,-402625999,455,2342,9,94,232,34
14,15000,15,34,29,0,12,34,30,24.2901,2020,0.0,0,0,0,0,0,0,0,0,-202652378,-402625808,527,2020,8,103,234,145
15,16000,15,34,30,0,12,34,31,23.2625,1948,0.0,0,0,0,0,0,0,0,0,-202652034,-402625541,651,1948,8,158,231,7
16,17000,15,34,31,0,12,34,32,23.0434,1555,0.0,0,0,0,0,0,0,0,0,-202651901,-402625389,734,1555,7,143,232,67
17,18000,15,34,32,0,12,34,33,24.431,312,0.0,0,0,0,0,0,0,0,0,-202652130,-402625427,788,312,9,94,230,109
18,19000,15,34,33,0,12,34,34,23.5806,227,0.0,0,0,0,0,0,0,0,0,-202652320,-402625503,846,227,9,100,232,228
19,20000,15,34,34,0,12,34,35,24.4598,140,0.0,0,0,0,0,0,0,0,0,-202652416,-402625579,905,140,8,135,232,212
20,21000,15,34,35,0,12,34,36,23.1144,768,0.0,0,0,0,0,0,0,0,0,-202652587,-402625732,981,768,8,222,233,14
21,22000,15,34,36,0,12,34,37,23.6477,1035,0.0,0,0,0,0,0,0,0,0,-202652816,-402625961,1034,1035,8,222,233,125
22,23000,15,34,37,0,12,34,38,24.5327,403,0.0,0,0,0,0,0,0,0,0,-202652778,-402626152,996,403,10,101,234,61
23,24000,15,34,38,0,12,34,39,23.0203,485,0.0,0,0,0,0,0,0,0,0,-202652931,-402626113,876,485,10,84,236,211
24,25000,15,34,39,0,12,34,40,24.5377,218,0.0,0,0,0,0,0,0,0,0,-202653083,-402626113,795,218,11,84,235,193
25,26000,15,34,40,0,12,34,41,23.9458,74,0.0,0,0,0,0,0,0,0,0,-202653141,-402626152,725,74,11,84,236,231
26,27000,15,34,41,0,12,34,42,24.4766,53,0.0,0,0,0,0,0,0,0,0,-202653312,-402626152,675,53,11,84,234,205
27,28000,15,34,42,0,12,34,43,23.3993,90,0.0,0,0,0,0,0,0,0,0,-202653388,-402626228,649,90,11,94,243,93
28,29000,15,34,43,0,12,34,44,23.2044,174,0.0,0,0,0,0,0,0,0,0,-202653408,-402626304,622,174,10,94,242,119
29,30000,15,34,44,0,12,34,45,24.2617,92,0.0,0,0,0,0,0,0,0,0,-202653503,-402626342,579,92,9,88,232,8
30,31000,15,34,45,0,12,34,46,23.4029,22,0.0,0,0,0,0,0,0,0,0,-202653579,-402626457,552,22,10,103,235,160
31,32000,15,34,46,0,12,34,47,23.8173,38,0.0,0,0,0,0,0,0,0,0,-202653675,-402626457,520,38,10,94,234,37
32,33000,15,34,47,0,12,34,48,24.1288,88,0.0,0,0,0,0,0,0,0,0,-202653732,-402626495,495,88,10,84,231,242
33,34000,15,34,48,0,12,34,49,23.1694,11,0.0,0,0,0,0,0,0,0,0,-202653808,-402626495,457,11,10,94,231,222
34,35000,15,34,49,0,12,34,50,24.5164,25,0.0,0,0,0,0,0,0,0,0,-202653808,-402626495,440,25,9,94,235,214
35,36000,15,34,50,0,12,34,51,23.6463,20,0.0,0,0,0,0,0,0,0,0,-202653827,-402626495,422,20,10,94,223,150
36,37000,15,34,51,0,12,34,52,23.1316,122,0.0,0,0,0,0,0,0,0,0,-202653827,-402626533,412,122,10,94,232,32
37,38000,15,34,52,0,12,34,53,24.5172,103,0.0,0,0,0,0,0,0,0,0,-202653827,-402626533,400,103,10,84,214,210
38,39000,15,34,53,0,12,34,54,23.145,183,0.0,0,0,0,0,0,0,0,0,-202653846,-402626571,392,183,10,84,230,30
39,40000,15,34,54,0,12,34,55,23.1224,146,0.0,0,0,0,0,0,0,0,0,-202653846,-402626647,380,146,11,84,228,107
40,41000,15,34,55,0,12,34,56,24.0364,62,0.0,0,0,0,0,0,0,0,0,-202653827,-402626686,367,62,10,94,222,153
41,42000,15,34,56,0,12,34,57,23.6465,85,0.0,0,0,0,0,0,0,0,0,-202653865,-402626686,340,85,10,119,229,141
42,43000,15,34,57,0,12,34,58,24.1711,46,0.0,0,0,0,0,0,0,0,0,-202653884,-402626686,330,46,11,97,227,250
43,44000,15,34,58,0,12,34,59,24.1168,33,0.0,0,0,0,0,0,0,0,0,-202653865,-402626724,320,33,11,89,232,169
44,45000,15,34,59,0,12,35,0,24.519,40,0.0,0,0,0,0,0,0,0,0,-202653865,-402626686,311,40,10,97,233,201
45,46000,15,35,0,0,12,35,1,23.7934,90,0.0,0,0,0,0,0,0,0,0,-202653884,-402626686,306,90,10,89,237,192
46,47000,15,35,1,0,12,35,2,24.428,127,0.0,0,0,0,0,0,0,0,0,-202653865,-402626724,303,127,10,89,235,226
47,48000,15,35,2,0,12,35,3,23.3638,277,0.0,0,0,0,0,0,0,0,0,-202653942,-402626724,292,277,11,78,228,156
48,49000,15,35,3,0,12,35,4,23.897,46,0.0,0,0,0,0,0,0,0,0,-202653961,-402626686,282,46,11,78,227,194
49,50000,15,35,4,0,12,35,5,24.6684,66,0.0,0,0,0,0,0,0,0,0,-202653942,-402626686,277,66,10,84,229,236
50,51000,15,35,5,0,12,35,6,23.5116,61,0.0,0,0,0,0,0,0,0,0,-202653942,-402626647,270,61,10,84,231,240
51,52000,15,35,6,0,12,35,7,23.5818,25,0.0,0,0,0,0,0,0,0,0,-202653923,-402626647,267,25,10,94,233,176
52,53000,15,35,7,0,12,35,8,23.4765,116,0.0,0,0,0,0,0,0,0,0,-202653961,-402626647,260,116,11,84,234,29
53,54000,15,35,8,0,12,35,9,24.4702,94,0.0,0,0,0,0,0,0,0,0,-202653999,-402626647,245,94,11,84,228,168
54,55000,15,35,9,0,12,35,10,23.8497,200,0.0,0,0,0,0,0,0,0,0,-202654037,-402626609,238,200,10,91,224,105
55,56000,15,35,10,0,12,35,11,24.5244,235,0.0,0,0,0,0,0,0,0,0,-202654094,-402626571,230,235,11,84,225,124
56,57000,15,35,11,0,12,35,12,24.3479,261,0.0,0,0,0,0,0,0,0,0,-202654132,-402626495,217,261,11,78,216,180
57,58000,15,35,12,0,12,35,13,23.6078,307,0.0,0,0,0,0,0,0,0,0,-202654151,-402626419,207,307,11,78,215,45
58,59000,15,35,13,0,12,35,14,24.0258,325,0.0,0,0,0,0,0,0,0,0,-202654132,-402626342,201,325,11,78,203,153
59,60000,15,35,14,0,12,35,15,23.4957,400,0.0,0,0,0,0,0,0,0,0,-202654113,-402626228,192,400,11,78,205,154
60,61000,15,35,15,0,12,35,16,23.4165,440,0.0,0,0,0,0,0,0,0,0,-202654075,-402626152,187,440,11,78,201,69
61,62000,15,35,16,0,12,35,17,23.2866,420,0.0,0,0,0,0,0,0,0,0,-202654037,-402626037,182,420,11,78,203,160
62,63000,15,35,17,0,12,35,18,23.4051,477,0.0,0,0,0,0,0,0,0,0,-202653980,-402625923,177,477,11,78,205,166
63,64000,15,35,18,0,12,35,19,23.7785,438,0.0,0,0,0,0,0,0,0,0,-202653942,-402625808,173,438,11,78,194,220
64,65000,15,35,19,0,12,35,20,24.1191,435,0.0,0,0,0,0,0,0,0,0,-202653903,-402625694,171,435,11,78,205,91
65,66000,15,35,20,0,12,35,21,24.6712,444,0.0,0,0,0,0,0,0,0,0,-202653865,-402625579,167,444,11,78,200,241
66,67000,15,35,21,0,12,35,22,23.4331,450,0.0,0,0,0,0,0,0,0,0,-202653846,-402625465,165,450,11,78,198,111
67,68000,15,35,22,0,12,35,23,24.2628,453,0.0,0,0,0,0,0,0,0,0,-202653808,-402625350,162,453,11,89,187,4
68,69000,15,35,23,0,12,35,24,24.0229,468,0.0,0,0,0,0,0,0,0,0,-202653789,-402625236,161,468,9,94,191,152
69,70000,15,35,24,0,12,35,25,23.3401,459,0.0,0,0,0,0,0,0,0,0,-202653770,-402625122,156,459,9,94,195,244
70,71000,15,35,25,0,12,35,26,24.2145,466,0.0,0,0,0,0,0,0,0,0,-202653751,-402624969,153,466,9,94,189,154
71,72000,15,35,26,0,12,35,27,23.2741,488,0.0,0,0,0,0,0,0,0,0,-202653713,-402624855,153,488,9,94,194,76
72,73000,15,35,27,0,12,35,28,23.9794,442,0.0,0,0,0,0,0,0,0,0,-202653675,-402624740,150,442,9,94,183,118
73,74000,15,35,28,0,12,35,29,24.6861,492,0.0,0,0,0,0,0,0,0,0,-202653636,-402624626,148,492,9,94,188,95
74,75000,15,35,29,0,12,35,30,23.8484,466,0.0,0,0,0,0,0,0,0,0,-202653617,-402624511,146,466,9,94,181,157
75,76000,15,35,30,0,12,35,31,24.4436,507,0.0,0,0,0,0,0,0,0,0,-202653598,-402624359,143,507,8,100,184,138
76,77000,15,35,31,0,12,35,32,23.6379,483,0.0,0,0,0,0,0,0,0,0,-202653579,-402624244,140,483,9,100,184,205
77,78000,15,35,32,0,12,35,33,24.0729,475,0.0,0,0,0,0,0,0,0,0,-202653541,-402624092,138,475,8,100,184,102
78,79000,15,35,33,0,12,35,34,23.5431,472,0.0,0,0,0,0,0,0,0,0,-202653503,-402623977,136,472,9,100,184,231
79,80000,15,35,34,0,12,35,35,24.0417,472,0.0,0,0,0,0,0,0,0,0,-202653446,-402623863,133,472,10,100,184,126
80,81000,15,35,35,0,12,35,36,23.4761,494,0.0,0,0,0,0,0,0,0,0,-202653427,-402623710,133,494,10,94,170,64
81,82000,15,35,36,0,12,35,37,23.5,474,0.0,0,0,0,0,0,0,0,0,-202653388,-402623596,131,474,10,94,185,157
82,83000,15,35,37,0,12,35,38,24.1937,438,0.0,0,0,0,0,0,0,0,0,-202653350,-402623481,130,438,10,94,172,220
83,84000,15,35,38,0,12,35,39,23.3544,448,0.0,0,0,0,0,0,0,0,0,-202653293,-402623367,130,448,10,89,176,132
84,85000,15,35,39,0,12,35,40,24.4351,387,0.0,0,0,0,0,0,0,0,0,-202653217,-402623291,130,387,10,89,183,144
85,86000,15,35,40,0,12,35,41,23.7078,464,0.0,0,0,0,0,0,0,0,0,-202653102,-402623252,128,464,11,89,173,177
86,87000,15,35,41,0,12,35,42,23.643,464,0.0,0,0,0,0,0,0,0,0,-202652988,-402623252,130,464,11,89,174,19
87,88000,15,35,42,0,12,35,43,24.6362,433,0.0,0,0,0,0,0,0,0,0,-202652873,-402623214,131,433,10,89,171,94
88,89000,15,35,43,0,12,35,44,23.9686,418,0.0,0,0,0,0,0,0,0,0,-202652759,-402623252,126,418,11,78,180,106
89,90000,15,35,44,0,12,35,45,24.7228,431,0.0,0,0,0,0,0,0,0,0,-202652645,-402623291,126,431,11,78,175,190
90,91000,15,35,45,0,12,35,46,24.5066,446,0.0,0,0,0,0,0,0,0,0,-202652549,-402623329,123,446,11,78,177,1
91,92000,15,35,46,0,12,35,47,23.6666,425,0.0,0,0,0,0,0,0,0,0,-202652435,-402623329,121,425,10,80,175,54
92,93000,15,35,47,0,12,35,48,23.8121,400,0.0,0,0,0,0,0,0,0,0,-202652339,-402623405,118,400,11,80,182,5
93,94000,15,35,48,0,12,35,49,24.6756,311,0.0,0,0,0,0,0,0,0,0,-202652301,-402623481,116,311,11,80,177,25
94,95000,15,35,49,0,12,35,50,24.2152,416,0.0,0,0,0,0,0,0,0,0,-202652206,-402623519,115,416,11,80,172,16
95,96000,15,35,50,0,12,35,51,23.8607,437,0.0,0,0,0,0,0,0,0,0,-202652072,-402623558,113,437,11,78,176,132
96,97000,15,35,51,0,12,35,52,24.3622,490,0.0,0,0,0,0,0,0,0,0,-202651958,-402623596,111,490,11,78,174,37
97,98000,15,35,52,0,12,35,53,23.51,472,0.0,0,0,0,0,0,0,0,0,-202651844,-402623672,110,472,11,78,176,21
98,99000,15,35,53,0,12,35,54,24.0783,509,0.0,0,0,0,0,0,0,0,0,-202651729,-402623710,110,509,11,82,174,158
99,100000,15,35,54,0,12,35,55,23.3759,503,0.0,0,0,0,0,0,0,0,0,-202651615,-402623786,111,503,11,78,173,163
100,101000,15,35,55,0,12,35,56,24.2489,470,0.0,0,0,0,0,0,0,0,0,-202651519,-402623863,113,470,10,82,181,103
101,102000,15,35,56,0,12,35,57,24.8546,485,0.0,0,0,0,0,0,0,0,0,-202651424,-402623939,111,485,11,78,178,129
102,103000,15,35,57,0,12,35,58,23.8989,479,0.0,0,0,0,0,0,0,0,0,-202651329,-402624015,108,479,11,78,178,115
103,104000,15,35,58,0,12,35,59,24.8407,461,0.0,0,0,0,0,0,0,0,0,-202651233,-402624053,106,461,11,82,179,121
104,105000,15,35,59,0,12,36,0,24.2368,451,0.0,0,0,0,0,0,0,0,0,-202651176,-402624168,108,451,11,78,179,23
105,106000,15,36,0,0,12,36,1,23.9565,431,0.0,0,0,0,0,0,0,0,0,-202651138,-402624244,108,431,11,78,184,124
106,107000,15,36,1,0,12,36,2,24.6397,435,0.0,0,0,0,0,0,0,0,0,-202651138,-402624359,111,435,11,78,187,0
107,108000,15,36,2,0,12,36,3,23.5794,451,0.0,0,0,0,0,0,0,0,0,-202651157,-402624473,113,451,11,84,174,145
108,109000,15,36,3,0,12,36,4,24.3445,429,0.0,0,0,0,0,0,0,0,0,-202651195,-402624588,111,429,11,84,179,183
109,110000,15,36,4,0,12,36,5,23.5636,474,0.0,0,0,0,0,0,0,0,0,-202651233,-402624702,108,474,11,84,177,100
110,111000,15,36,5,0,12,36,6,24.1039,461,0.0,0,0,0,0,0,0,0,0,-202651271,-402624816,108,461,11,84,184,159
111,112000,15,36,6,0,12,36,7,24.4663,492,0.0,0,0,0,0,0,0,0,0,-202651329,-402624931,108,492,10,84,182,29
112,113000,15,36,7,0,12,36,8,23.7321,488,0.0,0,0,0,0,0,0,0,0,-202651405,-402625007,106,488,11,84,186,105
113,114000,15,36,8,0,12,36,9,24.4985,492,0.0,0,0,0,0,0,0,0,0,-202651481,-402625122,106,492,11,84,171,159
114,115000,15,36,9,0,12,36,10,23.6502,488,0.0,0,0,0,0,0,0,0,0,-202651557,-402625236,106,488,11,78,191,193
115,116000,15,36,10,0,12,36,11,23.5449,520,0.0,0,0,0,0,0,0,0,0,-202651634,-402625350,106,520,11,84,188,55
116,117000,15,36,11,0,12,36,12,24.7174,503,0.0,0,0,0,0,0,0,0,0,-202651691,-402625465,108,503,10,84,193,85
117,118000,15,36,12,0,12,36,13,24.8091,481,0.0,0,0,0,0,0,0,0,0,-202651767,-402625579,108,481,10,84,195,87
118,119000,15,36,13,0,12,36,14,24.3677,531,0.0,0,0,0,0,0,0,0,0,-202651824,-402625694,106,531,10,84,185,253
119,120000,15,36,14,0,12,36,15,24.8136,524,0.0,0,0,0,0,0,0,0,0,-202651882,-402625808,106,524,11,84,197,49
120,121000,15,36,15,0,12,36,16,24.1893,529,0.0,0,0,0,0,0,0,0,0,-202651920,-402625923,106,529,11,84,196,143
121,122000,15,36,16,0,12,36,17,24.773,507,0.0,0,0,0,0,0,0,0,0,-202651939,-402626075,106,507,11,84,196,163
122,123000,15,36,17,0,12,36,18,23.5831,525,0.0,0,0,0,0,0,0,0,0,-202651958,-402626190,106,525,11,84,192,49
123,124000,15,36,18,0,12,36,19,24.294,505,0.0,0,0,0,0,0,0,0,0,-202651958,-402626342,106,505,10,84,199,91
124,125000,15,36,19,0,12,36,20,24.0045,475,0.0,0,0,0,0,0,0,0,0,-202651958,-402626457,106,475,11,84,200,155
125,126000,15,36,20,0,12,36,21,24.2915,505,0.0,0,0,0,0,0,0,0,0,-202651996,-402626571,108,505,11,84,200,46
126,127000,15,36,21,0,12,36,22,24.9,500,0.0,0,0,0,0,0,0,0,0,-202651996,-402626724,108,500,10,84,191,120
127,128000,15,36,22,0,12,36,23,24.8914,494,0.0,0,0,0,0,0,0,0,0,-202652015,-402626838,108,494,10,84,194,212
128,129000,15,36,23,0,12,36,24,24.0102,490,0.0,0,0,0,0,0,0,0,0,-202652034,-402626953,106,490,10,84,198,49
129,130000,15,36,24,0,12,36,25,23.9141,475,0.0,0,0,0,0,0,0,0,0,-202652091,-402627105,106,475,10,84,197,47
130,131000,15,36,25,0,12,36,26,23.7422,407,0.0,0,0,0,0,0,0,0,0,-202652168,-402627182,103,407,10,84,201,247
131,132000,15,36,26,0,12,36,27,24.3707,344,0.0,0,0,0,0,0,0,0,0,-202652244,-402627182,101,344,10,84,189,26
132,133000,15,36,27,0,12,36,28,23.8344,422,0.0,0,0,0,0,0,0,0,0,-202652339,-402627105,98,422,10,84,197,143
133,134000,15,36,28,0,12,36,29,23.8102,431,0.0,0,0,0,0,0,0,0,0,-202652397,-402626991,98,431,11,84,180,201
134,135000,15,36,29,0,12,36,30,24.4172,459,0.0,0,0,0,0,0,0,0,0,-202652435,-402626876,96,459,11,84,199,57
135,136000,15,36,30,0,12,36,31,23.814,464,0.0,0,0,0,0,0,0,0,0,-202652454,-402626762,96,464,11,84,205,145
136,137000,15,36,31,0,12,36,32,23.8028,487,0.0,0,0,0,0,0,0,0,0,-202652473,-402626647,95,487,11,84,197,12
137,138000,15,36,32,0,12,36,33,24.6799,472,0.0,0,0,0,0,0,0,0,0,-202652473,-402626495,96,472,11,79,202,113
138,139000,15,36,33,0,12,36,34,24.627,329,0.0,0,0,0,0,0,0,0,0,-202652473,-402626380,96,329,11,79,202,179
139,140000,15,36,34,0,12,36,35,24.3725,294,0.0,0,0,0,0,0,0,0,0,-202652473,-402626304,98,294,11,79,202,170
140,141000,15,36,35,0,12,36,36,23.6889,331,0.0,0,0,0,0,0,0,0,0,-202652473,-402626228,98,331,11,79,207,46
141,142000,15,36,36,0,12,36,37,24.3268,412,0.0,0,0,0,0,0,0,0,0,-202652473,-402626113,101,412,11,79,209,52
142,143000,15,36,37,0,12,36,38,24.9543,379,0.0,0,0,0,0,0,0,0,0,-202652454,-402625999,103,379,11,79,201,104
143,144000,15,36,38,0,12,36,39,24.6956,348,0.0,0,0,0,0,0,0,0,0,-202652454,-402625923,105,348,11,79,200,102
144,145000,15,36,39,0,12,36,40,24.2893,355,0.0,0,0,0,0,0,0,0,0,-202652454,-402625808,106,355,11,79,196,214
145,146000,15,36,40,0,12,36,41,24.7213,359,0.0,0,0,0,0,0,0,0,0,-202652454,-402625694,111,359,11,84,184,73
146,147000,15,36,41,0,12,36,42,23.6506,359,0.0,0,0,0,0,0,0,0,0,-202652435,-402625617,113,359,11,84,196,153
147,148000,15,36,42,0,12,36,43,24.4164,314,0.0,0,0,0,0,0,0,0,0,-202652416,-402625541,115,314,11,84,196,143
148,149000,15,36,43,0,12,36,44,24.875,333,0.0,0,0,0,0,0,0,0,0,-202652416,-402625427,116,333,11,84,182,23
149,150000,15,36,44,0,12,36,45,23.7484,335,0.0,0,0,0,0,0,0,0,0,-202652397,-402625350,120,335,11,79,193,103
150,151000,15,36,45,0,12,36,46,23.5991,342,0.0,0,0,0,0,0,0,0,0,-202652378,-402625236,121,342,11,79,196,234
151,152000,15,36,46,0,12,36,47,23.5205,307,0.0,0,0,0,0,0,0,0,0,-202652359,-402625160,123,307,11,79,198,243
152,153000,15,36,47,0,12,36,48,23.9692,344,0.0,0,0,0,0,0,0,0,0,-202652359,-402625083,123,344,11,79,194,120
153,154000,15,36,48,0,12,36,49,24.8816,348,0.0,0,0,0,0,0,0,0,0,-202652359,-402624969,126,348,11,79,187,228
154,155000,15,36,49,0,12,36,50,23.8579,374,0.0,0,0,0,0,0,0,0,0,-202652359,-402624893,126,374,11,84,203,87
155,156000,15,36,50,0,12,36,51,24.2065,407,0.0,0,0,0,0,0,0,0,0,-202652359,-402624778,126,407,11,84,210,250
156,157000,15,36,51,0,12,36,52,24.2954,422,0.0,0,0,0,0,0,0,0,0,-202652359,-402624664,126,422,11,84,207,121
157,158000,15,36,52,0,12,36,53,24.831,396,0.0,0,0,0,0,0,0,0,0,-202652416,-402624588,128,396,10,84,206,71
158,159000,15,36,53,0,12,36,54,24.2142,385,0.0,0,0,0,0,0,0,0,0,-202652492,-402624511,131,385,11,84,208,36
159,160000,15,36,54,0,12,36,55,25.0257,470,0.0,0,0,0,0,0,0,0,0,-202652606,-402624511,131,470,11,84,211,74
160,161000,15,36,55,0,12,36,56,24.4819,451,0.0,0,0,0,0,0,0,0,0,-202652721,-402624511,133,451,11,84,203,159
161,162000,15,36,56,0,12,36,57,25.0319,501,0.0,0,0,0,0,0,0,0,0,-202652816,-402624588,136,501,10,105,202,91
162,163000,15,36,57,0,12,36,58,24.0445,366,0.0,0,0,0,0,0,0,0,0,-202652873,-402624664,136,366,9,105,197,181
163,164000,15,36,58,0,12,36,59,24.946,266,0.0,0,0,0,0,0,0,0,0,-202652893,-402624778,133,266,9,105,201,81
164,165000,15,36,59,0,12,37,0,23.7068,251,0.0,0,0,0,0,0,0,0,0,-202652912,-402624855,128,251,10,105,201,187
165,166000,15,37,0,0,12,37,1,24.6415,381,0.0,0,0,0,0,0,0,0,0,-202652931,-402624931,126,381,9,105,204,17
166,167000,15,37,1,0,12,37,2,25.0356,405,0.0,0,0,0,0,0,0,0,0,-202652950,-402625045,123,405,10,105,196,167
167,168000,15,37,2,0,12,37,3,23.9849,372,0.0,0,0,0,0,0,0,0,0,-202652969,-402625122,121,372,10,105,193,241
168,169000,15,37,3,0,12,37,4,25.0332,366,0.0,0,0,0,0,0,0,0,0,-202652988,-402625236,120,366,9,105,198,76
169,170000,15,37,4,0,12,37,5,23.9778,375,0.0,0,0,0,0,0,0,0,0,-202653026,-402625312,118,375,9,105,204,215
170,171000,15,37,5,0,12,37,6,24.7252,359,0.0,0,0,0,0,0,0,0,0,-202653045,-402625427,118,359,9,105,195,30
171,172000,15,37,6,0,12,37,7,25.0542,379,0.0,0,0,0,0,0,0,0,0,-202653083,-402625503,118,379,9,105,207,194
172,173000,15,37,7,0,12,37,8,24.9019,388,0.0,0,0,0,0,0,0,0,0,-202653121,-402625579,116,388,9,105,200,77
173,174000,15,37,8,0,12,37,9,24.3248,385,0.0,0,0,0,0,0,0,0,0,-202653141,-402625694,116,385,9,105,206,174
174,175000,15,37,9,0,12,37,10,24.8207,400,0.0,0,0,0,0,0,0,0,0,-202653179,-402625808,116,400,9,105,198,33
175,176000,15,37,10,0,12,37,11,24.9716,412,0.0,0,0,0,0,0,0,0,0,-202653198,-402625885,113,412,9,105,203,195
176,177000,15,37,11,0,12,37,12,24.3142,444,0.0,0,0,0,0,0,0,0,0,-202653236,-402625999,111,444,10,105,207,88
177,178000,15,37,12,0,12,37,13,25.0355,463,0.0,0,0,0,0,0,0,0,0,-202653255,-402626113,110,463,10,84,208,208
178,179000,15,37,13,0,12,37,14,24.8724,522,0.0,0,0,0,0,0,0,0,0,-202653293,-402626228,108,522,10,84,210,155
179,180000,15,37,14,0,12,37,15,24.2534,474,0.0,0,0,0,0,0,0,0,0,-202653350,-402626342,106,474,10,84,188,121
180,181000,15,37,15,0,12,37,16,24.7701,503,0.0,0,0,0,0,0,0,0,0,-202653388,-402626457,106,503,10,84,203,8
181,182000,15,37,16,0,12,37,17,23.7919,496,0.0,0,0,0,0,0,0,0,0,-202653427,-402626571,105,496,10,84,203,76
182,183000,15,37,17,0,12,37,18,25.0368,479,0.0,0,0,0,0,0,0,0,0,-202653484,-402626686,105,479,10,84,200,107
183,184000,15,37,18,0,12,37,19,23.9063,377,0.0,0,0,0,0,0,0,0,0,-202653503,-402626800,106,377,10,84,195,9
184,185000,15,37,19,0,12,37,20,24.6412,233,0.0,0,0,0,0,0,0,0,0,-202653522,-402626838,111,233,10,84,210,160
185,186000,15,37,20,0,12,37,21,23.8025,159,0.0,0,0,0,0,0,0,0,0,-202653541,-402626876,116,159,10,84,201,198
186,187000,15,37,21,0,12,37,22,23.7928,372,0.0,0,0,0,0,0,0,0,0,-202653560,-402626991,118,372,10,84,199,220
187,188000,15,37,22,0,12,37,23,24.2342,505,0.0,0,0,0,0,0,0,0,0,-202653579,-402627105,118,505,10,84,194,78
188,189000,15,37,23,0,12,37,24,24.6023,464,0.0,0,0,0,0,0,0,0,0,-202653579,-402627258,121,464,9,105,200,104
189,190000,15,37,24,0,12,37,25,24.3555,403,0.0,0,0,0,0,0,0,0,0,-202653598,-402627334,123,403,10,84,206,106
190,191000,15,37,25,0,12,37,26,24.4566,416,0.0,0,0,0,0,0,0,0,0,-202653617,-402627449,123,416,10,84,206,236
191,192000,15,37,26,0,12,37,27,25.0167,431,0.0,0,0,0,0,0,0,0,0,-202653656,-402627563,121,431,10,84,206,93
192,193000,15,37,27,0,12,37,28,24.1448,392,0.0,0,0,0,0,0,0,0,0,-202653694,-402627639,121,392,10,84,201,137
193,194000,15,37,28,0,12,37,29,23.5582,364,0.0,0,0,0,0,0,0,0,0,-202653732,-402627754,120,364,10,84,202,164
194,195000,15,37,29,0,12,37,30,25.0282,377,0.0,0,0,0,0,0,0,0,0,-202653751,-402627830,116,377,10,84,203,73
195,196000,15,37,30,0,12,37,31,25.2022,440,0.0,0,0,0,0,0,0,0,0,-202653789,-402627944,115,440,10,84,195,27
196,197000,15,37,31,0,12,37,32,23.8129,485,0.0,0,0,0,0,0,0,0,0,-202653827,-402628059,113,485,11,84,203,202
197,198000,15,37,32,0,12,37,33,24.6305,481,0.0,0,0,0,0,0,0,0,0,-202653846,-402628173,113,481,11,84,203,42
198,199000,15,37,33,0,12,37,34,25.0341,487,0.0,0,0,0,0,0,0,0,0,-202653884,-402628326,113,487,10,84,203,100
199,200000,15,37,34,0,12,37,35,23.9662,453,0.0,0,0,0,0,0,0,0,0,-202653903,-402628440,113,453,11,84,200,137
200,201000,15,37,35,0,12,37,36,25.0893,364,0.0,0,0,0,0,0,0,0,0,-202653942,-402628517,113,364,11,84,204,81
201,202000,15,37,36,0,12,37,37,24.2789,427,0.0,0,0,0,0,0,0,0,0,-202653980,-402628631,111,427,11,84,207,33
202,203000,15,37,37,0,12,37,38,25.0065,488,0.0,0,0,0,0,0,0,0,0,-202654018,-402628746,111,488,11,84,206,239
203,204000,15,37,38,0,12,37,39,24.3056,496,0.0,0,0,0,0,0,0,0,0,-202654056,-402628860,108,496,11,85,204,83
204,205000,15,37,39,0,12,37,40,23.6032,472,0.0,0,0,0,0,0,0,0,0,-202654094,-402628974,108,472,11,79,202,114
205,206000,15,37,40,0,12,37,41,25.1791,457,0.0,0,0,0,0,0,0,0,0,-202654113,-402629089,108,457,11,79,202,188
206,207000,15,37,41,0,12,37,42,25.1813,514,0.0,0,0,0,0,0,0,0,0,-202654151,-402629203,110,514,11,84,201,140
207,208000,15,37,42,0,12,37,43,24.3428,409,0.0,0,0,0,0,0,0,0,0,-202654170,-402629318,111,409,11,84,200,33
208,209000,15,37,43,0,12,37,44,24.8236,303,0.0,0,0,0,0,0,0,0,0,-202654170,-402629432,113,303,11,84,195,202
209,210000,15,37,44,0,12,37,45,23.955,362,0.0,0,0,0,0,0,0,0,0,-202654190,-402629508,116,362,11,84,194,209
210,211000,15,37,45,0,12,37,46,24.349,377,0.0,0,0,0,0,0,0,0,0,-202654228,-402629623,115,377,11,85,196,67
211,212000,15,37,46,0,12,37,47,24.1214,557,0.0,0,0,0,0,0,0,0,0,-202654266,-402629737,116,557,11,79,192,253
212,213000,15,37,47,0,12,37,48,25.1597,498,0.0,0,0,0,0,0,0,0,0,-202654285,-402629890,116,498,11,79,193,198
213,214000,15,37,48,0,12,37,49,24.8739,362,0.0,0,0,0,0,0,0,0,0,-202654304,-402629966,116,362,11,79,193,68
214,215000,15,37,49,0,12,37,50,23.8503,357,0.0,0,0,0,0,0,0,0,0,-202654323,-402630081,113,357,11,79,196,159
215,216000,15,37,50,0,12,37,51,24.4653,324,0.0,0,0,0,0,0,0,0,0,-202654361,-402630157,111,324,11,79,191,214
216,217000,15,37,51,0,12,37,52,24.5307,427,0.0,0,0,0,0,0,0,0,0,-202654380,-402630271,108,427,11,79,191,10
217,218000,15,37,52,0,12,37,53,24.1739,372,0.0,0,0,0,0,0,0,0,0,-202654399,-402630386,105,372,11,79,191,1
218,219000,15,37,53,0,12,37,54,24.4767,459,0.0,0,0,0,0,0,0,0,0,-202654418,-402630500,103,459,11,85,189,27
219,220000,15,37,54,0,12,37,55,24.1975,490,0.0,0,0,0,0,0,0,0,0,-202654457,-402630615,101,490,11,85,191,171
220,221000,15,37,55,0,12,37,56,24.2022,479,0.0,0,0,0,0,0,0,0,0,-202654495,-402630729,100,479,10,85,191,231
221,222000,15,37,56,0,12,37,57,24.6408,479,0.0,0,0,0,0,0,0,0,0,-202654552,-402630844,100,479,10,85,191,41
222,223000,15,37,57,0,12,37,58,23.8464,479,0.0,0,0,0,0,0,0,0,0,-202654571,-402630958,100,479,10,85,189,145
223,224000,15,37,58,0,12,37,59,24.6659,490,0.0,0,0,0,0,0,0,0,0,-202654590,-402631111,100,490,10,85,191,233
224,225000,15,37,59,0,12,38,0,23.9892,490,0.0,0,0,0,0,0,0,0,0,-202654609,-402631225,100,490,10,85,193,80
225,226000,15,38,0,0,12,38,1,24.4306,505,0.0,0,0,0,0,0,0,0,0,-202654628,-402631340,98,505,10,85,193,153
226,227000,15,38,1,0,12,38,2,24.9018,505,0.0,0,0,0,0,0,0,0,0,-202654666,-402631492,100,505,10,85,195,202
227,228000,15,38,2,0,12,38,3,23.9556,394,0.0,0,0,0,0,0,0,0,0,-202654685,-402631607,101,394,11,85,196,86
228,229000,15,38,3,0,12,38,4,25.0037,320,0.0,0,0,0,0,0,0,0,0,-202654685,-402631683,105,320,11,85,192,103
229,230000,15,38,4,0,12,38,5,24.2327,290,0.0,0,0,0,0,0,0,0,0,-202654705,-402631759,110,290,11,85,194,190
230,231000,15,38,5,0,12,38,6,24.3866,335,0.0,0,0,0,0,0,0,0,0,-202654724,-402631874,110,335,11,79,188,121
231,232000,15,38,6,0,12,38,7,25.057,487,0.0,0,0,0,0,0,0,0,0,-202654743,-402631988,108,487,11,79,189,15
232,233000,15,38,7,0,12,38,8,24.2833,438,0.0,0,0,0,0,0,0,0,0,-202654762,-402632102,110,438,11,79,193,24
233,234000,15,38,8,0,12,38,9,24.8628,338,0.0,0,0,0,0,0,0,0,0,-202654781,-402632179,108,338,11,79,194,220
234,235000,15,38,9,0,12,38,10,25.277,451,0.0,0,0,0,0,0,0,0,0,-202654800,-402632293,106,451,11,79,198,35
235,236000,15,38,10,0,12,38,11,24.3293,481,0.0,0,0,0,0,0,0,0,0,-202654857,-402632446,105,481,11,79,199,122
236,237000,15,38,11,0,12,38,12,23.9689,429,0.0,0,0,0,0,0,0,0,0,-202654914,-402632522,103,429,11,79,194,120
237,238000,15,38,12,0,12,38,13,24.9044,435,0.0,0,0,0,0,0,0,0,0,-202654972,-402632637,103,435,11,79,198,197
238,239000,15,38,13,0,12,38,14,25.0446,420,0.0,0,0,0,0,0,0,0,0,-202655010,-402632751,100,420,11,79,190,248
239,240000,15,38,14,0,12,38,15,24.0537,453,0.0,0,0,0,0,0,0,0,0,-202655067,-402632865,98,453,11,79,188,123
240,241000,15,38,15,0,12,38,16,25.1483,457,0.0,0,0,0,0,0,0,0,0,-202655067,-402632980,98,457,11,79,186,253
241,242000,15,38,16,0,12,38,17,23.9175,472,0.0,0,0,0,0,0,0,0,0,-202655048,-402633094,96,472,11,79,185,168
242,243000,15,38,17,0,12,38,18,24.9913,531,0.0,0,0,0,0,0,0,0,0,-202655010,-402633247,95,531,11,79,177,153
243,244000,15,38,18,0,12,38,19,24.106,531,0.0,0,0,0,0,0,0,0,0,-202654953,-402633361,95,531,11,79,173,79
244,245000,15,38,19,0,12,38,20,24.9169,522,0.0,0,0,0,0,0,0,0,0,-202654895,-402633476,93,522,11,79,170,239
245,246000,15,38,20,0,12,38,21,24.196,503,0.0,0,0,0,0,0,0,0,0,-202654819,-402633590,93,503,11,79,177,142
246,247000,15,38,21,0,12,38,22,24.8332,518,0.0,0,0,0,0,0,0,0,0,-202654724,-402633705,93,518,11,79,186,136
247,248000,15,38,22,0,12,38,23,24.6132,440,0.0,0,0,0,0,0,0,0,0,-202654628,-402633743,96,440,11,79,195,21
248,249000,15,38,23,0,12,38,24,24.2289,470,0.0,0,0,0,0,0,0,0,0,-202654514,-402633781,96,470,11,79,192,139
249,250000,15,38,24,0,12,38,25,23.8474,437,0.0,0,0,0,0,0,0,0,0,-202654418,-402633743,96,437,11,79,194,190
250,251000,15,38,25,0,12,38,26,24.208,461,0.0,0,0,0,0,0,0,0,0,-202654323,-402633666,93,461,10,92,193,146
251,252000,15,38,26,0,12,38,27,24.5497,487,0.0,0,0,0,0,0,0,0,0,-202654247,-402633590,93,487,10,85,194,69
252,253000,15,38,27,0,12,38,28,24.2255,472,0.0,0,0,0,0,0,0,0,0,-202654170,-402633514,91,472,10,85,190,173
253,254000,15,38,28,0,12,38,29,25.2112,514,0.0,0,0,0,0,0,0,0,0,-202654056,-402633438,91,514,10,85,188,176
254,255000,15,38,29,0,12,38,30,24.0839,537,0.0,0,0,0,0,0,0,0,0,-202653961,-402633361,91,537,9,106,187,140
255,256000,15,38,30,0,12,38,31,24.6693,544,0.0,0,0,0,0,0,0,0,0,-202653865,-402633285,91,544,10,106,182,54
256,257000,15,38,31,0,12,38,32,25.4127,544,0.0,0,0,0,0,0,0,0,0,-202653770,-402633171,91,544,10,106,177,246
257,258000,15,38,32,0,12,38,33,25.1423,538,0.0,0,0,0,0,0,0,0,0,-202653675,-402633056,93,538,10,106,182,173
258,259000,15,38,33,0,12,38,34,24.1367,490,0.0,0,0,0,0,0,0,0,0,-202653598,-402632980,93,490,10,106,179,210
259,260000,15,38,34,0,12,38,35,24.8274,535,0.0,0,0,0,0,0,0,0,0,-202653522,-402632865,93,535,9,106,183,219
260,261000,15,38,35,0,12,38,36,24.0869,535,0.0,0,0,0,0,0,0,0,0,-202653446,-402632751,95,535,9,106,179,137
261,262000,15,38,36,0,12,38,37,25.4554,453,0.0,0,0,0,0,0,0,0,0,-202653388,-402632637,98,453,9,106,192,130
262,263000,15,38,37,0,12,38,38,24.6095,272,0.0,0,0,0,0,0,0,0,0,-202653369,-402632560,101,272,10,106,197,107
263,264000,15,38,38,0,12,38,39,24.4684,435,0.0,0,0,0,0,0,0,0,0,-202653312,-402632484,103,435,10,106,200,38
264,265000,15,38,39,0,12,38,40,24.6267,437,0.0,0,0,0,0,0,0,0,0,-202653274,-402632369,105,437,9,106,199,179
265,266000,15,38,40,0,12,38,41,23.9012,409,0.0,0,0,0,0,0,0,0,0,-202653236,-402632293,108,409,9,106,200,222
266,267000,15,38,41,0,12,38,42,24.39,457,0.0,0,0,0,0,0,0,0,0,-202653179,-402632179,108,457,10,106,196,217
267,268000,15,38,42,0,12,38,43,24.0058,472,0.0,0,0,0,0,0,0,0,0,-202653141,-402632064,106,472,11,106,197,125
268,269000,15,38,43,0,12,38,44,24.7963,492,0.0,0,0,0,0,0,0,0,0,-202653083,-402631950,105,492,10,106,198,61
269,270000,15,38,44,0,12,38,45,24.3896,485,0.0,0,0,0,0,0,0,0,0,-202653026,-402631835,103,485,9,106,190,199
270,271000,15,38,45,0,12,38,46,24.8031,487,0.0,0,0,0,0,0,0,0,0,-202652988,-402631721,101,487,9,106,191,79
271,272000,15,38,46,0,12,38,47,24.8739,518,0.0,0,0,0,0,0,0,0,0,-202652950,-402631607,101,518,10,85,192,2
272,273000,15,38,47,0,12,38,48,23.915,564,0.0,0,0,0,0,0,0,0,0,-202652912,-402631454,100,564,10,85,197,11
273,274000,15,38,48,0,12,38,49,24.5799,503,0.0,0,0,0,0,0,0,0,0,-202652854,-402631340,100,503,9,106,197,62
274,275000,15,38,49,0,12,38,50,25.3541,518,0.0,0,0,0,0,0,0,0,0,-202652816,-402631225,101,518,9,106,193,230
275,276000,15,38,50,0,12,38,51,24.0968,540,0.0,0,0,0,0,0,0,0,0,-202652740,-402631111,100,540,10,85,192,170
276,277000,15,38,51,0,12,38,52,24.6215,575,0.0,0,0,0,0,0,0,0,0,-202652683,-402630958,101,575,10,100,197,192
277,278000,15,38,52,0,12,38,53,23.9815,442,0.0,0,0,0,0,0,0,0,0,-202652626,-402630844,103,442,10,85,189,65
278,279000,15,38,53,0,12,38,54,24.764,451,0.0,0,0,0,0,0,0,0,0,-202652568,-402630767,106,451,10,85,193,203
279,280000,15,38,54,0,12,38,55,24.9189,364,0.0,0,0,0,0,0,0,0,0,-202652511,-402630653,106,364,10,85,199,183
280,281000,15,38,55,0,12,38,56,25.157,381,0.0,0,0,0,0,0,0,0,0,-202652454,-402630577,106,381,10,85,196,76
281,282000,15,38,56,0,12,38,57,24.0746,411,0.0,0,0,0,0,0,0,0,0,-202652416,-402630500,103,411,10,85,191,231
282,283000,15,38,57,0,12,38,58,24.5328,505,0.0,0,0,0,0,0,0,0,0,-202652359,-402630386,98,505,10,85,191,56
283,284000,15,38,58,0,12,38,59,24.9537,575,0.0,0,0,0,0,0,0,0,0,-202652301,-402630271,96,575,10,85,197,95
284,285000,15,38,59,0,12,39,0,25.3786,527,0.0,0,0,0,0,0,0,0,0,-202652244,-402630119,96,527,10,85,193,191
285,286000,15,39,0,0,12,39,1,24.0574,527,0.0,0,0,0,0,0,0,0,0,-202652206,-402630004,96,527,10,85,183,11
286,287000,15,39,1,0,12,39,2,24.5001,424,0.0,0,0,0,0,0,0,0,0,-202652168,-402629890,96,424,10,85,192,193
287,288000,15,39,2,0,12,39,3,25.2009,368,0.0,0,0,0,0,0,0,0,0,-202652111,-402629776,101,368,10,100,198,0
288,289000,15,39,3,0,12,39,4,24.2934,312,0.0,0,0,0,0,0,0,0,0,-202652072,-402629699,103,312,10,100,193,243
289,290000,15,39,4,0,12,39,5,24.089,350,0.0,0,0,0,0,0,0,0,0,-202652015,-402629661,103,350,10,85,192,125
290,291000,15,39,5,0,12,39,6,24.4551,472,0.0,0,0,0,0,0,0,0,0,-202651920,-402629585,103,472,11,85,189,12
291,292000,15,39,6,0,12,39,7,24.9387,529,0.0,0,0,0,0,0,0,0,0,-202651844,-402629470,103,529,10,85,196,45
292,293000,15,39,7,0,12,39,8,25.3316,492,0.0,0,0,0,0,0,0,0,0,-202651786,-402629356,101,492,10,85,193,122
293,294000,15,39,8,0,12,39,9,25.3343,524,0.0,0,0,0,0,0,0,0,0,-202651767,-402629241,100,524,10,85,188,47
294,295000,15,39,9,0,12,39,10,24.2904,520,0.0,0,0,0,0,0,0,0,0,-202651748,-402629089,98,520,10,85,189,191
295,296000,15,39,10,0,12,39,11,24.784,524,0.0,0,0,0,0,0,0,0,0,-202651748,-402628936,100,524,10,85,179,80
296,297000,15,39,11,0,12,39,12,24.6829,551,0.0,0,0,0,0,0,0,0,0,-202651767,-402628822,100,551,10,85,184,212
297,298000,15,39,12,0,12,39,13,25.4132,592,0.0,0,0,0,0,0,0,0,0,-202651805,-402628669,101,592,10,85,189,136
298,299000,15,39,13,0,12,39,14,24.5946,487,0.0,0,0,0,0,0,0,0,0,-202651882,-402628555,103,487,11,85,194,202
299,300000,15,39,14,0,12,39,15,25.2985,490,0.0,0,0,0,0,0,0,0,0,-202651977,-402628479,108,490,11,100,188,190
300,301000,15,39,15,0,12,39,16,24.5883,459,0.0,0,0,0,0,0,0,0,0,-202652091,-402628479,108,459,10,85,190,236
301,302000,15,39,16,0,12,39,17,24.9475,464,0.0,0,0,0,0,0,0,0,0,-202652187,-402628593,106,464,10,85,191,15
302,303000,15,39,17,0,12,39,18,24.3045,574,0.0,0,0,0,0,0,0,0,0,-202652263,-402628707,106,574,10,85,191,28
303,304000,15,39,18,0,12,39,19,25.0073,525,0.0,0,0,0,0,0,0,0,0,-202652339,-402628822,106,525,10,85,193,233
304,305000,15,39,19,0,12,39,20,24.364,500,0.0,0,0,0,0,0,0,0,0,-202652416,-402628936,106,500,10,85,193,227
305,306000,15,39,20,0,12,39,21,25.0773,529,0.0,0,0,0,0,0,0,0,0,-202652492,-402629051,105,529,10,85,192,76
306,307000,15,39,21,0,12,39,22,25.5628,520,0.0,0,0,0,0,0,0,0,0,-202652549,-402629165,103,520,10,85,192,122
307,308000,15,39,22,0,12,39,23,25.2183,531,0.0,0,0,0,0,0,0,0,0,-202652626,-402629280,100,531,10,85,195,187
308,309000,15,39,23,0,12,39,24,24.7262,507,0.0,0,0,0,0,0,0,0,0,-202652721,-402629394,98,507,10,85,200,162
309,310000,15,39,24,0,12,39,25,24.4723,355,0.0,0,0,0,0,0,0,0,0,-202652778,-402629470,101,355,10,85,201,221
310,311000,15,39,25,0,12,39,26,24.6068,300,0.0,0,0,0,0,0,0,0,0,-202652797,-402629547,103,300,10,85,201,255
311,312000,15,39,26,0,12,39,27,25.5078,381,0.0,0,0,0,0,0,0,0,0,-202652835,-402629623,106,381,10,85,200,32
312,313000,15,39,27,0,12,39,28,25.3451,429,0.0,0,0,0,0,0,0,0,0,-202652873,-402629737,105,429,10,85,199,212
313,314000,15,39,28,0,12,39,29,25.0336,437,0.0,0,0,0,0,0,0,0,0,-202652912,-402629852,103,437,10,85,194,54
314,315000,15,39,29,0,12,39,30,25.4796,477,0.0,0,0,0,0,0,0,0,0,-202652931,-402629966,101,477,10,85,194,235
315,316000,15,39,30,0,12,39,31,24.9496,553,0.0,0,0,0,0,0,0,0,0,-202652988,-402630119,101,553,10,85,193,161
316,317000,15,39,31,0,12,39,32,25.1331,544,0.0,0,0,0,0,0,0,0,0,-202653026,-402630233,101,544,10,85,192,228
317,318000,15,39,32,0,12,39,33,25.1827,470,0.0,0,0,0,0,0,0,0,0,-202653064,-402630386,101,470,10,85,194,125
318,319000,15,39,33,0,12,39,34,24.6972,524,0.0,0,0,0,0,0,0,0,0,-202653102,-402630500,101,524,10,85,196,64
319,320000,15,39,34,0,12,39,35,25.4028,453,0.0,0,0,0,0,0,0,0,0,-202653141,-402630615,101,453,10,85,199,4
320,321000,15,39,35,0,12,39,36,24.2125,368,0.0,0,0,0,0,0,0,0,0,-202653179,-402630729,103,368,10,85,197,176
321,322000,15,39,36,0,12,39,37,24.6753,338,0.0,0,0,0,0,0,0,0,0,-202653217,-402630805,105,338,10,85,196,241
322,323000,15,39,37,0,12,39,38,24.2781,498,0.0,0,0,0,0,0,0,0,0,-202653236,-402630920,103,498,10,85,196,150
323,324000,15,39,38,0,12,39,39,25.2402,475,0.0,0,0,0,0,0,0,0,0,-202653236,-402631034,103,475,10,85,193,228
324,325000,15,39,39,0,12,39,40,25.5927,427,0.0,0,0,0,0,0,0,0,0,-202653255,-402631149,101,427,10,85,189,234
325,326000,15,39,40,0,12,39,41,24.5139,474,0.0,0,0,0,0,0,0,0,0,-202653274,-402631263,98,474,10,85,181,173
326,327000,15,39,41,0,12,39,42,25.4882,459,0.0,0,0,0,0,0,0,0,0,-202653312,-402631378,98,459,10,85,196,228
327,328000,15,39,42,0,12,39,43,24.5936,375,0.0,0,0,0,0,0,0,0,0,-202653388,-402631454,98,375,9,106,192,166
328,329000,15,39,43,0,12,39,44,25.0862,427,0.0,0,0,0,0,0,0,0,0,-202653484,-402631454,98,427,9,106,190,155
329,330000,15,39,44,0,12,39,45,24.6003,433,0.0,0,0,0,0,0,0,0,0,-202653598,-402631454,98,433,10,85,191,15
330,331000,15,39,45,0,12,39,46,25.3202,451,0.0,0,0,0,0,0,0,0,0,-202653675,-402631378,98,451,10,85,192,32
331,332000,15,39,46,0,12,39,47,24.6559,472,0.0,0,0,0,0,0,0,0,0,-202653732,-402631263,98,472,10,85,191,113
332,333000,15,39,47,0,12,39,48,25.0089,301,0.0,0,0,0,0,0,0,0,0,-202653751,-402631187,98,301,10,85,190,66
333,334000,15,39,48,0,12,39,49,24.2063,542,0.0,0,0,0,0,0,0,0,0,-202653694,-402631072,96,542,10,85,189,192
334,335000,15,39,49,0,12,39,50,25.1868,581,0.0,0,0,0,0,0,0,0,0,-202653636,-402630958,96,581,10,85,193,168
335,336000,15,39,50,0,12,39,51,25.2438,501,0.0,0,0,0,0,0,0,0,0,-202653579,-402630805,98,501,10,85,195,201
336,337000,15,39,51,0,12,39,52,24.701,429,0.0,0,0,0,0,0,0,0,0,-202653522,-402630729,100,429,10,85,197,174
337,338000,15,39,52,0,12,39,53,25.1623,457,0.0,0,0,0,0,0,0,0,0,-202653465,-402630615,101,457,10,85,197,129
338,339000,15,39,53,0,12,39,54,24.5083,529,0.0,0,0,0,0,0,0,0,0,-202653408,-402630500,98,529,10,85,198,171
339,340000,15,39,54,0,12,39,55,25.2901,574,0.0,0,0,0,0,0,0,0,0,-202653369,-402630348,98,574,10,85,193,179
340,341000,15,39,55,0,12,39,56,24.3924,448,0.0,0,0,0,0,0,0,0,0,-202653331,-402630233,98,448,10,85,194,60
341,342000,15,39,56,0,12,39,57,25.2584,585,0.0,0,0,0,0,0,0,0,0,-202653274,-402630119,96,585,10,85,190,231
342,343000,15,39,57,0,12,39,58,25.2856,514,0.0,0,0,0,0,0,0,0,0,-202653255,-402629966,95,514,10,85,186,242
343,344000,15,39,58,0,12,39,59,24.841,440,0.0,0,0,0,0,0,0,0,0,-202653217,-402629852,96,440,10,85,187,228
344,345000,15,39,59,0,12,40,0,25.6565,427,0.0,0,0,0,0,0,0,0,0,-202653217,-402629737,93,427,10,85,175,40
345,346000,15,40,0,0,12,40,1,24.7045,540,0.0,0,0,0,0,0,0,0,0,-202653179,-402629623,93,540,10,85,189,89
346,347000,15,40,1,0,12,40,2,25.6531,479,0.0,0,0,0,0,0,0,0,0,-202653160,-402629470,93,479,10,85,199,119
347,348000,15,40,2,0,12,40,3,24.3551,450,0.0,0,0,0,0,0,0,0,0,-202653121,-402629356,90,450,10,85,195,194
348,349000,15,40,3,0,12,40,4,24.9505,507,0.0,0,0,0,0,0,0,0,0,-202653083,-402629241,88,507,10,85,193,185
349,350000,15,40,4,0,12,40,5,25.4805,509,0.0,0,0,0,0,0,0,0,0,-202653064,-402629089,88,509,10,85,194,87
350,351000,15,40,5,0,12,40,6,24.7019,496,0.0,0,0,0,0,0,0,0,0,-202653026,-402628974,88,496,10,85,196,196
351,352000,15,40,6,0,12,40,7,25.7472,429,0.0,0,0,0,0,0,0,0,0,-202653026,-402628860,90,429,11,85,199,162
352,353000,15,40,7,0,12,40,8,24.9447,464,0.0,0,0,0,0,0,0,0,0,-202652988,-402628746,88,464,10,85,193,106
353,354000,15,40,8,0,12,40,9,25.5021,481,0.0,0,0,0,0,0,0,0,0,-202652950,-402628631,86,481,10,85,198,17
354,355000,15,40,9,0,12,40,10,24.6566,500,0.0,0,0,0,0,0,0,0,0,-202652893,-402628517,86,500,10,85,204,210
355,356000,15,40,10,0,12,40,11,25.0456,516,0.0,0,0,0,0,0,0,0,0,-202652854,-402628364,86,516,10,85,205,162
356,357000,15,40,11,0,12,40,12,24.6238,505,0.0,0,0,0,0,0,0,0,0,-202652816,-402628250,86,505,10,85,197,17
357,358000,15,40,12,0,12,40,13,24.8938,481,0.0,0,0,0,0,0,0,0,0,-202652797,-402628135,86,481,10,85,205,85
358,359000,15,40,13,0,12,40,14,25.8184,488,0.0,0,0,0,0,0,0,0,0,-202652759,-402627983,86,488,10,85,204,16
359,360000,15,40,14,0,12,40,15,24.7883,485,0.0,0,0,0,0,0,0,0,0,-202652740,-402627868,86,485,10,85,206,126
360,361000,15,40,15,0,12,40,16,25.2979,496,0.0,0,0,0,0,0,0,0,0,-202652702,-402627754,86,496,10,85,214,27
361,362000,15,40,16,0,12,40,17,24.6291,487,0.0,0,0,0,0,0,0,0,0,-202652683,-402627601,86,487,10,85,211,163
362,363000,15,40,17,0,12,40,18,25.1064,487,0.0,0,0,0,0,0,0,0,0,-202652645,-402627487,86,487,10,85,209,42
363,364000,15,40,18,0,12,40,19,24.3659,498,0.0,0,0,0,0,0,0,0,0,-202652606,-402627372,86,498,10,85,198,200
364,365000,15,40,19,0,12,40,20,25.0305,505,0.0,0,0,0,0,0,0,0,0,-202652587,-402627220,88,505,10,85,209,114
365,366000,15,40,20,0,12,40,21,24.5889,498,0.0,0,0,0,0,0,0,0,0,-202652568,-402627105,86,498,10,85,205,214
366,367000,15,40,21,0,12,40,22,25.5244,494,0.0,0,0,0,0,0,0,0,0,-202652530,-402626953,88,494,10,85,203,125
367,368000,15,40,22,0,12,40,23,24.3559,516,0.0,0,0,0,0,0,0,0,0,-202652473,-402626838,88,516,10,85,195,69
368,369000,15,40,23,0,12,40,24,24.6804,544,0.0,0,0,0,0,0,0,0,0,-202652435,-402626724,88,544,9,94,207,12
369,370000,15,40,24,0,12,40,25,25.7419,529,0.0,0,0,0,0,0,0,0,0,-202652397,-402626571,88,529,10,94,182,157
370,371000,15,40,25,0,12,40,26,24.6665,374,0.0,0,0,0,0,0,0,0,0,-202652378,-402626457,91,374,10,85,203,211
371,372000,15,40,26,0,12,40,27,25.0017,359,0.0,0,0,0,0,0,0,0,0,-202652359,-402626380,93,359,9,92,208,11
372,373000,15,40,27,0,12,40,28,24.5893,375,0.0,0,0,0,0,0,0,0,0,-202652359,-402626266,96,375,10,92,208,144
373,374000,15,40,28,0,12,40,29,24.6722,359,0.0,0,0,0,0,0,0,0,0,-202652359,-402626152,98,359,10,85,213,202
374,375000,15,40,29,0,12,40,30,25.9284,344,0.0,0,0,0,0,0,0,0,0,-202652359,-402626075,96,344,10,85,203,229
375,376000,15,40,30,0,12,40,31,25.377,372,0.0,0,0,0,0,0,0,0,0,-202652359,-402625961,98,372,10,85,206,128
376,377000,15,40,31,0,12,40,32,24.7193,442,0.0,0,0,0,0,0,0,0,0,-202652359,-402625885,96,442,10,85,196,68
377,378000,15,40,32,0,12,40,33,25.0163,364,0.0,0,0,0,0,0,0,0,0,-202652339,-402625770,100,364,10,100,200,49
378,379000,15,40,33,0,12,40,34,24.6117,359,0.0,0,0,0,0,0,0,0,0,-202652339,-402625656,101,359,11,85,195,122
379,380000,15,40,34,0,12,40,35,24.3554,320,0.0,0,0,0,0,0,0,0,0,-202652339,-402625579,103,320,10,85,192,104
380,381000,15,40,35,0,12,40,36,24.3165,357,0.0,0,0,0,0,0,0,0,0,-202652339,-402625503,105,357,9,100,195,253
381,382000,15,40,36,0,12,40,37,25.1521,392,0.0,0,0,0,0,0,0,0,0,-202652339,-402625389,106,392,10,85,198,150
382,383000,15,40,37,0,12,40,38,24.3979,440,0.0,0,0,0,0,0,0,0,0,-202652339,-402625274,106,440,10,85,190,88
383,384000,15,40,38,0,12,40,39,25.1536,325,0.0,0,0,0,0,0,0,0,0,-202652339,-402625160,111,325,10,85,192,215
384,385000,15,40,39,0,12,40,40,25.6914,338,0.0,0,0,0,0,0,0,0,0,-202652339,-402625083,113,338,10,100,195,60
385,386000,15,40,40,0,12,40,41,25.5629,407,0.0,0,0,0,0,0,0,0,0,-202652320,-402625007,116,407,10,85,194,8
386,387000,15,40,41,0,12,40,42,25.4494,450,0.0,0,0,0,0,0,0,0,0,-202652320,-402624855,115,450,10,85,201,227
387,388000,15,40,42,0,12,40,43,25.7929,450,0.0,0,0,0,0,0,0,0,0,-202652359,-402624778,113,450,10,85,202,245
388,389000,15,40,43,0,12,40,44,24.4308,477,0.0,0,0,0,0,0,0,0,0,-202652473,-402624702,113,477,10,85,206,243
389,390000,15,40,44,0,12,40,45,24.7335,450,0.0,0,0,0,0,0,0,0,0,-202652568,-402624626,111,450,10,85,207,150
390,391000,15,40,45,0,12,40,46,25.3721,422,0.0,0,0,0,0,0,0,0,0,-202652664,-402624626,111,422,10,85,206,236
391,392000,15,40,46,0,12,40,47,25.8893,507,0.0,0,0,0,0,0,0,0,0,-202652759,-402624664,113,507,10,85,204,0
392,393000,15,40,47,0,12,40,48,25.3006,390,0.0,0,0,0,0,0,0,0,0,-202652835,-402624740,113,390,10,85,198,108
393,394000,15,40,48,0,12,40,49,25.8039,209,0.0,0,0,0,0,0,0,0,0,-202652873,-402624778,111,209,10,85,200,160
394,395000,15,40,49,0,12,40,50,24.6775,40,0.0,0,0,0,0,0,0,0,0,-202652893,-402624778,110,40,10,85,204,38
395,396000,15,40,50,0,12,40,51,25.712,66,0.0,0,0,0,0,0,0,0,0,-202652873,-402624778,110,66,11,85,205,93
