PACKAGE,ELAPSED_TIME,HOUR_GPS,MIN_GPS,SEC_GPS,CENT_GPS,HOUR_PC,MIN_PC,SEC_PC,CENT_PC,VEL_RODA,ROTACAO,TEMP,FLUIDO,AX,AY,AZ,ROLL,PITCH,HEADING,LAT,LON,ALT,VEL_GPS,SAT,HDOP,RSSI,CHECKSUM
7,8000,0,0,0,0,10,57,10,50.0038,0,0.0,0,0,0,0,0,0,0,0,0,0,0,0,0,15,238,119
8,9000,0,0,0,0,10,57,11,49.4983,0,0.0,0,0,0,0,0,0,0,0,0,0,0,0,0,15,238,100
9,10000,0,0,0,0,10,57,12,50.1385,0,0.0,0,0,0,0,0,0,0,0,0,0,0,0,0,15,237,81
10,11000,0,0,0,0,10,57,13,50.753,0,0.0,0,0,0,0,0,0,0,0,0,0,0,0,0,15,236,61
11,12000,13,57,17,0,10,57,14,49.7005,0,0.0,0,0,0,0,0,0,0,0,0,0,0,0,0,15,235,129
12,13000,13,57,18,0,10,57,15,50.051,0,0.0,0,0,0,0,0,0,0,0,0,0,0,0,0,15,235,111
13,14000,13,57,19,0,10,57,16,50.0447,0,0.0,0,0,0,0,0,0,0,0,0,0,0,0,0,15,237,93
14,15000,13,57,20,0,10,57,17,50.6575,0,0.0,0,0,0,0,0,0,0,0,0,0,0,0,0,15,235,75
15,16000,13,57,21,0,10,57,18,49.4015,0,0.0,0,0,0,0,0,0,0,0,0,0,0,0,0,15,238,57
16,17000,13,57,22,0,10,57,19,49.5867,0,0.0,0,0,0,0,0,0,0,0,0,0,0,0,0,15,238,39
17,18000,13,57,23,0,10,57,20,50.0174,0,0.0,0,0,0,0,0,0,0,0,0,0,0,0,0,15,238,21
18,19000,13,57,24,0,10,57,21,49.6046,0,0.0,0,0,0,0,0,0,0,0,0,0,0,0,0,15,236,3
19,20000,13,57,25,0,10,57,22,50.4167,0,0.0,0,0,0,0,0,0,0,0,0,0,0,0,0,15,237,241
20,21000,13,57,26,0,10,57,23,49.8452,0,0.0,0,0,0,0,0,0,0,0,0,0,0,0,0,15,236,223
21,22000,13,57,27,0,10,57,24,49.942,0,0.0,0,0,0,0,0,0,0,0,0,0,0,0,0,15,233,204
22,23000,13,57,28,0,10,57,25,50.8383,0,0.0,0,0,0,0,0,0,0,0,0,0,0,0,0,15,236,186
23,24000,13,57,29,0,10,57,26,49.4077,0,0.0,0,0,0,0,0,0,0,0,0,0,0,0,0,15,237,168
24,25000,13,57,30,0,10,57,27,49.7789,0,0.0,0,0,0,0,0,0,0,0,0,0,0,0,0,15,234,150
25,26000,13,57,31,0,10,57,28,50.2361,0,0.0,0,0,0,0,0,0,0,0,0,0,0,0,0,15,236,132
26,27000,13,57,32,0,10,57,29,49.29,0,0.0,0,0,0,0,0,0,0,0,0,0,0,0,0,15,235,114
27,28000,13,57,33,0,10,57,30,49.8074,0,0.0,0,0,0,0,0,0,0,0,0,0,0,0,0,15,237,96
28,29000,13,57,34,0,10,57,31,50.6072,0,0.0,0,0,0,0,0,0,0,0,0,0,0,0,0,15,235,78
29,30000,13,57,35,0,10,57,32,50.1811,0,0.0,0,0,0,0,0,0,0,0,0,0,0,0,0,15,237,60
30,31000,13,57,36,0,10,57,33,50.0765,0,0.0,0,0,0,0,0,0,0,0,0,0,0,0,0,15,236,42
31,32000,13,57,37,0,10,57,34,50.1957,0,0.0,0,0,0,0,0,0,0,0,0,0,0,0,0,15,235,24
32,33000,13,57,38,0,10,57,35,49.3904,0,0.0,0,0,0,0,0,0,0,0,0,0,0,0,0,15,236,5
33,34000,13,57,39,0,10,57,36,50.059,0,0.0,0,0,0,0,0,0,0,0,0,0,0,0,0,15,237,243
34,35000,13,57,40,0,10,57,37,50.632,0,0.0,0,0,0,0,0,0,0,0,0,0,0,0,0,15,235,225
35,36000,13,57,41,0,10,57,38,49.5716,0,0.0,0,0,0,0,0,0,0,0,0,0,0,0,0,15,235,207
36,37000,13,57,42,0,10,57,39,50.6688,0,0.0,0,0,0,0,0,0,0,0,0,0,0,0,0,15,233,189
37,38000,13,57,43,0,10,57,40,50.3017,0,0.0,0,0,0,0,0,0,0,0,0,0,0,0,0,15,234,171
38,39000,13,57,44,0,10,57,41,50.6924,0,0.0,0,0,0,0,0,0,0,0,0,0,0,0,0,15,233,153
39,40000,13,57,45,0,10,57,42,49.753,0,0.0,0,0,0,0,0,0,0,0,0,0,0,0,0,15,232,135
40,41000,13,57,46,0,10,57,43,50.2023,0,0.0,0,0,0,0,0,0,0,0,0,0,0,0,0,15,232,117
41,42000,13,57,47,0,10,57,44,50.8039,0,0.0,0,0,0,0,0,0,0,0,0,0,0,0,0,15,232,99
42,43000,13,57,48,0,10,57,45,49.5852,0,0.0,0,0,0,0,0,0,0,0,0,0,0,0,0,15,230,80
43,44000,13,57,49,0,10,57,46,50.5718,0,0.0,0,0,0,0,0,0,0,0,0,0,0,0,0,15,229,62
44,45000,13,57,50,0,10,57,47,50.7296,0,0.0,0,0,0,0,0,0,0,0,0,0,0,0,0,15,221,44
45,46000,13,57,50,0,10,57,48,49.6298,0,0.0,0,0,0,0,0,0,0,0,0,0,0,0,0,15,229,25
46,47000,13,57,52,0,10,57,49,50.1838,0,0.0,0,0,0,0,0,0,0,0,0,0,0,0,3,131,230,127
47,48000,13,57,53,0,10,57,50,50.5608,0,0.0,0,0,0,0,0,0,0,0,0,0,0,0,3,122,222,100
48,49000,13,57,54,0,10,57,51,50.0555,0,0.0,0,0,0,0,0,0,0,0,0,0,0,0,3,114,232,74
49,50000,13,57,55,0,10,57,52,49.4372,0,0.0,0,0,0,0,0,0,0,0,0,0,0,0,3,105,222,47
50,51000,13,57,56,0,10,57,53,50.6367,0,0.0,0,0,0,0,0,0,0,0,0,0,0,0,3,97,230,21
51,52000,13,57,57,0,10,57,54,50.1474,0,0.0,0,0,0,0,0,0,0,0,0,0,0,0,3,88,230,250
52,53000,13,57,58,0,10,57,55,50.6934,657,0.0,0,0,0,0,0,0,0,0,-202653617,-402626495,193,657,6,157,230,149
53,54000,13,57,59,0,10,57,56,49.5074,101,0.0,0,0,0,0,0,0,0,0,-202653560,-402626457,193,101,6,157,232,133
54,55000,13,58,0,0,10,57,57,49.8548,125,0.0,0,0,0,0,0,0,0,0,-202653579,-402626457,178,125,6,157,229,70
55,56000,13,58,1,0,10,57,58,50.8257,100,0.0,0,0,0,0,0,0,0,0,-202653598,-402626495,180,100,6,157,232,203
56,57000,13,58,2,0,10,57,59,50.001,25,0.0,0,0,0,0,0,0,0,0,-202653598,-402626495,177,25,6,157,232,32
57,58000,13,58,3,0,10,58,0,49.9234,112,0.0,0,0,0,0,0,0,0,0,-202653560,-402626495,167,112,6,157,225,216
58,59000,13,58,4,0,10,58,1,50.8461,42,0.0,0,0,0,0,0,0,0,0,-202653541,-402626495,162,42,6,157,230,72
59,60000,13,58,5,0,10,58,2,49.7097,74,0.0,0,0,0,0,0,0,0,0,-202653541,-402626495,156,74,6,157,223,112
60,61000,13,58,6,0,10,58,3,49.9945,185,0.0,0,0,0,0,0,0,0,0,-202653560,-402626457,156,185,6,157,230,79
61,62000,13,58,7,0,10,58,4,50.4171,22,0.0,0,0,0,0,0,0,0,0,-202653541,-402626457,162,22,6,158,235,17
62,63000,13,58,8,0,10,58,5,49.6144,9,0.0,0,0,0,0,0,0,0,0,-202653560,-402626419,150,9,6,158,236,236
63,64000,13,58,9,0,10,58,6,50.0059,11,0.0,0,0,0,0,0,0,0,0,-202653560,-402626419,136,11,6,158,235,208
64,65000,13,58,10,0,10,58,7,50.1705,46,0.0,0,0,0,0,0,0,0,0,-202653579,-402626419,133,46,6,158,235,237
65,66000,13,58,11,0,10,58,8,49.5325,68,0.0,0,0,0,0,0,0,0,0,-202653598,-402626419,133,68,6,158,233,245
66,67000,13,58,12,0,10,58,9,50.5868,50,0.0,0,0,0,0,0,0,0,0,-202653598,-402626419,133,50,6,158,236,191
67,68000,13,58,13,0,10,58,10,49.4692,87,0.0,0,0,0,0,0,0,0,0,-202653598,-402626419,131,87,6,158,236,245
68,69000,13,58,14,0,10,58,11,49.8483,194,0.0,0,0,0,0,0,0,0,0,-202653579,-402626495,120,194,6,158,235,117
69,70000,13,58,15,0,10,58,12,50.6421,11,0.0,0,0,0,0,0,0,0,0,-202653579,-402626495,118,11,6,158,235,243
70,71000,13,58,16,0,10,58,13,50.0967,22,0.0,0,0,0,0,0,0,0,0,-202653579,-402626495,118,22,6,130,236,219
71,72000,13,58,17,0,10,58,14,50.603,31,0.0,0,0,0,0,0,0,0,0,-202653560,-402626533,111,31,6,130,236,193
72,73000,13,58,18,0,10,58,15,49.5273,38,0.0,0,0,0,0,0,0,0,0,-202653560,-402626571,108,38,6,130,222,147
73,74000,13,58,19,0,10,58,16,50.9743,40,0.0,0,0,0,0,0,0,0,0,-202653541,-402626571,103,40,6,130,236,147
74,75000,13,58,20,0,10,58,17,50.6164,40,0.0,0,0,0,0,0,0,0,0,-202653541,-402626571,103,40,6,130,236,128
75,76000,13,58,21,0,10,58,18,49.6675,66,0.0,0,0,0,0,0,0,0,0,-202653541,-402626609,100,66,6,130,235,121
76,77000,13,58,22,0,10,58,19,49.9262,46,0.0,0,0,0,0,0,0,0,0,-202653522,-402626647,98,46,6,130,235,42
77,78000,13,58,23,0,10,58,20,50.7261,35,0.0,0,0,0,0,0,0,0,0,-202653522,-402626647,93,35,6,130,234,253
78,79000,13,58,24,0,10,58,21,50.841,25,0.0,0,0,0,0,0,0,0,0,-202653522,-402626647,96,25,6,130,234,218
79,80000,13,58,25,0,10,58,22,49.9633,53,0.0,0,0,0,0,0,0,0,0,-202653541,-402626647,93,53,5,158,235,5
80,81000,13,58,26,0,10,58,23,50.9488,51,0.0,0,0,0,0,0,0,0,0,-202653541,-402626647,88,51,6,158,235,235
81,82000,13,58,27,0,10,58,24,49.4836,11,0.0,0,0,0,0,0,0,0,0,-202653541,-402626647,90,11,6,130,236,111
82,83000,13,58,28,0,10,58,25,50.0878,29,0.0,0,0,0,0,0,0,0,0,-202653541,-402626647,90,29,6,130,235,129
83,84000,13,58,29,0,10,58,26,50.5304,25,0.0,0,0,0,0,0,0,0,0,-202653560,-402626647,93,25,6,130,234,87
84,85000,13,58,30,0,10,58,27,50.8723,18,0.0,0,0,0,0,0,0,0,0,-202653560,-402626647,91,18,6,130,235,53
85,86000,13,58,31,0,10,58,28,50.5993,11,0.0,0,0,0,0,0,0,0,0,-202653560,-402626647,96,11,6,130,236,25
86,87000,13,58,32,0,10,58,29,49.9723,16,0.0,0,0,0,0,0,0,0,0,-202653560,-402626647,98,16,6,130,234,19
87,88000,13,58,33,0,10,58,30,50.3028,9,0.0,0,0,0,0,0,0,0,0,-202653560,-402626647,101,9,6,130,236,246
88,89000,13,58,34,0,10,58,31,50.8494,25,0.0,0,0,0,0,0,0,0,0,-202653617,-402626609,111,25,8,93,236,216
89,90000,13,58,35,0,10,58,32,50.3961,44,0.0,0,0,0,0,0,0,0,0,-202653656,-402626609,121,44,8,93,236,207
90,91000,13,58,36,0,10,58,33,49.5022,72,0.0,0,0,0,0,0,0,0,0,-202653751,-402626533,128,72,8,93,237,233
91,92000,13,58,37,0,10,58,34,49.8239,18,0.0,0,0,0,0,0,0,0,0,-202653808,-402626495,136,18,8,93,238,96
92,93000,13,58,38,0,10,58,35,50.5408,7,0.0,0,0,0,0,0,0,0,0,-202653827,-402626495,140,7,8,111,235,59
93,94000,13,58,39,0,10,58,36,50.0248,27,0.0,0,0,0,0,0,0,0,0,-202653846,-402626495,145,27,8,111,237,67
94,95000,13,58,40,0,10,58,37,50.9424,5,0.0,0,0,0,0,0,0,0,0,-202653865,-402626495,151,5,8,93,232,230
95,96000,13,58,41,0,10,58,38,49.5513,14,0.0,0,0,0,0,0,0,0,0,-202653903,-402626495,150,14,8,93,234,191
96,97000,13,58,42,0,10,58,39,50.1501,12,0.0,0,0,0,0,0,0,0,0,-202653942,-402626457,153,12,8,93,233,170
97,98000,13,58,43,0,10,58,40,50.3876,83,0.0,0,0,0,0,0,0,0,0,-202653942,-402626419,148,83,8,93,233,71
98,99000,13,58,44,0,10,58,41,51.0744,9,0.0,0,0,0,0,0,0,0,0,-202653942,-402626419,153,9,8,93,235,166
99,100000,13,58,45,0,10,58,42,50.7975,1,0.0,0,0,0,0,0,0,0,0,-202653942,-402626419,161,1,8,93,231,140
100,101000,13,58,46,0,10,58,43,50.8576,14,0.0,0,0,0,0,0,0,0,0,-202653923,-402626419,166,14,8,93,229,172
101,102000,13,58,47,0,10,58,44,49.9732,31,0.0,0,0,0,0,0,0,0,0,-202653923,-402626419,168,31,8,93,233,190
102,103000,13,58,48,0,10,58,45,51.0404,9,0.0,0,0,0,0,0,0,0,0,-202653942,-402626419,176,9,8,93,228,117
103,104000,13,58,49,0,10,58,46,50.259,11,0.0,0,0,0,0,0,0,0,0,-202653923,-402626419,175,11,8,93,224,121
104,105000,13,58,50,0,10,58,47,49.5986,7,0.0,0,0,0,0,0,0,0,0,-202653923,-402626419,177,7,8,93,229,97
105,106000,13,58,51,0,10,58,48,49.9749,9,0.0,0,0,0,0,0,0,0,0,-202653903,-402626419,171,9,8,93,228,97
106,107000,13,58,52,0,10,58,49,50.4571,22,0.0,0,0,0,0,0,0,0,0,-202653903,-402626419,168,22,8,93,227,101
107,108000,13,58,53,0,10,58,50,50.7508,16,0.0,0,0,0,0,0,0,0,0,-202653903,-402626380,170,16,7,103,227,121
108,109000,13,58,54,0,10,58,51,50.5424,1,0.0,0,0,0,0,0,0,0,0,-202653903,-402626380,166,1,8,103,233,70
109,110000,13,58,55,0,10,58,52,50.4494,7,0.0,0,0,0,0,0,0,0,0,-202653884,-402626380,163,7,8,103,234,80
110,111000,13,58,56,0,10,58,53,49.8532,16,0.0,0,0,0,0,0,0,0,0,-202653884,-402626380,162,16,8,93,232,69
111,112000,13,58,57,0,10,58,54,50.3429,7,0.0,0,0,0,0,0,0,0,0,-202653865,-402626380,162,7,8,93,231,52
112,113000,13,58,58,0,10,58,55,50.9751,0,0.0,0,0,0,0,0,0,0,0,-202653846,-402626380,162,0,8,93,233,39
113,114000,13,58,59,0,10,58,56,50.1516,7,0.0,0,0,0,0,0,0,0,0,-202653827,-402626380,162,7,8,93,230,54
114,115000,13,59,0,0,10,58,57,50.681,3,0.0,0,0,0,0,0,0,0,0,-202653846,-402626419,171,3,8,93,234,176
115,116000,13,59,1,0,10,58,58,49.6538,12,0.0,0,0,0,0,0,0,0,0,-202653827,-402626457,175,12,8,93,234,161
116,117000,13,59,2,0,10,58,59,49.9463,1,0.0,0,0,0,0,0,0,0,0,-202653846,-402626495,190,1,8,93,233,79
117,118000,13,59,3,0,10,59,0,51.1147,7,0.0,0,0,0,0,0,0,0,0,-202653865,-402626495,193,7,8,93,235,56
118,119000,13,59,4,0,10,59,1,50.8405,5,0.0,0,0,0,0,0,0,0,0,-202653846,-402626533,195,5,9,90,232,15
119,120000,13,59,5,0,10,59,2,50.1344,3,0.0,0,0,0,0,0,0,0,0,-202653827,-402626533,196,3,9,90,232,13
120,121000,13,59,6,0,10,59,3,50.4008,11,0.0,0,0,0,0,0,0,0,0,-202653827,-402626533,192,11,9,90,234,7
121,122000,13,59,7,0,10,59,4,50.7543,1,0.0,0,0,0,0,0,0,0,0,-202653808,-402626533,187,1,9,90,233,239
122,123000,13,59,8,0,10,59,5,51.0944,7,0.0,0,0,0,0,0,0,0,0,-202653808,-402626533,183,7,9,90,234,229
123,124000,13,59,9,0,10,59,6,50.4061,9,0.0,0,0,0,0,0,0,0,0,-202653808,-402626571,182,9,9,90,234,175
124,125000,13,59,10,0,10,59,7,50.8726,3,0.0,0,0,0,0,0,0,0,0,-202653808,-402626571,182,3,9,90,233,145
125,126000,13,59,11,0,10,59,8,49.825,1,0.0,0,0,0,0,0,0,0,0,-202653808,-402626571,181,1,9,90,231,122
126,127000,13,59,12,0,10,59,9,50.9201,5,0.0,0,0,0,0,0,0,0,0,-202653808,-402626571,180,5,9,90,230,111
127,128000,13,59,13,0,10,59,10,49.8934,1,0.0,0,0,0,0,0,0,0,0,-202653808,-402626571,180,1,9,90,233,85
128,129000,13,59,14,0,10,59,11,50.7708,16,0.0,0,0,0,0,0,0,0,0,-202653808,-402626609,180,16,9,90,233,58
129,130000,13,59,15,0,10,59,12,50.4291,3,0.0,0,0,0,0,0,0,0,0,-202653808,-402626609,180,3,9,90,232,14
130,131000,13,59,16,0,10,59,13,50.2344,3,0.0,0,0,0,0,0,0,0,0,-202653808,-402626609,180,3,9,90,232,252
131,132000,13,59,17,0,10,59,14,49.718,7,0.0,0,0,0,0,0,0,0,0,-202653808,-402626609,181,7,9,90,231,244
132,133000,13,59,18,0,10,59,15,51.164,3,0.0,0,0,0,0,0,0,0,0,-202653808,-402626609,182,3,9,90,234,219
133,134000,13,59,19,0,10,59,16,50.2208,0,0.0,0,0,0,0,0,0,0,0,-202653827,-402626609,182,0,9,90,228,176
134,135000,13,59,20,0,10,59,17,51.0483,3,0.0,0,0,0,0,0,0,0,0,-202653827,-402626609,186,3,9,90,235,168
135,136000,13,59,21,0,10,59,18,49.8247,9,0.0,0,0,0,0,0,0,0,0,-202653827,-402626609,187,9,9,90,234,163
136,137000,13,59,22,0,10,59,19,50.2291,3,0.0,0,0,0,0,0,0,0,0,-202653827,-402626609,185,3,9,90,234,131
137,138000,13,59,23,0,10,59,20,50.6426,7,0.0,0,0,0,0,0,0,0,0,-202653827,-402626571,181,7,9,93,234,158
138,139000,13,59,24,0,10,59,21,50.3688,1,0.0,0,0,0,0,0,0,0,0,-202653827,-402626571,177,1,9,90,233,120
139,140000,13,59,25,0,10,59,22,50.4176,0,0.0,0,0,0,0,0,0,0,0,-202653827,-402626571,172,0,9,90,235,95
140,141000,13,59,26,0,10,59,23,50.8581,9,0.0,0,0,0,0,0,0,0,0,-202653827,-402626571,170,9,9,90,232,93
141,142000,13,59,27,0,10,59,24,49.7193,3,0.0,0,0,0,0,0,0,0,0,-202653827,-402626571,165,3,9,90,232,58
142,143000,13,59,28,0,10,59,25,50.3547,12,0.0,0,0,0,0,0,0,0,0,-202653827,-402626571,163,12,9,90,231,56
143,144000,13,59,29,0,10,59,26,50.362,22,0.0,0,0,0,0,0,0,0,0,-202653827,-402626533,158,22,9,90,231,92
144,145000,13,59,30,0,10,59,27,51.0641,11,0.0,0,0,0,0,0,0,0,0,-202653827,-402626533,156,11,9,90,233,50
145,146000,13,59,31,0,10,59,28,50.3108,12,0.0,0,0,0,0,0,0,0,0,-202653827,-402626533,153,12,9,90,231,31
146,147000,13,59,32,0,10,59,29,49.712,33,0.0,0,0,0,0,0,0,0,0,-202653846,-402626533,153,33,9,90,232,36
147,148000,13,59,33,0,10,59,30,50.6593,31,0.0,0,0,0,0,0,0,0,0,-202653827,-402626533,148,31,9,90,237,28
148,149000,13,59,34,0,10,59,31,51.0078,9,0.0,0,0,0,0,0,0,0,0,-202653827,-402626533,148,9,9,90,230,222
149,150000,13,59,35,0,10,59,32,50.995,5,0.0,0,0,0,0,0,0,0,0,-202653846,-402626533,146,5,9,90,234,174
150,151000,13,59,36,0,10,59,33,50.3205,7,0.0,0,0,0,0,0,0,0,0,-202653865,-402626533,143,7,9,90,234,138
151,152000,13,59,37,0,10,59,34,49.9524,5,0.0,0,0,0,0,0,0,0,0,-202653865,-402626533,138,5,9,90,233,111
152,153000,13,59,38,0,10,59,35,50.0688,20,0.0,0,0,0,0,0,0,0,0,-202653865,-402626571,143,20,9,90,231,89
153,154000,13,59,39,0,10,59,36,50.3778,9,0.0,0,0,0,0,0,0,0,0,-202653884,-402626571,150,9,9,90,231,37
154,155000,13,59,40,0,10,59,37,51.2843,3,0.0,0,0,0,0,0,0,0,0,-202653884,-402626571,153,3,9,90,235,10
155,156000,13,59,41,0,10,59,38,51.2203,22,0.0,0,0,0,0,0,0,0,0,-202653903,-402626571,158,22,9,90,234,16
156,157000,13,59,42,0,10,59,39,50.0248,7,0.0,0,0,0,0,0,0,0,0,-202653903,-402626571,158,7,9,90,235,224
160,161000,13,59,46,0,10,59,43,50.8855,57,0.0,0,0,0,0,0,0,0,0,-202653903,-402626609,161,57,9,98,232,224
162,163000,13,59,48,0,10,59,45,50.4756,62,0.0,0,0,0,0,0,0,0,0,-202653903,-402626609,165,62,8,93,232,196
164,165000,13,59,50,0,10,59,47,50.1514,44,0.0,0,0,0,0,0,0,0,0,-202653884,-402626609,165,44,9,93,223,144
165,166000,13,59,51,0,10,59,48,50.6121,25,0.0,0,0,0,0,0,0,0,0,-202653884,-402626571,158,25,9,90,243,116
166,167000,13,59,52,0,10,59,49,51.0001,25,0.0,0,0,0,0,0,0,0,0,-202653884,-402626571,166,25,9,93,241,109
167,168000,13,59,53,0,10,59,50,50.4416,111,0.0,0,0,0,0,0,0,0,0,-202653903,-402626571,162,111,9,90,233,237
168,169000,13,59,54,0,10,59,51,51.2321,124,0.0,0,0,0,0,0,0,0,0,-202653923,-402626571,163,124,8,93,242,228
169,170000,13,59,55,0,10,59,52,50.8512,131,0.0,0,0,0,0,0,0,0,0,-202653980,-402626609,166,131,8,93,227,131
172,173000,13,59,58,0,10,59,55,51.1666,203,0.0,0,0,0,0,0,0,0,0,-202654075,-402626495,166,203,8,102,211,249
173,174000,13,59,59,0,10,59,56,50.6615,350,0.0,0,0,0,0,0,0,0,0,-202654075,-402626419,171,350,8,93,223,87
174,175000,14,0,0,0,10,59,57,51.1278,324,0.0,0,0,0,0,0,0,0,0,-202654037,-402626304,168,324,8,93,215,50
175,176000,14,0,1,0,10,59,58,51.222,418,0.0,0,0,0,0,0,0,0,0,-202653980,-402626228,172,418,8,93,214,101
176,177000,14,0,2,0,10,59,59,51.3715,338,0.0,0,0,0,0,0,0,0,0,-202653942,-402626113,167,338,9,90,209,70
177,178000,14,0,3,0,11,0,0,50.8002,362,0.0,0,0,0,0,0,0,0,0,-202653884,-402626037,170,362,9,90,198,238
178,179000,14,0,4,0,11,0,1,50.448,170,0.0,0,0,0,0,0,0,0,0,-202653865,-402626037,168,170,9,90,203,107
179,180000,14,0,5,0,11,0,2,50.8944,385,0.0,0,0,0,0,0,0,0,0,-202653865,-402625961,163,385,9,93,203,83
180,181000,14,0,6,0,11,0,3,50.5881,344,0.0,0,0,0,0,0,0,0,0,-202653827,-402625846,153,344,9,93,175,126
181,182000,14,0,7,0,11,0,4,50.1796,309,0.0,0,0,0,0,0,0,0,0,-202653789,-402625770,146,309,9,90,202,142
182,183000,14,0,8,0,11,0,5,50.7462,270,0.0,0,0,0,0,0,0,0,0,-202653770,-402625694,151,270,9,90,202,146
183,184000,14,0,9,0,11,0,6,49.9422,303,0.0,0,0,0,0,0,0,0,0,-202653751,-402625617,150,303,9,90,192,33
184,185000,14,0,10,0,11,0,7,50.8704,368,0.0,0,0,0,0,0,0,0,0,-202653713,-402625503,153,368,9,90,197,45
185,186000,14,0,11,0,11,0,8,51.2665,307,0.0,0,0,0,0,0,0,0,0,-202653694,-402625427,153,307,9,90,203,1
186,187000,14,0,12,0,11,0,9,50.3017,368,0.0,0,0,0,0,0,0,0,0,-202653656,-402625312,153,368,9,90,197,2
187,188000,14,0,13,0,11,0,10,50.8338,372,0.0,0,0,0,0,0,0,0,0,-202653636,-402625236,153,372,9,90,198,89
188,189000,14,0,14,0,11,0,11,50.1502,370,0.0,0,0,0,0,0,0,0,0,-202653598,-402625122,151,370,9,90,196,217
189,190000,14,0,15,0,11,0,12,50.0109,342,0.0,0,0,0,0,0,0,0,0,-202653579,-402625045,156,342,8,98,189,251
190,191000,14,0,16,0,11,0,13,50.0726,366,0.0,0,0,0,0,0,0,0,0,-202653579,-402624931,155,366,9,90,181,132
191,192000,14,0,17,0,11,0,14,50.3631,370,0.0,0,0,0,0,0,0,0,0,-202653560,-402624855,158,370,9,90,185,220
192,193000,14,0,18,0,11,0,15,50.9515,374,0.0,0,0,0,0,0,0,0,0,-202653522,-402624740,160,374,9,90,187,109
193,194000,14,0,19,0,11,0,16,51.3754,342,0.0,0,0,0,0,0,0,0,0,-202653503,-402624626,160,342,9,90,170,160
194,195000,14,0,20,0,11,0,17,50.2118,385,0.0,0,0,0,0,0,0,0,0,-202653465,-402624549,156,385,9,90,194,83
195,196000,14,0,21,0,11,0,18,50.6294,392,0.0,0,0,0,0,0,0,0,0,-202653465,-402624435,156,392,9,90,188,194
196,197000,14,0,22,0,11,0,19,50.8809,505,0.0,0,0,0,0,0,0,0,0,-202653388,-402624320,161,505,9,90,186,89
197,198000,14,0,23,0,11,0,20,50.459,457,0.0,0,0,0,0,0,0,0,0,-202653312,-402624206,153,457,9,90,183,158
198,199000,14,0,24,0,11,0,21,51.0964,898,0.0,0,0,0,0,0,0,0,0,-202653465,-402624168,141,898,9,103,177,143
199,200000,14,0,25,0,11,0,22,50.1798,638,0.0,0,0,0,0,0,0,0,0,-202653579,-402624092,131,638,8,108,184,71
200,201000,14,0,26,0,11,0,23,51.0021,414,0.0,0,0,0,0,0,0,0,0,-202653503,-402623977,123,414,8,108,183,43
201,202000,14,0,27,0,11,0,24,51.4435,507,0.0,0,0,0,0,0,0,0,0,-202653446,-402623825,110,507,8,93,181,136
202,203000,14,0,28,0,11,0,25,50.542,501,0.0,0,0,0,0,0,0,0,0,-202653388,-402623672,103,501,8,101,181,63
203,204000,14,0,29,0,11,0,26,51.4554,453,0.0,0,0,0,0,0,0,0,0,-202653312,-402623558,101,453,8,101,182,137
204,205000,14,0,30,0,11,0,27,51.4047,348,0.0,0,0,0,0,0,0,0,0,-202653312,-402623481,116,348,7,101,180,1
205,206000,14,0,31,0,11,0,28,50.3454,655,0.0,0,0,0,0,0,0,0,0,-202653331,-402623291,75,655,9,101,173,219
206,207000,14,0,32,0,11,0,29,51.2168,255,0.0,0,0,0,0,0,0,0,0,-202653255,-402623252,45,255,9,93,175,242
207,208000,14,0,33,0,11,0,30,49.9841,566,0.0,0,0,0,0,0,0,0,0,-202653121,-402623291,15,566,8,126,176,180
208,209000,14,0,34,0,11,0,31,50.5289,705,0.0,0,0,0,0,0,0,0,0,-202652931,-402623367,-12,705,8,113,171,1
209,210000,14,0,35,0,11,0,32,51.2387,411,0.0,0,0,0,0,0,0,0,0,-202652816,-402623291,-53,411,8,113,180,56
210,211000,14,0,36,0,11,0,33,51.4502,598,0.0,0,0,0,0,0,0,0,0,-202652664,-402623252,-80,598,7,103,182,56
211,212000,14,0,37,0,11,0,34,50.7124,596,0.0,0,0,0,0,0,0,0,0,-202652511,-402623214,-98,596,7,103,175,208
212,213000,14,0,38,0,11,0,35,50.3461,550,0.0,0,0,0,0,0,0,0,0,-202652511,-402623291,-135,550,7,103,176,239
213,214000,14,0,39,0,11,0,36,49.9923,250,0.0,0,0,0,0,0,0,0,0,-202652492,-402623367,-182,250,7,103,168,24
214,215000,14,0,40,0,11,0,37,50.515,270,0.0,0,0,0,0,0,0,0,0,-202652473,-402623405,-206,270,7,103,171,5
215,216000,14,0,41,0,11,0,38,51.3209,294,0.0,0,0,0,0,0,0,0,0,-202652397,-402623443,-242,294,9,103,174,40
216,217000,14,0,42,0,11,0,39,50.5715,488,0.0,0,0,0,0,0,0,0,0,-202652225,-402623443,-252,488,9,93,179,50
217,218000,14,0,43,0,11,0,40,51.5047,453,0.0,0,0,0,0,0,0,0,0,-202652072,-402623405,-273,453,9,93,169,132
218,219000,14,0,44,0,11,0,41,50.2177,414,0.0,0,0,0,0,0,0,0,0,-202651958,-402623367,-295,414,9,93,172,166
219,220000,14,0,45,0,11,0,42,51.3485,414,0.0,0,0,0,0,0,0,0,0,-202651901,-402623329,-296,414,8,93,167,242
220,221000,14,0,46,0,11,0,43,50.3686,503,0.0,0,0,0,0,0,0,0,0,-202651767,-402623329,-277,503,9,90,176,41
221,222000,14,0,47,0,11,0,44,50.9427,596,0.0,0,0,0,0,0,0,0,0,-202651596,-402623367,-252,596,9,93,166,118
222,223000,14,0,48,0,11,0,45,51.3172,553,0.0,0,0,0,0,0,0,0,0,-202651462,-402623329,-230,553,9,93,174,208
223,224000,14,0,49,0,11,0,46,50.413,483,0.0,0,0,0,0,0,0,0,0,-202651348,-402623329,-140,483,9,90,171,250
224,225000,14,0,50,0,11,0,47,50.1327,255,0.0,0,0,0,0,0,0,0,0,-202651271,-402623291,-75,255,9,90,174,209
225,226000,14,0,51,0,11,0,48,51.4305,331,0.0,0,0,0,0,0,0,0,0,-202651271,-402623252,-59,331,9,90,176,144
226,227000,14,0,52,0,11,0,49,51.5172,124,0.0,0,0,0,0,0,0,0,0,-202651329,-402623291,6,124,9,90,170,191
227,228000,14,0,53,0,11,0,50,51.4234,9,0.0,0,0,0,0,0,0,0,0,-202651367,-402623291,35,9,9,90,169,190
228,229000,14,0,54,0,11,0,51,50.5724,46,0.0,0,0,0,0,0,0,0,0,-202651386,-402623291,45,46,9,90,166,237
229,230000,14,0,55,0,11,0,52,51.2569,9,0.0,0,0,0,0,0,0,0,0,-202651386,-402623291,54,9,9,90,167,154
230,231000,14,0,56,0,11,0,53,51.5956,29,0.0,0,0,0,0,0,0,0,0,-202651386,-402623291,63,29,9,90,166,185
231,232000,14,0,57,0,11,0,54,51.2135,22,0.0,0,0,0,0,0,0,0,0,-202651405,-402623291,74,22,9,90,168,144
232,233000,14,0,58,0,11,0,55,50.7317,20,0.0,0,0,0,0,0,0,0,0,-202651424,-402623291,83,20,9,90,167,112
233,234000,14,0,59,0,11,0,56,51.5359,12,0.0,0,0,0,0,0,0,0,0,-202651405,-402623252,91,12,9,90,167,144
234,235000,14,1,0,0,11,0,57,50.0519,24,0.0,0,0,0,0,0,0,0,0,-202651405,-402623252,100,24,9,90,169,99
235,236000,14,1,1,0,11,0,58,51.4237,16,0.0,0,0,0,0,0,0,0,0,-202651405,-402623252,103,16,9,90,168,68
236,237000,14,1,2,0,11,0,59,50.2854,5,0.0,0,0,0,0,0,0,0,0,-202651424,-402623252,113,5,9,90,166,19
237,238000,14,1,3,0,11,1,0,50.9103,5,0.0,0,0,0,0,0,0,0,0,-202651424,-402623252,121,5,9,90,167,9
238,239000,14,1,4,0,11,1,1,50.0505,157,0.0,0,0,0,0,0,0,0,0,-202651405,-402623252,126,157,9,90,166,63
239,240000,14,1,5,0,11,1,2,50.744,5,0.0,0,0,0,0,0,0,0,0,-202651386,-402623252,133,5,9,90,167,24
240,241000,14,1,6,0,11,1,3,50.5439,9,0.0,0,0,0,0,0,0,0,0,-202651405,-402623252,138,9,9,90,170,255
241,242000,14,1,7,0,11,1,4,50.4349,9,0.0,0,0,0,0,0,0,0,0,-202651405,-402623252,140,9,9,90,165,239
242,243000,14,1,8,0,11,1,5,50.7651,51,0.0,0,0,0,0,0,0,0,0,-202651405,-402623214,141,51,9,90,168,89
243,244000,14,1,9,0,11,1,6,50.3412,44,0.0,0,0,0,0,0,0,0,0,-202651405,-402623214,145,44,9,90,171,61
244,245000,14,1,10,0,11,1,7,50.8896,40,0.0,0,0,0,0,0,0,0,0,-202651405,-402623214,145,40,9,90,167,35
245,246000,14,1,11,0,11,1,8,50.5509,61,0.0,0,0,0,0,0,0,0,0,-202651405,-402623214,148,61,8,111,172,81
246,247000,14,1,12,0,11,1,9,50.2905,3,0.0,0,0,0,0,0,0,0,0,-202651405,-402623214,151,3,8,111,168,206
247,248000,14,1,13,0,11,1,10,50.7072,1,0.0,0,0,0,0,0,0,0,0,-202651405,-402623214,153,1,8,111,169,186
248,249000,14,1,14,0,11,1,11,51.1678,18,0.0,0,0,0,0,0,0,0,0,-202651405,-402623214,156,18,8,111,168,205
249,250000,14,1,15,0,11,1,12,51.5084,7,0.0,0,0,0,0,0,0,0,0,-202651424,-402623176,156,7,8,111,167,184
250,251000,14,1,16,0,11,1,13,50.735,9,0.0,0,0,0,0,0,0,0,0,-202651424,-402623176,156,9,8,111,166,170
251,252000,14,1,17,0,11,1,14,51.2481,3,0.0,0,0,0,0,0,0,0,0,-202651424,-402623176,156,3,9,90,167,120
252,253000,14,1,18,0,11,1,15,50.1651,3,0.0,0,0,0,0,0,0,0,0,-202651424,-402623176,158,3,8,111,169,124
253,254000,14,1,19,0,11,1,16,50.518,3,0.0,0,0,0,0,0,0,0,0,-202651424,-402623176,158,3,9,111,168,107
254,255000,14,1,20,0,11,1,17,50.4425,3,0.0,0,0,0,0,0,0,0,0,-202651424,-402623176,158,3,9,90,168,68
255,256000,14,1,21,0,11,1,18,50.2311,5,0.0,0,0,0,0,0,0,0,0,-202651424,-402623176,160,5,9,90,173,56
256,257000,14,1,22,0,11,1,19,50.6141,24,0.0,0,0,0,0,0,0,0,0,-202651443,-402623176,160,24,9,90,177,57
257,258000,14,1,23,0,11,1,20,51.1994,311,0.0,0,0,0,0,0,0,0,0,-202651424,-402623214,153,311,9,90,172,77
258,259000,14,1,24,0,11,1,21,51.6035,366,0.0,0,0,0,0,0,0,0,0,-202651386,-402623252,145,366,9,90,176,161
259,260000,14,1,25,0,11,1,22,51.2607,390,0.0,0,0,0,0,0,0,0,0,-202651367,-402623329,135,390,9,111,175,144
260,261000,14,1,26,0,11,1,23,50.2106,451,0.0,0,0,0,0,0,0,0,0,-202651309,-402623443,133,451,9,90,180,169
261,262000,14,1,27,0,11,1,24,50.5833,472,0.0,0,0,0,0,0,0,0,0,-202651271,-402623558,133,472,9,94,181,119
262,263000,14,1,28,0,11,1,25,51.1693,990,0.0,0,0,0,0,0,0,0,0,-202651176,-402623786,146,990,9,90,180,249
263,264000,14,1,29,0,11,1,26,51.1838,507,0.0,0,0,0,0,0,0,0,0,-202651100,-402623939,148,507,9,94,176,215
264,265000,14,1,30,0,11,1,27,51.2833,727,0.0,0,0,0,0,0,0,0,0,-202650966,-402624015,128,727,9,90,176,160
265,266000,14,1,31,0,11,1,28,50.6122,931,0.0,0,0,0,0,0,0,0,0,-202650737,-402624092,118,931,9,90,176,183
266,267000,14,1,32,0,11,1,29,51.0629,425,0.0,0,0,0,0,0,0,0,0,-202650642,-402624130,111,425,9,111,178,243
267,268000,14,1,33,0,11,1,30,50.8524,442,0.0,0,0,0,0,0,0,0,0,-202650604,-402624244,121,442,9,90,188,173
268,269000,14,1,34,0,11,1,31,50.4871,429,0.0,0,0,0,0,0,0,0,0,-202650642,-402624397,133,429,9,90,183,204
269,270000,14,1,35,0,11,1,32,50.7331,416,0.0,0,0,0,0,0,0,0,0,-202650699,-402624511,143,416,9,90,180,255
270,271000,14,1,36,0,11,1,33,51.1042,431,0.0,0,0,0,0,0,0,0,0,-202650737,-402624626,146,431,9,90,179,116
271,272000,14,1,37,0,11,1,34,51.3612,338,0.0,0,0,0,0,0,0,0,0,-202650794,-402624740,148,338,9,90,187,255
272,273000,14,1,38,0,11,1,35,50.2104,424,0.0,0,0,0,0,0,0,0,0,-202650852,-402624816,140,424,9,90,187,10
273,274000,14,1,39,0,11,1,36,50.5708,533,0.0,0,0,0,0,0,0,0,0,-202650966,-402624893,141,533,9,94,176,25
274,275000,14,1,40,0,11,1,37,51.0143,585,0.0,0,0,0,0,0,0,0,0,-202651100,-402624969,146,585,9,90,186,158
275,276000,14,1,41,0,11,1,38,51.1785,570,0.0,0,0,0,0,0,0,0,0,-202651252,-402625083,153,570,9,90,179,105
276,277000,14,1,42,0,11,1,39,50.8131,431,0.0,0,0,0,0,0,0,0,0,-202651271,-402625198,130,431,9,90,192,162
277,278000,14,1,43,0,11,1,40,51.7037,448,0.0,0,0,0,0,0,0,0,0,-202651348,-402625274,138,448,9,90,188,32
278,279000,14,1,44,0,11,1,41,50.2941,507,0.0,0,0,0,0,0,0,0,0,-202651424,-402625389,136,507,9,90,184,193
279,280000,14,1,45,0,11,1,42,50.6325,337,0.0,0,0,0,0,0,0,0,0,-202651500,-402625465,138,337,9,90,192,197
280,281000,14,1,46,0,11,1,43,50.308,520,0.0,0,0,0,0,0,0,0,0,-202651557,-402625541,138,520,9,90,189,157
281,282000,14,1,47,0,11,1,44,50.6925,259,0.0,0,0,0,0,0,0,0,0,-202651596,-402625617,126,259,9,94,188,4
282,283000,14,1,48,0,11,1,45,51.2084,553,0.0,0,0,0,0,0,0,0,0,-202651691,-402625694,123,553,9,94,195,144
283,284000,14,1,49,0,11,1,46,50.8959,516,0.0,0,0,0,0,0,0,0,0,-202651767,-402625808,141,516,9,90,198,131
284,285000,14,1,50,0,11,1,47,50.9572,437,0.0,0,0,0,0,0,0,0,0,-202651805,-402625923,131,437,9,90,195,46
285,286000,14,1,51,0,11,1,48,51.1534,464,0.0,0,0,0,0,0,0,0,0,-202651882,-402626037,141,464,9,90,202,157
286,287000,14,1,52,0,11,1,49,51.6973,455,0.0,0,0,0,0,0,0,0,0,-202651939,-402626190,158,455,9,90,203,182
287,288000,14,1,53,0,11,1,50,50.5098,427,0.0,0,0,0,0,0,0,0,0,-202651920,-402626304,145,427,9,94,193,4
288,289000,14,1,54,0,11,1,51,51.2354,455,0.0,0,0,0,0,0,0,0,0,-202651939,-402626457,153,455,9,94,197,132
289,290000,14,1,55,0,11,1,52,50.3684,513,0.0,0,0,0,0,0,0,0,0,-202651958,-402626609,161,513,9,94,202,68
290,291000,14,1,56,0,11,1,53,50.6217,431,0.0,0,0,0,0,0,0,0,0,-202651977,-402626762,176,431,9,90,203,235
291,292000,14,1,57,0,11,1,54,51.8506,451,0.0,0,0,0,0,0,0,0,0,-202651977,-402626876,180,451,9,90,200,146
292,293000,14,1,58,0,11,1,55,50.6939,383,0.0,0,0,0,0,0,0,0,0,-202651996,-402626991,175,383,9,94,194,113
293,294000,14,1,59,0,11,1,56,51.0744,333,0.0,0,0,0,0,0,0,0,0,-202652015,-402627067,162,333,9,90,187,139
294,295000,14,2,0,0,11,1,57,51.6734,300,0.0,0,0,0,0,0,0,0,0,-202652091,-402627143,151,300,9,90,195,88
295,296000,14,2,1,0,11,1,58,50.4614,463,0.0,0,0,0,0,0,0,0,0,-202652168,-402627143,153,463,9,90,185,64
296,297000,14,2,2,0,11,1,59,51.1827,388,0.0,0,0,0,0,0,0,0,0,-202652263,-402627143,151,388,9,90,204,55
297,298000,14,2,3,0,11,2,0,51.6267,312,0.0,0,0,0,0,0,0,0,0,-202652301,-402627105,138,312,9,98,203,136
298,299000,14,2,4,0,11,2,1,51.2174,446,0.0,0,0,0,0,0,0,0,0,-202652359,-402627029,150,446,9,90,206,152
299,300000,14,2,5,0,11,2,2,51.0533,377,0.0,0,0,0,0,0,0,0,0,-202652378,-402626953,148,377,9,90,203,51
300,301000,14,2,6,0,11,2,3,51.6003,355,0.0,0,0,0,0,0,0,0,0,-202652454,-402626914,151,355,9,90,205,210
301,302000,14,2,7,0,11,2,4,50.425,233,0.0,0,0,0,0,0,0,0,0,-202652454,-402626876,143,233,9,98,197,240
302,303000,14,2,8,0,11,2,5,51.7592,144,0.0,0,0,0,0,0,0,0,0,-202652416,-402626914,136,144,9,98,194,38
303,304000,14,2,9,0,11,2,6,50.9353,440,0.0,0,0,0,0,0,0,0,0,-202652435,-402627029,143,440,9,98,195,230
304,305000,14,2,10,0,11,2,7,51.589,727,0.0,0,0,0,0,0,0,0,0,-202652530,-402626914,138,727,9,90,205,27
305,306000,14,2,11,0,11,2,8,50.6347,290,0.0,0,0,0,0,0,0,0,0,-202652492,-402626876,143,290,9,94,200,242
306,307000,14,2,12,0,11,2,9,51.2196,337,0.0,0,0,0,0,0,0,0,0,-202652435,-402626762,136,337,9,94,201,227
307,308000,14,2,13,0,11,2,10,51.7025,303,0.0,0,0,0,0,0,0,0,0,-202652397,-402626686,125,303,8,94,202,244
308,309000,14,2,14,0,11,2,11,50.4986,300,0.0,0,0,0,0,0,0,0,0,-202652378,-402626571,113,300,8,94,209,86
309,310000,14,2,15,0,11,2,12,50.9329,205,0.0,0,0,0,0,0,0,0,0,-202652397,-402626495,110,205,8,104,206,196
310,311000,14,2,16,0,11,2,13,50.3914,233,0.0,0,0,0,0,0,0,0,0,-202652397,-402626419,103,233,9,90,193,34
311,312000,14,2,17,0,11,2,14,51.1137,294,0.0,0,0,0,0,0,0,0,0,-202652359,-402626304,108,294,9,93,203,46
312,313000,14,2,18,0,11,2,15,51.2984,318,0.0,0,0,0,0,0,0,0,0,-202652339,-402626190,110,318,9,93,188,212
313,314000,14,2,19,0,11,2,16,51.7581,305,0.0,0,0,0,0,0,0,0,0,-202652339,-402626113,111,305,9,93,194,246
314,315000,14,2,20,0,11,2,17,50.9163,331,0.0,0,0,0,0,0,0,0,0,-202652320,-402625961,113,331,8,93,198,197
315,316000,14,2,21,0,11,2,18,50.4207,327,0.0,0,0,0,0,0,0,0,0,-202652282,-402625885,113,327,8,93,192,29
316,317000,14,2,22,0,11,2,19,51.2277,312,0.0,0,0,0,0,0,0,0,0,-202652244,-402625770,123,312,8,93,199,145
317,318000,14,2,23,0,11,2,20,51.8778,296,0.0,0,0,0,0,0,0,0,0,-202652225,-402625656,136,296,8,93,194,241
318,319000,14,2,24,0,11,2,21,51.1865,292,0.0,0,0,0,0,0,0,0,0,-202652225,-402625579,143,292,8,93,200,43
319,320000,14,2,25,0,11,2,22,51.5533,244,0.0,0,0,0,0,0,0,0,0,-202652187,-402625465,150,244,8,93,196,87
320,321000,14,2,26,0,11,2,23,50.9082,274,0.0,0,0,0,0,0,0,0,0,-202652149,-402625350,151,274,9,93,199,30
321,322000,14,2,27,0,11,2,24,51.6773,318,0.0,0,0,0,0,0,0,0,0,-202652130,-402625274,156,318,9,93,195,201
322,323000,14,2,28,0,11,2,25,50.6097,240,0.0,0,0,0,0,0,0,0,0,-202652111,-402625160,158,240,8,93,197,159
323,324000,14,2,29,0,11,2,26,51.2038,398,0.0,0,0,0,0,0,0,0,0,-202652091,-402625083,162,398,9,93,193,49
324,325000,14,2,30,0,11,2,27,50.8526,333,0.0,0,0,0,0,0,0,0,0,-202652091,-402624969,162,333,9,93,199,16
325,326000,14,2,31,0,11,2,28,51.0874,448,0.0,0,0,0,0,0,0,0,0,-202652149,-402624855,181,448,9,90,202,44
326,327000,14,2,32,0,11,2,29,51.375,372,0.0,0,0,0,0,0,0,0,0,-202652244,-402624816,187,372,9,90,206,79
327,328000,14,2,33,0,11,2,30,51.4501,327,0.0,0,0,0,0,0,0,0,0,-202652339,-402624816,197,327,9,90,198,143
328,329000,14,2,34,0,11,2,31,51.9623,333,0.0,0,0,0,0,0,0,0,0,-202652416,-402624816,197,333,9,90,198,60
329,330000,14,2,35,0,11,2,32,50.7152,290,0.0,0,0,0,0,0,0,0,0,-202652492,-402624855,200,290,9,90,195,99
330,331000,14,2,36,0,11,2,33,51.2091,259,0.0,0,0,0,0,0,0,0,0,-202652568,-402624855,203,259,9,90,196,201
331,332000,14,2,37,0,11,2,34,50.3958,212,0.0,0,0,0,0,0,0,0,0,-202652626,-402624816,200,212,9,90,189,65
332,333000,14,2,38,0,11,2,35,50.8988,342,0.0,0,0,0,0,0,0,0,0,-202652702,-402624816,192,342,9,104,200,238
333,334000,14,2,39,0,11,2,36,51.2701,338,0.0,0,0,0,0,0,0,0,0,-202652778,-402624855,191,338,9,94,193,86
334,335000,14,2,40,0,11,2,37,51.8041,261,0.0,0,0,0,0,0,0,0,0,-202652835,-402624931,192,261,8,102,188,45
335,336000,14,2,41,0,11,2,38,51.6632,333,0.0,0,0,0,0,0,0,0,0,-202652893,-402625007,195,333,9,90,195,29
336,337000,14,2,42,0,11,2,39,51.8347,344,0.0,0,0,0,0,0,0,0,0,-202652931,-402625083,195,344,9,90,189,173
337,338000,14,2,43,0,11,2,40,51.8751,309,0.0,0,0,0,0,0,0,0,0,-202652950,-402625160,191,309,9,90,192,241
338,339000,14,2,44,0,11,2,41,51.2741,355,0.0,0,0,0,0,0,0,0,0,-202652950,-402625274,185,355,9,90,203,195
339,340000,14,2,45,0,11,2,42,51.9468,320,0.0,0,0,0,0,0,0,0,0,-202652969,-402625350,180,320,9,90,200,6
340,341000,14,2,46,0,11,2,43,51.05,357,0.0,0,0,0,0,0,0,0,0,-202653007,-402625465,178,357,9,90,203,163
341,342000,14,2,47,0,11,2,44,51.0448,385,0.0,0,0,0,0,0,0,0,0,-202653045,-402625541,181,385,9,90,187,88
342,343000,14,2,48,0,11,2,45,51.3387,387,0.0,0,0,0,0,0,0,0,0,-202653102,-402625617,182,387,9,90,203,198
343,344000,14,2,49,0,11,2,46,51.4334,368,0.0,0,0,0,0,0,0,0,0,-202653141,-402625732,181,368,9,90,193,243
344,345000,14,2,50,0,11,2,47,50.7071,374,0.0,0,0,0,0,0,0,0,0,-202653179,-402625808,178,374,9,90,196,119
345,346000,14,2,51,0,11,2,48,51.1565,377,0.0,0,0,0,0,0,0,0,0,-202653217,-402625923,176,377,9,90,198,207
346,347000,14,2,52,0,11,2,49,51.4199,396,0.0,0,0,0,0,0,0,0,0,-202653255,-402625999,172,396,9,90,201,109
347,348000,14,2,53,0,11,2,50,50.4638,409,0.0,0,0,0,0,0,0,0,0,-202653274,-402626113,168,409,9,90,201,235
349,350000,14,2,55,0,11,2,52,50.5648,438,0.0,0,0,0,0,0,0,0,0,-202653350,-402626342,167,438,9,90,208,206
350,351000,14,2,56,0,11,2,53,50.5843,427,0.0,0,0,0,0,0,0,0,0,-202653388,-402626495,168,427,9,90,196,232
351,352000,14,2,57,0,11,2,54,51.4005,444,0.0,0,0,0,0,0,0,0,0,-202653408,-402626609,165,444,9,90,205,110
352,353000,14,2,58,0,11,2,55,51.7055,483,0.0,0,0,0,0,0,0,0,0,-202653446,-402626724,162,483,9,90,190,12
353,354000,14,2,59,0,11,2,56,51.1842,444,0.0,0,0,0,0,0,0,0,0,-202653484,-402626838,163,444,9,90,203,20
354,355000,14,3,0,0,11,2,57,51.635,433,0.0,0,0,0,0,0,0,0,0,-202653503,-402626953,166,433,9,90,202,46
355,356000,14,3,1,0,11,2,58,51.1483,327,0.0,0,0,0,0,0,0,0,0,-202653522,-402627067,172,327,9,90,208,201
356,357000,14,3,2,0,11,2,59,50.6941,272,0.0,0,0,0,0,0,0,0,0,-202653522,-402627143,172,272,9,90,201,252
357,358000,14,3,3,0,11,3,0,51.8338,420,0.0,0,0,0,0,0,0,0,0,-202653560,-402627258,175,420,9,90,205,124
358,359000,14,3,4,0,11,3,1,51.0404,479,0.0,0,0,0,0,0,0,0,0,-202653560,-402627372,177,479,9,90,214,111
359,360000,14,3,5,0,11,3,2,51.3818,353,0.0,0,0,0,0,0,0,0,0,-202653579,-402627487,181,353,9,90,212,223
360,361000,14,3,6,0,11,3,3,51.775,329,0.0,0,0,0,0,0,0,0,0,-202653617,-402627563,186,329,9,90,199,48
361,362000,14,3,7,0,11,3,4,50.7692,398,0.0,0,0,0,0,0,0,0,0,-202653636,-402627639,186,398,9,90,207,72
362,363000,14,3,8,0,11,3,5,51.2498,420,0.0,0,0,0,0,0,0,0,0,-202653656,-402627754,187,420,9,90,211,219
363,364000,14,3,9,0,11,3,6,51.6168,364,0.0,0,0,0,0,0,0,0,0,-202653694,-402627868,183,364,9,90,210,188
364,365000,14,3,10,0,11,3,7,50.5695,375,0.0,0,0,0,0,0,0,0,0,-202653713,-402627944,183,375,9,90,203,96
365,366000,14,3,11,0,11,3,8,51.7378,351,0.0,0,0,0,0,0,0,0,0,-202653732,-402628059,181,351,9,90,203,150
366,367000,14,3,12,0,11,3,9,50.995,435,0.0,0,0,0,0,0,0,0,0,-202653751,-402628135,178,435,9,90,208,201
367,368000,14,3,13,0,11,3,10,51.2719,488,0.0,0,0,0,0,0,0,0,0,-202653789,-402628288,180,488,9,90,209,100
368,369000,14,3,14,0,11,3,11,51.9799,505,0.0,0,0,0,0,0,0,0,0,-202653827,-402628402,182,505,9,90,208,221
369,370000,14,3,15,0,11,3,12,51.7104,524,0.0,0,0,0,0,0,0,0,0,-202653865,-402628517,180,524,9,90,209,88
370,371000,14,3,16,0,11,3,13,51.4532,479,0.0,0,0,0,0,0,0,0,0,-202653903,-402628669,178,479,9,90,207,41
371,372000,14,3,17,0,11,3,14,51.3327,450,0.0,0,0,0,0,0,0,0,0,-202653923,-402628784,178,450,9,90,206,86
372,373000,14,3,18,0,11,3,15,51.7924,411,0.0,0,0,0,0,0,0,0,0,-202653961,-402628898,177,411,9,90,208,91
373,374000,14,3,19,0,11,3,16,50.6286,425,0.0,0,0,0,0,0,0,0,0,-202653980,-402628974,177,425,9,90,210,5
374,375000,14,3,20,0,11,3,17,51.2314,466,0.0,0,0,0,0,0,0,0,0,-202654018,-402629127,177,466,9,90,209,133
375,376000,14,3,21,0,11,3,18,51.8431,503,0.0,0,0,0,0,0,0,0,0,-202654037,-402629241,177,503,9,90,204,56
376,377000,14,3,22,0,11,3,19,50.735,509,0.0,0,0,0,0,0,0,0,0,-202654075,-402629356,177,509,9,90,202,153
377,378000,14,3,23,0,11,3,20,51.6437,466,0.0,0,0,0,0,0,0,0,0,-202654113,-402629508,176,466,9,90,205,113
378,379000,14,3,24,0,11,3,21,51.8311,427,0.0,0,0,0,0,0,0,0,0,-202654132,-402629623,175,427,9,90,203,138
379,380000,14,3,25,0,11,3,22,52.0802,301,0.0,0,0,0,0,0,0,0,0,-202654151,-402629699,176,301,9,90,202,29
380,381000,14,3,26,0,11,3,23,51.3563,251,0.0,0,0,0,0,0,0,0,0,-202654170,-402629776,178,251,9,90,197,71
381,382000,14,3,27,0,11,3,24,51.776,207,0.0,0,0,0,0,0,0,0,0,-202654190,-402629814,182,207,9,90,194,167
382,383000,14,3,28,0,11,3,25,50.6887,290,0.0,0,0,0,0,0,0,0,0,-202654209,-402629890,181,290,9,90,195,219
383,384000,14,3,29,0,11,3,26,51.6274,396,0.0,0,0,0,0,0,0,0,0,-202654228,-402629966,182,396,9,90,203,63
384,385000,14,3,30,0,11,3,27,50.5797,474,0.0,0,0,0,0,0,0,0,0,-202654266,-402630081,182,474,9,90,202,47
385,386000,14,3,31,0,11,3,28,50.8878,383,0.0,0,0,0,0,0,0,0,0,-202654285,-402630195,183,383,9,90,199,226
386,387000,14,3,32,0,11,3,29,52.007,366,0.0,0,0,0,0,0,0,0,0,-202654304,-402630310,187,366,9,90,199,44
387,388000,14,3,33,0,11,3,30,51.8957,374,0.0,0,0,0,0,0,0,0,0,-202654323,-402630386,187,374,9,90,201,203
388,389000,14,3,34,0,11,3,31,50.9874,427,0.0,0,0,0,0,0,0,0,0,-202654342,-402630500,185,427,9,90,198,155
389,390000,14,3,35,0,11,3,32,51.3062,390,0.0,0,0,0,0,0,0,0,0,-202654342,-402630615,182,390,9,90,194,201
390,391000,14,3,36,0,11,3,33,50.6781,374,0.0,0,0,0,0,0,0,0,0,-202654361,-402630729,180,374,9,90,192,15
391,392000,14,3,37,0,11,3,34,51.3465,407,0.0,0,0,0,0,0,0,0,0,-202654399,-402630805,177,407,9,90,190,202
392,393000,14,3,38,0,11,3,35,51.235,488,0.0,0,0,0,0,0,0,0,0,-202654438,-402630920,177,488,9,90,190,191
393,394000,14,3,39,0,11,3,36,51.7791,485,0.0,0,0,0,0,0,0,0,0,-202654476,-402631072,180,485,9,90,193,236
394,395000,14,3,40,0,11,3,37,51.0741,479,0.0,0,0,0,0,0,0,0,0,-202654514,-402631187,182,479,9,90,194,53
395,396000,14,3,41,0,11,3,38,51.377,450,0.0,0,0,0,0,0,0,0,0,-202654552,-402631301,182,450,9,90,194,81
396,397000,14,3,42,0,11,3,39,51.9097,463,0.0,0,0,0,0,0,0,0,0,-202654571,-402631416,182,463,9,90,196,211
397,398000,14,3,43,0,11,3,40,50.7374,481,0.0,0,0,0,0,0,0,0,0,-202654609,-402631568,182,481,9,90,194,38
398,399000,14,3,44,0,11,3,41,51.6871,477,0.0,0,0,0,0,0,0,0,0,-202654628,-402631683,182,477,9,90,192,133
399,400000,14,3,45,0,11,3,42,51.4243,513,0.0,0,0,0,0,0,0,0,0,-202654666,-402631835,181,513,9,90,196,254
400,401000,14,3,46,0,11,3,43,51.533,440,0.0,0,0,0,0,0,0,0,0,-202654666,-402631950,180,440,9,90,192,227
401,402000,14,3,47,0,11,3,44,50.7204,303,0.0,0,0,0,0,0,0,0,0,-202654666,-402632064,177,303,9,90,188,74
402,403000,14,3,48,0,11,3,45,51.384,251,0.0,0,0,0,0,0,0,0,0,-202654666,-402632141,177,251,9,90,185,129
403,404000,14,3,49,0,11,3,46,51.5572,270,0.0,0,0,0,0,0,0,0,0,-202654666,-402632217,182,270,9,90,199,79
404,405000,14,3,50,0,11,3,47,50.7553,248,0.0,0,0,0,0,0,0,0,0,-202654666,-402632293,182,248,9,90,196,195
405,406000,14,3,51,0,11,3,48,51.6352,427,0.0,0,0,0,0,0,0,0,0,-202654705,-402632369,182,427,9,90,198,165
406,407000,14,3,52,0,11,3,49,51.965,490,0.0,0,0,0,0,0,0,0,0,-202654743,-402632484,183,490,9,90,195,119
407,408000,14,3,53,0,11,3,50,51.3425,312,0.0,0,0,0,0,0,0,0,0,-202654781,-402632598,183,312,9,90,199,105
408,409000,14,3,54,0,11,3,51,51.401,338,0.0,0,0,0,0,0,0,0,0,-202654819,-402632675,186,338,9,90,200,27
409,410000,14,3,55,0,11,3,52,52.1497,433,0.0,0,0,0,0,0,0,0,0,-202654838,-402632789,187,433,9,90,199,66
410,411000,14,3,56,0,11,3,53,51.3262,448,0.0,0,0,0,0,0,0,0,0,-202654857,-402632904,188,448,9,90,199,201
411,412000,14,3,57,0,11,3,54,50.8696,396,0.0,0,0,0,0,0,0,0,0,-202654876,-402633018,188,396,9,101,202,212
412,413000,14,3,58,0,11,3,55,51.6035,390,0.0,0,0,0,0,0,0,0,0,-202654895,-402633094,192,390,9,90,200,80
413,414000,14,3,59,0,11,3,56,51.1708,440,0.0,0,0,0,0,0,0,0,0,-202654933,-402633209,196,440,9,90,197,13
414,415000,14,4,0,0,11,3,57,52.2364,470,0.0,0,0,0,0,0,0,0,0,-202654991,-402633323,191,470,9,90,197,73
415,416000,14,4,1,0,11,3,58,51.7511,435,0.0,0,0,0,0,0,0,0,0,-202655010,-402633438,192,435,9,90,192,108
416,417000,14,4,2,0,11,3,59,50.9958,488,0.0,0,0,0,0,0,0,0,0,-202655029,-402633552,191,488,9,90,188,60
417,418000,14,4,3,0,11,4,0,51.6741,466,0.0,0,0,0,0,0,0,0,0,-202655010,-402633666,187,466,9,90,190,155
418,419000,14,4,4,0,11,4,1,52.0707,459,0.0,0,0,0,0,0,0,0,0,-202654991,-402633781,187,459,9,90,193,26
419,420000,14,4,5,0,11,4,2,50.8903,437,0.0,0,0,0,0,0,0,0,0,-202654972,-402633895,188,437,9,90,188,127
420,421000,14,4,6,0,11,4,3,51.9374,431,0.0,0,0,0,0,0,0,0,0,-202654895,-402633972,191,431,9,90,188,100
421,422000,14,4,7,0,11,4,4,52.3305,388,0.0,0,0,0,0,0,0,0,0,-202654819,-402634048,198,388,9,90,189,2
422,423000,14,4,8,0,11,4,5,51.3652,322,0.0,0,0,0,0,0,0,0,0,-202654743,-402634086,192,322,9,90,185,140
423,424000,14,4,9,0,11,4,6,51.7529,377,0.0,0,0,0,0,0,0,0,0,-202654647,-402634124,190,377,9,90,182,33
424,425000,14,4,10,0,11,4,7,52.1062,3318,0.0,0,0,0,0,0,0,0,0,-202654705,-402633552,262,3318,8,93,181,110
425,426000,14,4,11,0,11,4,8,50.8934,331,0.0,0,0,0,0,0,0,0,0,-202654685,-402633285,257,331,9,93,183,12
426,427000,14,4,12,0,11,4,9,52.1283,448,0.0,0,0,0,0,0,0,0,0,-202654571,-402633247,240,448,8,93,176,104
427,428000,14,4,13,0,11,4,10,51.2451,412,0.0,0,0,0,0,0,0,0,0,-202654457,-402633209,238,412,8,93,183,166
428,429000,14,4,14,0,11,4,11,51.8061,427,0.0,0,0,0,0,0,0,0,0,-202654361,-402633171,237,427,8,93,191,55
429,430000,14,4,15,0,11,4,12,51.1327,448,0.0,0,0,0,0,0,0,0,0,-202654228,-402633209,227,448,8,93,180,164
430,431000,14,4,16,0,11,4,13,52.232,485,0.0,0,0,0,0,0,0,0,0,-202654075,-402633209,226,485,8,93,181,117
431,432000,14,4,17,0,11,4,14,51.9353,422,0.0,0,0,0,0,0,0,0,0,-202653961,-402633209,230,422,8,93,181,91
432,433000,14,4,18,0,11,4,15,52.2776,490,0.0,0,0,0,0,0,0,0,0,-202653808,-402633209,230,490,9,93,184,108
433,434000,14,4,19,0,11,4,16,51.3856,496,0.0,0,0,0,0,0,0,0,0,-202653675,-402633209,233,496,9,90,187,236
434,435000,14,4,20,0,11,4,17,51.7576,511,0.0,0,0,0,0,0,0,0,0,-202653541,-402633209,242,511,9,90,187,135
435,436000,14,4,21,0,11,4,18,51.2099,477,0.0,0,0,0,0,0,0,0,0,-202653446,-402633132,248,477,9,90,183,227
436,437000,14,4,22,0,11,4,19,51.6247,437,0.0,0,0,0,0,0,0,0,0,-202653369,-402633094,257,437,9,93,182,2
437,438000,14,4,23,0,11,4,20,52.3015,409,0.0,0,0,0,0,0,0,0,0,-202653312,-402633018,252,409,9,90,183,51
438,439000,14,4,24,0,11,4,21,51.1123,440,0.0,0,0,0,0,0,0,0,0,-202653236,-402632942,250,440,9,90,187,246
439,440000,14,4,25,0,11,4,22,51.5871,361,0.0,0,0,0,0,0,0,0,0,-202653179,-402632865,245,361,9,90,182,200
440,441000,14,4,26,0,11,4,23,51.8928,348,0.0,0,0,0,0,0,0,0,0,-202653141,-402632789,248,348,9,90,189,17
441,442000,14,4,27,0,11,4,24,50.9652,338,0.0,0,0,0,0,0,0,0,0,-202653083,-402632751,250,338,9,90,187,77
442,443000,14,4,28,0,11,4,25,51.0009,420,0.0,0,0,0,0,0,0,0,0,-202653026,-402632675,250,420,9,90,194,101
443,444000,14,4,29,0,11,4,26,50.969,331,0.0,0,0,0,0,0,0,0,0,-202652988,-402632560,243,331,9,90,192,51
444,445000,14,4,30,0,11,4,27,51.7031,292,0.0,0,0,0,0,0,0,0,0,-202652950,-402632484,237,292,8,94,194,66
445,446000,14,4,31,0,11,4,28,51.9663,472,0.0,0,0,0,0,0,0,0,0,-202652873,-402632408,232,472,8,104,189,56
446,447000,14,4,32,0,11,4,29,52.2087,333,0.0,0,0,0,0,0,0,0,0,-202652816,-402632293,223,333,8,94,198,169
447,448000,14,4,33,0,11,4,30,51.2372,350,0.0,0,0,0,0,0,0,0,0,-202652759,-402632179,202,350,8,94,194,80
448,449000,14,4,34,0,11,4,31,52.1613,333,0.0,0,0,0,0,0,0,0,0,-202652740,-402632102,197,333,8,94,191,118
449,450000,14,4,35,0,11,4,32,50.8198,451,0.0,0,0,0,0,0,0,0,0,-202652645,-402631988,197,451,8,94,190,34
450,451000,14,4,36,0,11,4,33,51.9179,481,0.0,0,0,0,0,0,0,0,0,-202652568,-402631874,191,481,8,94,189,6
451,452000,14,4,37,0,11,4,34,51.2858,448,0.0,0,0,0,0,0,0,0,0,-202652492,-402631759,196,448,9,94,178,119
452,453000,14,4,38,0,11,4,35,52.3924,533,0.0,0,0,0,0,0,0,0,0,-202652416,-402631645,192,533,9,90,185,201
453,454000,14,4,39,0,11,4,36,50.9915,566,0.0,0,0,0,0,0,0,0,0,-202652339,-402631530,195,566,9,90,192,188
454,455000,14,4,40,0,11,4,37,51.3596,540,0.0,0,0,0,0,0,0,0,0,-202652263,-402631416,192,540,9,90,190,50
455,456000,14,4,41,0,11,4,38,52.0533,537,0.0,0,0,0,0,0,0,0,0,-202652225,-402631301,196,537,9,90,194,183
456,457000,14,4,42,0,11,4,39,50.9554,450,0.0,0,0,0,0,0,0,0,0,-202652187,-402631187,190,450,9,90,192,135
457,458000,14,4,43,0,11,4,40,51.433,281,0.0,0,0,0,0,0,0,0,0,-202652168,-402631111,181,281,9,90,196,122
458,459000,14,4,44,0,11,4,41,51.721,387,0.0,0,0,0,0,0,0,0,0,-202652111,-402630996,182,387,9,90,194,234
459,460000,14,4,45,0,11,4,42,50.8775,451,0.0,0,0,0,0,0,0,0,0,-202652053,-402630920,191,451,9,90,184,231
460,461000,14,4,46,0,11,4,43,51.4907,346,0.0,0,0,0,0,0,0,0,0,-202652034,-402630844,192,346,9,90,189,100
461,462000,14,4,47,0,11,4,44,51.9151,337,0.0,0,0,0,0,0,0,0,0,-202651996,-402630729,182,337,9,90,193,207
462,463000,14,4,48,0,11,4,45,51.3332,344,0.0,0,0,0,0,0,0,0,0,-202651958,-402630653,178,344,9,90,185,58
463,464000,14,4,49,0,11,4,46,51.8913,446,0.0,0,0,0,0,0,0,0,0,-202651920,-402630577,182,446,9,90,189,106
464,465000,14,4,50,0,11,4,47,51.4259,518,0.0,0,0,0,0,0,0,0,0,-202651863,-402630424,182,518,9,90,183,189
465,466000,14,4,51,0,11,4,48,52.3224,414,0.0,0,0,0,0,0,0,0,0,-202651844,-402630310,171,414,9,90,186,84
466,467000,14,4,52,0,11,4,49,51.2351,537,0.0,0,0,0,0,0,0,0,0,-202651824,-402630195,172,537,9,90,194,194
467,468000,14,4,53,0,11,4,50,51.7131,333,0.0,0,0,0,0,0,0,0,0,-202651824,-402630081,172,333,9,90,195,137
468,469000,14,4,54,0,11,4,51,51.1206,350,0.0,0,0,0,0,0,0,0,0,-202651844,-402630004,168,350,9,90,195,206
469,470000,14,4,55,0,11,4,52,52.3741,337,0.0,0,0,0,0,0,0,0,0,-202651786,-402629928,177,337,9,90,190,48
470,471000,14,4,56,0,11,4,53,51.6902,342,0.0,0,0,0,0,0,0,0,0,-202651710,-402629852,176,342,9,90,191,192
471,472000,14,4,57,0,11,4,54,52.3747,287,0.0,0,0,0,0,0,0,0,0,-202651672,-402629776,172,287,9,90,187,174
472,473000,14,4,58,0,11,4,55,51.2187,470,0.0,0,0,0,0,0,0,0,0,-202651596,-402629699,175,470,9,90,182,167
473,474000,14,4,59,0,11,4,56,51.7031,463,0.0,0,0,0,0,0,0,0,0,-202651538,-402629623,178,463,9,90,185,17
474,475000,14,5,0,0,11,4,57,52.1949,353,0.0,0,0,0,0,0,0,0,0,-202651500,-402629508,180,353,9,90,192,131
475,476000,14,5,1,0,11,4,58,51.8044,437,0.0,0,0,0,0,0,0,0,0,-202651481,-402629394,176,437,9,90,190,154
476,477000,14,5,2,0,11,4,59,52.1925,531,0.0,0,0,0,0,0,0,0,0,-202651500,-402629241,173,531,9,90,184,202
477,478000,14,5,3,0,11,5,0,51.2895,542,0.0,0,0,0,0,0,0,0,0,-202651500,-402629089,172,542,9,90,182,102
478,479000,14,5,4,0,11,5,1,51.8722,551,0.0,0,0,0,0,0,0,0,0,-202651500,-402628974,175,551,8,93,191,222
479,480000,14,5,5,0,11,5,2,52.0949,533,0.0,0,0,0,0,0,0,0,0,-202651557,-402628822,177,533,8,93,188,10
480,481000,14,5,6,0,11,5,3,52.4613,546,0.0,0,0,0,0,0,0,0,0,-202651653,-402628669,176,546,8,104,179,83
481,482000,14,5,7,0,11,5,4,51.8945,496,0.0,0,0,0,0,0,0,0,0,-202651767,-402628593,176,496,8,104,185,182
482,483000,14,5,8,0,11,5,5,51.1114,433,0.0,0,0,0,0,0,0,0,0,-202651901,-402628593,176,433,9,90,186,147
483,484000,14,5,9,0,11,5,6,51.9388,492,0.0,0,0,0,0,0,0,0,0,-202652015,-402628669,178,492,9,90,187,57
484,485000,14,5,10,0,11,5,7,52.4356,396,0.0,0,0,0,0,0,0,0,0,-202652091,-402628746,176,396,9,90,188,204
485,486000,14,5,11,0,11,5,8,52.3173,544,0.0,0,0,0,0,0,0,0,0,-202652149,-402628898,177,544,9,90,191,18
486,487000,14,5,12,0,11,5,9,51.5345,529,0.0,0,0,0,0,0,0,0,0,-202652206,-402629013,172,529,9,90,189,48
487,488000,14,5,13,0,11,5,10,51.8233,474,0.0,0,0,0,0,0,0,0,0,-202652244,-402629127,167,474,9,90,189,16
488,489000,14,5,14,0,11,5,11,52.4589,444,0.0,0,0,0,0,0,0,0,0,-202652282,-402629280,168,444,9,90,183,4
489,490000,14,5,15,0,11,5,12,51.202,459,0.0,0,0,0,0,0,0,0,0,-202652339,-402629394,172,459,9,90,194,104
490,491000,14,5,16,0,11,5,13,51.6474,500,0.0,0,0,0,0,0,0,0,0,-202652397,-402629508,177,500,9,90,199,0
491,492000,14,5,17,0,11,5,14,51.0108,379,0.0,0,0,0,0,0,0,0,0,-202652454,-402629623,177,379,9,101,200,90
492,493000,14,5,18,0,11,5,15,51.1087,331,0.0,0,0,0,0,0,0,0,0,-202652492,-402629699,182,331,9,90,203,111
493,494000,14,5,19,0,11,5,16,50.8957,450,0.0,0,0,0,0,0,0,0,0,-202652549,-402629814,182,450,9,90,204,159
494,495000,14,5,20,0,11,5,17,52.3337,448,0.0,0,0,0,0,0,0,0,0,-202652606,-402629928,182,448,9,90,203,221
495,496000,14,5,21,0,11,5,18,51.69,457,0.0,0,0,0,0,0,0,0,0,-202652664,-402630004,181,457,9,90,194,86
496,497000,14,5,22,0,11,5,19,51.7561,468,0.0,0,0,0,0,0,0,0,0,-202652721,-402630119,180,468,9,90,197,172
497,498000,14,5,23,0,11,5,20,50.9704,500,0.0,0,0,0,0,0,0,0,0,-202652759,-402630271,180,500,9,90,195,27
498,499000,14,5,24,0,11,5,21,51.4015,513,0.0,0,0,0,0,0,0,0,0,-202652797,-402630386,181,513,9,90,194,141
499,500000,14,5,25,0,11,5,22,51.8362,490,0.0,0,0,0,0,0,0,0,0,-202652835,-402630538,183,490,9,90,192,142
500,501000,14,5,26,0,11,5,23,51.1135,488,0.0,0,0,0,0,0,0,0,0,-202652873,-402630653,183,488,9,90,197,223
501,502000,14,5,27,0,11,5,24,52.0841,481,0.0,0,0,0,0,0,0,0,0,-202652931,-402630767,186,481,9,90,194,19
502,503000,14,5,28,0,11,5,25,51.1434,357,0.0,0,0,0,0,0,0,0,0,-202652969,-402630882,188,357,9,90,193,114
503,504000,14,5,29,0,11,5,26,52.0488,314,0.0,0,0,0,0,0,0,0,0,-202652988,-402630958,191,314,9,90,195,173
504,505000,14,5,30,0,11,5,27,51.6583,431,0.0,0,0,0,0,0,0,0,0,-202653007,-402631072,192,431,9,90,189,1
505,506000,14,5,31,0,11,5,28,51.1637,464,0.0,0,0,0,0,0,0,0,0,-202653045,-402631187,192,464,9,90,194,151
506,507000,14,5,32,0,11,5,29,51.9051,438,0.0,0,0,0,0,0,0,0,0,-202653083,-402631301,191,438,9,90,194,184
507,508000,14,5,33,0,11,5,30,51.5485,400,0.0,0,0,0,0,0,0,0,0,-202653121,-402631416,188,400,9,90,196,190
508,509000,14,5,34,0,11,5,31,51.4487,377,0.0,0,0,0,0,0,0,0,0,-202653198,-402631492,186,377,9,90,190,225
509,510000,14,5,35,0,11,5,32,51.864,362,0.0,0,0,0,0,0,0,0,0,-202653293,-402631530,182,362,9,90,193,40
510,511000,14,5,36,0,11,5,33,51.2152,444,0.0,0,0,0,0,0,0,0,0,-202653408,-402631530,181,444,9,90,192,70
511,512000,14,5,37,0,11,5,34,52.1488,416,0.0,0,0,0,0,0,0,0,0,-202653522,-402631492,182,416,9,90,195,176
512,513000,14,5,38,0,11,5,35,51.4247,372,0.0,0,0,0,0,0,0,0,0,-202653598,-402631416,180,372,8,94,193,72
513,514000,14,5,39,0,11,5,36,51.9216,396,0.0,0,0,0,0,0,0,0,0,-202653656,-402631301,180,396,9,94,194,160
514,515000,14,5,40,0,11,5,37,51.8356,448,0.0,0,0,0,0,0,0,0,0,-202653656,-402631149,176,448,9,92,196,137
515,516000,14,5,41,0,11,5,38,51.1124,477,0.0,0,0,0,0,0,0,0,0,-202653617,-402631034,175,477,9,92,196,74
516,517000,14,5,42,0,11,5,39,52.1477,466,0.0,0,0,0,0,0,0,0,0,-202653560,-402630920,178,466,9,90,199,206
517,518000,14,5,43,0,11,5,40,52.0141,446,0.0,0,0,0,0,0,0,0,0,-202653484,-402630805,178,446,9,90,194,84
518,519000,14,5,44,0,11,5,41,51.3895,400,0.0,0,0,0,0,0,0,0,0,-202653408,-402630729,175,400,9,90,197,124
519,520000,14,5,45,0,11,5,42,52.1978,531,0.0,0,0,0,0,0,0,0,0,-202653331,-402630615,173,531,9,90,196,48
520,521000,14,5,46,0,11,5,43,52.5883,607,0.0,0,0,0,0,0,0,0,0,-202653274,-402630462,173,607,9,90,194,136
521,522000,14,5,47,0,11,5,44,51.4866,420,0.0,0,0,0,0,0,0,0,0,-202653236,-402630348,176,420,9,90,196,154
522,523000,14,5,48,0,11,5,45,51.9423,537,0.0,0,0,0,0,0,0,0,0,-202653179,-402630233,173,537,9,90,190,29
523,524000,14,5,49,0,11,5,46,52.2659,594,0.0,0,0,0,0,0,0,0,0,-202653141,-402630081,176,594,9,90,190,63
524,525000,14,5,50,0,11,5,47,51.1801,488,0.0,0,0,0,0,0,0,0,0,-202653083,-402629966,177,488,9,90,195,6
525,526000,14,5,51,0,11,5,48,51.7094,507,0.0,0,0,0,0,0,0,0,0,-202653045,-402629814,175,507,9,90,195,215
526,527000,14,5,52,0,11,5,49,52.1589,616,0.0,0,0,0,0,0,0,0,0,-202652988,-402629661,173,616,9,90,197,113
527,528000,14,5,53,0,11,5,50,51.1597,466,0.0,0,0,0,0,0,0,0,0,-202652950,-402629547,175,466,9,90,194,204
528,529000,14,5,54,0,11,5,51,51.9644,425,0.0,0,0,0,0,0,0,0,0,-202652912,-402629432,168,425,9,90,202,251
529,530000,14,5,55,0,11,5,52,52.4603,485,0.0,0,0,0,0,0,0,0,0,-202652912,-402629318,163,485,9,92,200,209
530,531000,14,5,56,0,11,5,53,51.5133,509,0.0,0,0,0,0,0,0,0,0,-202652893,-402629165,158,509,9,92,204,150
531,532000,14,5,57,0,11,5,54,52.5338,509,0.0,0,0,0,0,0,0,0,0,-202652854,-402629051,156,509,9,90,203,26
532,533000,14,5,58,0,11,5,55,51.9604,450,0.0,0,0,0,0,0,0,0,0,-202652816,-402628898,156,450,9,90,198,81
533,534000,14,5,59,0,11,5,56,52.2582,511,0.0,0,0,0,0,0,0,0,0,-202652759,-402628784,156,511,9,90,198,100
534,535000,14,6,0,0,11,5,57,51.149,538,0.0,0,0,0,0,0,0,0,0,-202652683,-402628669,158,538,9,90,202,16
535,536000,14,6,1,0,11,5,58,52.5999,513,0.0,0,0,0,0,0,0,0,0,-202652587,-402628593,162,513,9,90,195,126
536,537000,14,6,2,0,11,5,59,51.3001,540,0.0,0,0,0,0,0,0,0,0,-202652511,-402628479,162,540,9,90,196,96
537,538000,14,6,3,0,11,6,0,51.4831,514,0.0,0,0,0,0,0,0,0,0,-202652454,-402628326,163,514,9,90,195,238
538,539000,14,6,4,0,11,6,1,51.4705,518,0.0,0,0,0,0,0,0,0,0,-202652397,-402628211,166,518,9,90,201,148
539,540000,14,6,5,0,11,6,2,52.651,487,0.0,0,0,0,0,0,0,0,0,-202652359,-402628097,166,487,9,90,203,218
540,541000,14,6,6,0,11,6,3,52.1426,396,0.0,0,0,0,0,0,0,0,0,-202652320,-402627983,156,396,8,94,199,165
541,542000,14,6,7,0,11,6,4,51.6462,505,0.0,0,0,0,0,0,0,0,0,-202652282,-402627830,155,505,9,90,199,41
542,543000,14,6,8,0,11,6,5,52.2266,485,0.0,0,0,0,0,0,0,0,0,-202652244,-402627677,153,485,9,90,199,172
543,544000,14,6,9,0,11,6,6,51.4636,459,0.0,0,0,0,0,0,0,0,0,-202652206,-402627563,148,459,9,90,188,250
544,545000,14,6,10,0,11,6,7,52.4659,490,0.0,0,0,0,0,0,0,0,0,-202652168,-402627410,148,490,9,92,195,230
545,546000,14,6,11,0,11,6,8,52.4493,511,0.0,0,0,0,0,0,0,0,0,-202652130,-402627296,146,511,7,104,199,160
546,547000,14,6,12,0,11,6,9,52.2554,433,0.0,0,0,0,0,0,0,0,0,-202652130,-402627143,141,433,8,94,188,125
547,548000,14,6,13,0,11,6,10,52.1558,494,0.0,0,0,0,0,0,0,0,0,-202652111,-402627029,141,494,8,104,197,117
548,549000,14,6,14,0,11,6,11,52.6971,453,0.0,0,0,0,0,0,0,0,0,-202652130,-402626914,138,453,9,90,201,97
549,550000,14,6,15,0,11,6,12,51.6103,524,0.0,0,0,0,0,0,0,0,0,-202652111,-402626762,141,524,9,90,202,142
550,551000,14,6,16,0,11,6,13,52.1379,535,0.0,0,0,0,0,0,0,0,0,-202652111,-402626609,145,535,9,90,204,47
551,552000,14,6,17,0,11,6,14,52.6741,425,0.0,0,0,0,0,0,0,0,0,-202652091,-402626457,156,425,9,90,205,247
552,553000,14,6,18,0,11,6,15,51.5119,368,0.0,0,0,0,0,0,0,0,0,-202652072,-402626342,167,368,9,90,193,4
553,554000,14,6,19,0,11,6,16,52.5541,294,0.0,0,0,0,0,0,0,0,0,-202652072,-402626228,162,294,9,90,207,204
554,555000,14,6,20,0,11,6,17,51.5229,320,0.0,0,0,0,0,0,0,0,0,-202652072,-402626152,176,320,8,94,208,74
555,556000,14,6,21,0,11,6,18,52.681,351,0.0,0,0,0,0,0,0,0,0,-202652072,-402626037,181,351,9,90,199,236
556,557000,14,6,22,0,11,6,19,51.7759,387,0.0,0,0,0,0,0,0,0,0,-202652053,-402625923,182,387,9,92,204,170
557,558000,14,6,23,0,11,6,20,52.4864,424,0.0,0,0,0,0,0,0,0,0,-202652053,-402625846,176,424,9,90,201,39
558,559000,14,6,24,0,11,6,21,52.6669,316,0.0,0,0,0,0,0,0,0,0,-202652034,-402625732,176,316,9,90,202,195
559,560000,14,6,25,0,11,6,22,52.7795,361,0.0,0,0,0,0,0,0,0,0,-202652034,-402625656,183,361,9,94,202,98
560,561000,14,6,26,0,11,6,23,52.7776,348,0.0,0,0,0,0,0,0,0,0,-202652015,-402625541,192,348,9,94,202,197
561,562000,14,6,27,0,11,6,24,52.5134,374,0.0,0,0,0,0,0,0,0,0,-202652015,-402625465,202,374,9,90,199,58
562,563000,14,6,28,0,11,6,25,51.6541,329,0.0,0,0,0,0,0,0,0,0,-202651977,-402625350,212,329,9,90,200,113
563,564000,14,6,29,0,11,6,26,52.5333,309,0.0,0,0,0,0,0,0,0,0,-202651977,-402625274,220,309,9,92,198,142
564,565000,14,6,30,0,11,6,27,51.3386,346,0.0,0,0,0,0,0,0,0,0,-202651977,-402625198,215,346,9,90,203,11
565,566000,14,6,31,0,11,6,28,52.2645,392,0.0,0,0,0,0,0,0,0,0,-202651977,-402625083,212,392,9,90,192,196
566,567000,14,6,32,0,11,6,29,52.2094,385,0.0,0,0,0,0,0,0,0,0,-202651977,-402624969,202,385,9,90,194,13
567,568000,14,6,33,0,11,6,30,51.7324,364,0.0,0,0,0,0,0,0,0,0,-202651958,-402624893,196,364,9,90,197,42
568,569000,14,6,34,0,11,6,31,51.5181,366,0.0,0,0,0,0,0,0,0,0,-202651977,-402624778,180,366,9,90,191,108
569,570000,14,6,35,0,11,6,32,51.2731,392,0.0,0,0,0,0,0,0,0,0,-202652034,-402624702,183,392,9,90,198,165
570,571000,14,6,36,0,11,6,33,51.6408,409,0.0,0,0,0,0,0,0,0,0,-202652111,-402624626,195,409,9,90,200,192
571,572000,14,6,37,0,11,6,34,52.0987,637,0.0,0,0,0,0,0,0,0,0,-202652244,-402624511,213,637,9,97,201,127
572,573000,14,6,38,0,11,6,35,52.7574,468,0.0,0,0,0,0,0,0,0,0,-202652359,-402624511,227,468,9,97,200,180
573,574000,14,6,39,0,11,6,36,51.7628,450,0.0,0,0,0,0,0,0,0,0,-202652473,-402624549,225,450,9,97,190,226
574,575000,14,6,40,0,11,6,37,52.3412,172,0.0,0,0,0,0,0,0,0,0,-202652511,-402624588,218,172,9,97,200,78
575,576000,14,6,41,0,11,6,38,52.4118,18,0.0,0,0,0,0,0,0,0,0,-202652511,-402624626,217,18,9,90,201,218
576,577000,14,6,42,0,11,6,39,52.7049,64,0.0,0,0,0,0,0,0,0,0,-202652511,-402624626,206,64,9,90,199,24
577,578000,14,6,43,0,11,6,40,51.8286,29,0.0,0,0,0,0,0,0,0,0,-202652511,-402624626,217,29,9,90,199,203
578,579000,14,6,44,0,11,6,41,52.8459,5,0.0,0,0,0,0,0,0,0,0,-202652492,-402624664,226,5,9,94,199,131
579,580000,14,6,45,0,11,6,42,51.8301,51,0.0,0,0,0,0,0,0,0,0,-202652492,-402624702,231,51,9,90,206,168
580,581000,14,6,46,0,11,6,43,52.1708,307,0.0,0,0,0,0,0,0,0,0,-202652435,-402624740,227,307,9,90,206,167
581,582000,14,6,47,0,11,6,44,52.3371,300,0.0,0,0,0,0,0,0,0,0,-202652378,-402624740,227,300,9,90,207,193
582,583000,14,6,48,0,11,6,45,51.3967,148,0.0,0,0,0,0,0,0,0,0,-202652339,-402624778,221,148,9,90,203,119
583,584000,14,6,49,0,11,6,46,52.3753,212,0.0,0,0,0,0,0,0,0,0,-202652339,-402624816,212,212,9,112,199,204
584,585000,14,6,50,0,11,6,47,51.9732,303,0.0,0,0,0,0,0,0,0,0,-202652378,-402624893,202,303,9,112,199,244
585,586000,14,6,51,0,11,6,48,51.4105,353,0.0,0,0,0,0,0,0,0,0,-202652416,-402624969,198,353,9,90,201,186
586,587000,14,6,52,0,11,6,49,52.2946,364,0.0,0,0,0,0,0,0,0,0,-202652492,-402625045,195,364,9,90,204,32
587,588000,14,6,53,0,11,6,50,51.7368,385,0.0,0,0,0,0,0,0,0,0,-202652587,-402625122,191,385,9,90,202,136
588,589000,14,6,54,0,11,6,51,51.3921,387,0.0,0,0,0,0,0,0,0,0,-202652664,-402625160,188,387,9,90,202,4
589,590000,14,6,55,0,11,6,52,52.4474,388,0.0,0,0,0,0,0,0,0,0,-202652759,-402625198,185,388,9,90,204,108
590,591000,14,6,56,0,11,6,53,51.5813,398,0.0,0,0,0,0,0,0,0,0,-202652854,-402625274,177,398,9,90,207,187
591,592000,14,6,57,0,11,6,54,51.9211,385,0.0,0,0,0,0,0,0,0,0,-202652950,-402625350,180,385,9,90,206,228
592,593000,14,6,58,0,11,6,55,51.8847,429,0.0,0,0,0,0,0,0,0,0,-202653026,-402625427,178,429,9,90,198,143
593,594000,14,6,59,0,11,6,56,52.726,387,0.0,0,0,0,0,0,0,0,0,-202653083,-402625503,175,387,9,90,197,161
594,595000,14,7,0,0,11,6,57,52.4482,375,0.0,0,0,0,0,0,0,0,0,-202653141,-402625617,176,375,9,90,199,144
595,596000,14,7,1,0,11,6,58,52.431,388,0.0,0,0,0,0,0,0,0,0,-202653160,-402625694,172,388,9,90,201,52
596,597000,14,7,2,0,11,6,59,51.6488,338,0.0,0,0,0,0,0,0,0,0,-202653179,-402625808,173,338,8,93,197,59
597,598000,14,7,3,0,11,7,0,52.6082,292,0.0,0,0,0,0,0,0,0,0,-202653198,-402625885,176,292,9,90,204,108
598,599000,14,7,4,0,11,7,1,52.8949,105,0.0,0,0,0,0,0,0,0,0,-202653217,-402625961,180,105,9,90,204,135
599,600000,14,7,5,0,11,7,2,52.089,55,0.0,0,0,0,0,0,0,0,0,-202653198,-402625961,178,55,9,90,200,34
600,601000,14,7,6,0,11,7,3,52.8797,51,0.0,0,0,0,0,0,0,0,0,-202653198,-402625961,182,51,9,90,201,12
