PACKAGE,ELAPSED_TIME,HOUR_GPS,MIN_GPS,SEC_GPS,CENT_GPS,HOUR_PC,MIN_PC,SEC_PC,CENT_PC,VEL_RODA,ROTACAO,TEMP,FLUIDO,AX,AY,AZ,ROLL,PITCH,HEADING,LAT,LON,ALT,VEL_GPS,SAT,HDOP,RSSI,CHECKSUM
0,500,16,8,55,72,13,8,56,52.5406,0,0.0,0,0,0,0,0,0,0,0,0,0,0,0,0,15,212,157
1,1000,16,8,56,0,13,8,57,1.8997,0,0.0,0,0,0,0,0,0,0,0,0,0,0,0,0,15,213,77
2,1500,16,8,57,0,13,8,57,52.8524,0,0.0,0,0,0,0,0,0,0,0,0,0,0,0,0,15,220,69
3,2000,16,8,57,0,13,8,58,2.4825,0,0.0,0,0,0,0,0,0,0,0,0,0,0,0,0,15,218,60
4,2500,16,8,58,0,13,8,58,52.7586,0,0.0,0,0,0,0,0,0,0,0,0,0,0,0,0,15,216,52
5,3000,16,8,58,0,13,8,59,1.6346,0,0.0,0,0,0,0,0,0,0,0,0,0,0,0,0,15,216,43
6,3500,16,8,59,0,13,8,59,52.7679,0,0.0,0,0,0,0,0,0,0,0,0,0,0,0,0,15,221,35
7,4000,16,8,59,50,13,9,0,2.3364,1042,0.0,0,0,0,0,0,0,0,0,-202654304,-402626190,0,1042,0,15,215,118
8,4500,16,8,59,50,13,9,0,51.7966,1042,0.0,0,0,0,0,0,0,0,0,-202654304,-402626190,108,1042,9,147,219,102
9,5000,16,9,0,0,13,9,1,2.7537,222,0.0,0,0,0,0,0,0,0,0,-202654018,-402626647,80,222,9,147,214,185
10,5500,16,9,1,0,13,9,1,52.1686,894,0.0,0,0,0,0,0,0,0,0,-202654151,-402626571,80,894,9,147,223,190
11,6000,16,9,1,0,13,9,2,1.5546,894,0.0,0,0,0,0,0,0,0,0,-202654151,-402626571,111,894,9,123,211,188
12,6500,16,9,2,0,13,9,2,52.5216,494,0.0,0,0,0,0,0,0,0,0,-202654037,-402626647,111,494,9,123,230,182
13,7000,16,9,2,0,13,9,3,2.4317,494,0.0,0,0,0,0,0,0,0,0,-202654037,-402626647,125,494,9,106,221,170
14,7500,16,9,3,0,13,9,3,52.0145,357,0.0,0,0,0,0,0,0,0,0,-202654266,-402626571,125,357,9,106,214,246
15,8000,16,9,3,0,13,9,4,1.7834,357,0.0,0,0,0,0,0,0,0,0,-202654266,-402626571,123,357,10,91,221,221
16,8500,16,9,4,0,13,9,4,51.4945,103,0.0,0,0,0,0,0,0,0,0,-202654209,-402626533,118,103,8,98,218,55
17,9000,16,9,4,0,13,9,5,2.4385,103,0.0,0,0,0,0,0,0,0,0,-202654209,-402626533,118,103,8,98,226,46
18,9500,16,9,5,0,13,9,5,52.0717,240,0.0,0,0,0,0,0,0,0,0,-202654209,-402626571,118,240,8,98,231,17
19,10000,16,9,5,0,13,9,6,1.9267,240,0.0,0,0,0,0,0,0,0,0,-202654209,-402626571,118,240,9,92,231,3
20,10500,16,9,6,0,13,9,6,51.3625,27,0.0,0,0,0,0,0,0,0,0,-202654170,-402626609,118,27,9,92,231,83
21,11000,16,9,6,0,13,9,7,2.4457,27,0.0,0,0,0,0,0,0,0,0,-202654170,-402626609,118,27,10,85,230,67
22,11500,16,9,7,0,13,9,7,52.4973,31,0.0,0,0,0,0,0,0,0,0,-202654151,-402626571,118,31,10,85,227,124
23,12000,16,9,7,0,13,9,8,1.967,31,0.0,0,0,0,0,0,0,0,0,-202654151,-402626571,115,31,10,85,228,112
24,12500,16,9,8,0,13,9,8,51.5216,27,0.0,0,0,0,0,0,0,0,0,-202654151,-402626571,115,27,10,85,233,96
25,13000,16,9,8,0,13,9,9,2.4625,27,0.0,0,0,0,0,0,0,0,0,-202654151,-402626571,118,27,9,106,233,110
26,13500,16,9,9,0,13,9,9,52.4773,527,0.0,0,0,0,0,0,0,0,0,-202654037,-402626533,118,527,9,106,229,235
27,14000,16,9,9,0,13,9,10,1.8734,527,0.0,0,0,0,0,0,0,0,0,-202654037,-402626533,125,527,8,147,228,17
28,14500,16,9,10,0,13,9,10,52.0256,525,0.0,0,0,0,0,0,0,0,0,-202653961,-402626380,125,525,8,147,233,234
29,15000,16,9,10,0,13,9,11,2.5429,525,0.0,0,0,0,0,0,0,0,0,-202653961,-402626380,128,525,7,147,233,227
30,15500,16,9,11,0,13,9,11,51.7188,255,0.0,0,0,0,0,0,0,0,0,-202653903,-402626342,130,255,7,147,231,30
31,16000,16,9,11,0,13,9,12,2.8306,255,0.0,0,0,0,0,0,0,0,0,-202653903,-402626342,130,255,7,147,224,21
32,16500,16,9,12,0,13,9,12,52.5983,157,0.0,0,0,0,0,0,0,0,0,-202653884,-402626342,128,157,9,147,221,92
33,17000,16,9,12,0,13,9,13,1.8197,157,0.0,0,0,0,0,0,0,0,0,-202653884,-402626342,128,157,9,147,222,83
34,17500,16,9,13,0,13,9,13,51.532,75,0.0,0,0,0,0,0,0,0,0,-202653903,-402626380,128,75,9,147,221,110
35,18000,16,9,13,0,13,9,14,2.5948,75,0.0,0,0,0,0,0,0,0,0,-202653903,-402626380,128,75,9,147,223,101
36,18500,16,9,14,0,13,9,14,52.5969,62,0.0,0,0,0,0,0,0,0,0,-202653942,-402626380,128,62,9,147,228,28
37,19000,16,9,14,0,13,9,15,2.009,62,0.0,0,0,0,0,0,0,0,0,-202653942,-402626380,130,62,9,91,215,221
38,19500,16,9,15,0,13,9,15,51.551,51,0.0,0,0,0,0,0,0,0,0,-202653999,-402626419,130,51,9,91,224,94
39,20000,16,9,15,0,13,9,16,2.7392,51,0.0,0,0,0,0,0,0,0,0,-202653999,-402626419,135,51,9,91,228,90
40,20500,16,9,16,0,13,9,16,52.5967,311,0.0,0,0,0,0,0,0,0,0,-202654075,-402626457,135,311,9,91,214,234
41,21000,16,9,16,0,13,9,17,1.8643,311,0.0,0,0,0,0,0,0,0,0,-202654075,-402626457,135,311,9,91,216,225
42,21500,16,9,17,0,13,9,17,51.8467,179,0.0,0,0,0,0,0,0,0,0,-202654075,-402626419,135,179,9,91,222,244
43,22000,16,9,17,0,13,9,18,1.4642,179,0.0,0,0,0,0,0,0,0,0,-202654075,-402626419,126,179,9,91,224,226
44,22500,16,9,18,0,13,9,18,52.3814,200,0.0,0,0,0,0,0,0,0,0,-202654094,-402626380,126,200,9,91,230,24
45,23000,16,9,18,0,13,9,19,2.1755,200,0.0,0,0,0,0,0,0,0,0,-202654094,-402626380,126,200,9,91,222,15
46,23500,16,9,19,0,13,9,19,51.7173,159,0.0,0,0,0,0,0,0,0,0,-202654132,-402626342,126,159,9,91,222,181
47,24000,16,9,19,0,13,9,20,2.207,159,0.0,0,0,0,0,0,0,0,0,-202654132,-402626342,118,159,9,91,228,164
48,24500,16,9,20,0,13,9,20,51.6371,64,0.0,0,0,0,0,0,0,0,0,-202654151,-402626380,118,64,9,91,226,165
49,25000,16,9,20,0,13,9,21,2.8006,64,0.0,0,0,0,0,0,0,0,0,-202654151,-402626380,121,64,9,91,224,159
50,25500,16,9,21,0,13,9,21,53.07,40,0.0,0,0,0,0,0,0,0,0,-202654132,-402626380,121,40,9,91,224,122
51,26000,16,9,21,0,13,9,22,2.1447,40,0.0,0,0,0,0,0,0,0,0,-202654132,-402626380,116,40,9,91,229,108
52,26500,16,9,22,0,13,9,22,52.0059,11,0.0,0,0,0,0,0,0,0,0,-202654132,-402626419,118,11,9,91,225,5
53,27000,16,9,22,0,13,9,23,2.978,11,0.0,0,0,0,0,0,0,0,0,-202654132,-402626419,118,11,9,91,225,252
54,27500,16,9,23,0,13,9,23,52.6677,48,0.0,0,0,0,0,0,0,0,0,-202654132,-402626380,118,48,9,91,226,101
55,28000,16,9,23,0,13,9,24,1.4149,48,0.0,0,0,0,0,0,0,0,0,-202654132,-402626380,116,48,9,91,218,90
56,28500,16,9,24,0,13,9,24,51.675,144,0.0,0,0,0,0,0,0,0,0,-202654151,-402626380,116,144,9,91,218,255
57,29000,16,9,24,0,13,9,25,2.6671,144,0.0,0,0,0,0,0,0,0,0,-202654151,-402626380,115,144,10,85,215,240
58,29500,16,9,25,0,13,9,25,52.0637,227,0.0,0,0,0,0,0,0,0,0,-202654190,-402626342,115,227,10,85,223,141
59,30000,16,9,25,0,13,9,26,2.9593,227,0.0,0,0,0,0,0,0,0,0,-202654190,-402626342,115,227,10,85,223,132
60,30500,16,9,26,0,13,9,26,52.7408,207,0.0,0,0,0,0,0,0,0,0,-202654209,-402626304,115,207,10,85,210,103
61,31000,16,9,26,0,13,9,27,2.1069,207,0.0,0,0,0,0,0,0,0,0,-202654209,-402626304,113,207,10,85,220,92
62,31500,16,9,27,0,13,9,27,51.6212,83,0.0,0,0,0,0,0,0,0,0,-202654209,-402626266,113,83,10,85,219,130
63,32000,16,9,27,0,13,9,28,2.7173,83,0.0,0,0,0,0,0,0,0,0,-202654209,-402626266,111,83,10,85,223,119
64,32500,16,9,28,0,13,9,28,52.8706,74,0.0,0,0,0,0,0,0,0,0,-202654209,-402626266,111,74,10,85,218,92
65,33000,16,9,28,0,13,9,29,1.7288,74,0.0,0,0,0,0,0,0,0,0,-202654209,-402626266,108,74,10,85,224,80
66,33500,16,9,29,0,13,9,29,52.9527,255,0.0,0,0,0,0,0,0,0,0,-202654190,-402626228,108,255,10,85,219,236
67,34000,16,9,29,0,13,9,30,2.3787,255,0.0,0,0,0,0,0,0,0,0,-202654190,-402626228,106,255,10,85,209,225
68,34500,16,9,30,0,13,9,30,51.9156,425,0.0,0,0,0,0,0,0,0,0,-202654190,-402626152,106,425,10,85,214,123
69,35000,16,9,30,0,13,9,31,2.9153,425,0.0,0,0,0,0,0,0,0,0,-202654190,-402626152,101,425,10,91,196,115
70,35500,16,9,31,0,13,9,31,52.6909,344,0.0,0,0,0,0,0,0,0,0,-202654170,-402626075,101,344,10,91,200,42
71,36000,16,9,31,0,13,9,32,2.4399,344,0.0,0,0,0,0,0,0,0,0,-202654170,-402626075,100,344,10,85,205,26
72,36500,16,9,32,0,13,9,32,51.8585,331,0.0,0,0,0,0,0,0,0,0,-202654151,-402625999,100,331,10,85,209,88
73,37000,16,9,32,0,13,9,33,2.9279,331,0.0,0,0,0,0,0,0,0,0,-202654151,-402625999,101,331,10,85,207,80
74,37500,16,9,33,0,13,9,33,52.6549,372,0.0,0,0,0,0,0,0,0,0,-202654132,-402625923,101,372,10,85,207,249
75,38000,16,9,33,0,13,9,34,2.6966,372,0.0,0,0,0,0,0,0,0,0,-202654132,-402625923,100,372,10,85,206,239
76,38500,16,9,34,0,13,9,34,52.2826,388,0.0,0,0,0,0,0,0,0,0,-202654094,-402625808,100,388,10,85,202,160
77,39000,16,9,34,0,13,9,35,1.9844,388,0.0,0,0,0,0,0,0,0,0,-202654094,-402625808,98,388,10,85,202,149
78,39500,16,9,35,0,13,9,35,52.5899,381,0.0,0,0,0,0,0,0,0,0,-202654075,-402625732,98,381,10,85,204,223
79,40000,16,9,35,0,13,9,36,1.6719,381,0.0,0,0,0,0,0,0,0,0,-202654075,-402625732,98,381,10,85,206,214
80,40500,16,9,36,0,13,9,36,51.9607,401,0.0,0,0,0,0,0,0,0,0,-202654056,-402625656,98,401,10,85,199,85
81,41000,16,9,36,0,13,9,37,2.6075,401,0.0,0,0,0,0,0,0,0,0,-202654056,-402625656,98,401,10,85,195,76
82,41500,16,9,37,0,13,9,37,51.9827,425,0.0,0,0,0,0,0,0,0,0,-202654037,-402625541,98,425,10,85,198,250
83,42000,16,9,37,0,13,9,38,2.5168,425,0.0,0,0,0,0,0,0,0,0,-202654037,-402625541,96,425,10,85,188,239
84,42500,16,9,38,0,13,9,38,52.6666,427,0.0,0,0,0,0,0,0,0,0,-202653999,-402625427,96,427,10,85,197,132
85,43000,16,9,38,0,13,9,39,2.2895,427,0.0,0,0,0,0,0,0,0,0,-202653999,-402625427,96,427,10,85,200,122
86,43500,16,9,39,0,13,9,39,52.3917,396,0.0,0,0,0,0,0,0,0,0,-202653961,-402625312,96,396,10,85,197,205
87,44000,16,9,39,0,13,9,40,2.4629,396,0.0,0,0,0,0,0,0,0,0,-202653961,-402625312,96,396,10,85,195,196
88,44500,16,9,40,0,13,9,40,51.6395,433,0.0,0,0,0,0,0,0,0,0,-202653942,-402625236,96,433,10,85,194,103
89,45000,16,9,40,0,13,9,41,2.7971,433,0.0,0,0,0,0,0,0,0,0,-202653942,-402625236,98,433,10,85,188,96
90,45500,16,9,41,0,13,9,41,52.255,435,0.0,0,0,0,0,0,0,0,0,-202653903,-402625122,98,435,10,85,198,245
91,46000,16,9,41,0,13,9,42,1.8132,435,0.0,0,0,0,0,0,0,0,0,-202653903,-402625122,98,435,10,85,189,236
92,46500,16,9,42,0,13,9,42,52.3339,448,0.0,0,0,0,0,0,0,0,0,-202653865,-402625007,98,448,10,85,191,152
93,47000,16,9,42,0,13,9,43,2.4822,448,0.0,0,0,0,0,0,0,0,0,-202653865,-402625007,100,448,8,106,189,164
94,47500,16,9,43,0,13,9,43,51.5225,466,0.0,0,0,0,0,0,0,0,0,-202653846,-402624893,100,466,8,106,194,69
95,48000,16,9,43,0,13,9,44,2.4668,466,0.0,0,0,0,0,0,0,0,0,-202653846,-402624893,98,466,9,106,189,59
96,48500,16,9,44,0,13,9,44,51.9502,477,0.0,0,0,0,0,0,0,0,0,-202653827,-402624778,98,477,9,106,198,207
97,49000,16,9,44,0,13,9,45,2.8434,477,0.0,0,0,0,0,0,0,0,0,-202653827,-402624778,98,477,8,106,188,197
98,49500,16,9,45,0,13,9,45,52.5941,438,0.0,0,0,0,0,0,0,0,0,-202653789,-402624664,98,438,8,106,184,8
99,50000,16,9,45,0,13,9,46,2.614,438,0.0,0,0,0,0,0,0,0,0,-202653789,-402624664,98,438,8,106,185,255
100,50500,16,9,46,0,13,9,46,52.1598,427,0.0,0,0,0,0,0,0,0,0,-202653751,-402624549,98,427,8,106,187,122
101,51000,16,9,46,0,13,9,47,2.6665,427,0.0,0,0,0,0,0,0,0,0,-202653751,-402624549,100,427,8,106,185,115
102,51500,16,9,47,0,13,9,47,51.5723,451,0.0,0,0,0,0,0,0,0,0,-202653713,-402624435,100,451,8,106,176,52
103,52000,16,9,47,0,13,9,48,2.7791,451,0.0,0,0,0,0,0,0,0,0,-202653713,-402624435,100,451,9,92,189,30
104,52500,16,9,48,0,13,9,48,52.1686,461,0.0,0,0,0,0,0,0,0,0,-202653675,-402624320,100,461,9,92,187,196
105,53000,16,9,48,0,13,9,49,1.5868,461,0.0,0,0,0,0,0,0,0,0,-202653675,-402624320,101,461,8,106,173,201
106,53500,16,9,49,0,13,9,49,52.4694,427,0.0,0,0,0,0,0,0,0,0,-202653656,-402624206,101,427,8,106,169,2
107,54000,16,9,49,0,13,9,50,2.0877,427,0.0,0,0,0,0,0,0,0,0,-202653656,-402624206,101,427,7,123,184,9
108,54500,16,9,50,0,13,9,50,53.0586,446,0.0,0,0,0,0,0,0,0,0,-202653636,-402624092,101,446,7,123,181,173
109,55000,16,9,50,0,13,9,51,2.4106,446,0.0,0,0,0,0,0,0,0,0,-202653636,-402624092,105,446,9,123,183,170
110,55500,16,9,51,0,13,9,51,53.0984,448,0.0,0,0,0,0,0,0,0,0,-202653598,-402623977,105,448,9,123,174,64
111,56000,16,9,51,0,13,9,52,1.5335,448,0.0,0,0,0,0,0,0,0,0,-202653598,-402623977,105,448,9,106,180,38
112,56500,16,9,52,0,13,9,52,52.5601,446,0.0,0,0,0,0,0,0,0,0,-202653560,-402623863,105,446,9,106,166,178
113,57000,16,9,52,0,13,9,53,1.9106,446,0.0,0,0,0,0,0,0,0,0,-202653560,-402623863,103,446,9,91,179,152
114,57500,16,9,53,0,13,9,53,51.6517,451,0.0,0,0,0,0,0,0,0,0,-202653522,-402623748,103,451,9,91,174,51
115,58000,16,9,53,0,13,9,54,2.3857,451,0.0,0,0,0,0,0,0,0,0,-202653522,-402623748,103,451,9,106,171,57
116,58500,16,9,54,0,13,9,54,52.3454,463,0.0,0,0,0,0,0,0,0,0,-202653484,-402623634,103,463,9,106,178,226
117,59000,16,9,54,0,13,9,55,2.1341,463,0.0,0,0,0,0,0,0,0,0,-202653484,-402623634,100,463,9,91,178,199
118,59500,16,9,55,0,13,9,55,51.9254,479,0.0,0,0,0,0,0,0,0,0,-202653446,-402623481,100,479,9,91,164,159
119,60000,16,9,55,0,13,9,56,3.0868,479,0.0,0,0,0,0,0,0,0,0,-202653446,-402623481,98,479,10,106,179,164
120,60500,16,9,56,0,13,9,56,53.0084,453,0.0,0,0,0,0,0,0,0,0,-202653408,-402623367,98,453,10,106,178,1
121,61000,16,9,56,0,13,9,57,2.69,453,0.0,0,0,0,0,0,0,0,0,-202653408,-402623367,95,453,9,91,182,229
122,61500,16,9,57,0,13,9,57,52.2099,435,0.0,0,0,0,0,0,0,0,0,-202653369,-402623252,95,435,9,91,183,83
123,62000,16,9,57,0,13,9,58,1.7544,435,0.0,0,0,0,0,0,0,0,0,-202653369,-402623252,91,435,10,85,180,65
124,62500,16,9,58,0,13,9,58,53.0893,392,0.0,0,0,0,0,0,0,0,0,-202653331,-402623176,91,392,10,85,173,86
125,63000,16,9,58,0,13,9,59,2.7157,392,0.0,0,0,0,0,0,0,0,0,-202653331,-402623176,90,392,10,92,177,83
126,63500,16,9,59,0,13,9,59,51.9438,401,0.0,0,0,0,0,0,0,0,0,-202653236,-402623176,90,401,10,92,164,188
127,64000,16,9,59,0,13,10,0,2.7231,401,0.0,0,0,0,0,0,0,0,0,-202653236,-402623176,83,401,9,92,171,171
128,64500,16,10,0,0,13,10,0,52.4022,440,0.0,0,0,0,0,0,0,0,0,-202653160,-402623138,83,440,9,92,168,40
129,65000,16,10,0,0,13,10,1,2.0131,440,0.0,0,0,0,0,0,0,0,0,-202653160,-402623138,80,440,9,93,170,29
130,65500,16,10,1,0,13,10,1,51.75,450,0.0,0,0,0,0,0,0,0,0,-202653045,-402623176,80,450,9,93,179,118
131,66000,16,10,1,0,13,10,2,2.7453,450,0.0,0,0,0,0,0,0,0,0,-202653045,-402623176,78,450,9,116,176,131
132,66500,16,10,2,0,13,10,2,52.1066,457,0.0,0,0,0,0,0,0,0,0,-202652950,-402623176,78,457,9,116,167,232
133,67000,16,10,2,0,13,10,3,3.0161,457,0.0,0,0,0,0,0,0,0,0,-202652950,-402623176,73,457,10,96,173,199
134,67500,16,10,3,0,13,10,3,52.7689,422,0.0,0,0,0,0,0,0,0,0,-202652835,-402623176,73,422,10,96,167,237
135,68000,16,10,3,0,13,10,4,1.8506,422,0.0,0,0,0,0,0,0,0,0,-202652835,-402623176,70,422,10,96,166,225
136,68500,16,10,4,0,13,10,4,52.9442,353,0.0,0,0,0,0,0,0,0,0,-202652740,-402623176,70,353,10,96,174,174
137,69000,16,10,4,0,13,10,5,2.6317,353,0.0,0,0,0,0,0,0,0,0,-202652740,-402623176,65,353,9,86,164,149
139,70000,16,10,5,0,13,10,6,2.1056,396,0.0,0,0,0,0,0,0,0,0,-202652645,-402623214,60,396,10,86,171,16
140,70500,16,10,6,0,13,10,6,53.0723,450,0.0,0,0,0,0,0,0,0,0,-202652530,-402623252,60,450,10,86,182,192
141,71000,16,10,6,0,13,10,7,1.8187,450,0.0,0,0,0,0,0,0,0,0,-202652530,-402623252,55,450,10,85,178,177
142,71500,16,10,7,0,13,10,7,52.7888,466,0.0,0,0,0,0,0,0,0,0,-202652416,-402623329,55,466,10,85,175,239
143,72000,16,10,7,0,13,10,8,3.1465,466,0.0,0,0,0,0,0,0,0,0,-202652416,-402623329,56,466,9,96,170,241
144,72500,16,10,8,0,13,10,8,51.7852,461,0.0,0,0,0,0,0,0,0,0,-202652301,-402623405,56,461,9,96,174,6
145,73000,16,10,8,0,13,10,9,3.063,461,0.0,0,0,0,0,0,0,0,0,-202652301,-402623405,58,461,10,105,175,9
146,73500,16,10,9,0,13,10,9,52.5373,479,0.0,0,0,0,0,0,0,0,0,-202652187,-402623443,58,479,10,105,176,113
147,74000,16,10,9,0,13,10,10,2.5754,479,0.0,0,0,0,0,0,0,0,0,-202652187,-402623443,55,479,10,85,180,81
148,74500,16,10,10,0,13,10,10,52.5101,511,0.0,0,0,0,0,0,0,0,0,-202652053,-402623481,55,511,10,85,167,234
149,75000,16,10,10,0,13,10,11,2.0284,511,0.0,0,0,0,0,0,0,0,0,-202652053,-402623481,55,511,10,85,171,224
150,75500,16,10,11,0,13,10,11,53.1373,501,0.0,0,0,0,0,0,0,0,0,-202651958,-402623558,55,501,10,85,170,213
151,76000,16,10,11,0,13,10,12,2.8713,501,0.0,0,0,0,0,0,0,0,0,-202651958,-402623558,54,501,10,116,170,234
152,76500,16,10,12,0,13,10,12,53.0113,470,0.0,0,0,0,0,0,0,0,0,-202651786,-402623634,54,470,10,116,170,5
153,77000,16,10,12,0,13,10,13,2.0744,470,0.0,0,0,0,0,0,0,0,0,-202651786,-402623634,66,470,10,85,171,233
154,77500,16,10,13,0,13,10,13,53.0796,479,0.0,0,0,0,0,0,0,0,0,-202651653,-402623748,66,479,10,85,174,5
155,78000,16,10,13,0,13,10,14,2.6097,479,0.0,0,0,0,0,0,0,0,0,-202651653,-402623748,80,479,10,85,174,10
156,78500,16,10,14,0,13,10,14,52.3624,433,0.0,0,0,0,0,0,0,0,0,-202651576,-402623825,80,433,10,85,176,167
158,79500,16,10,15,0,13,10,15,52.0066,451,0.0,0,0,0,0,0,0,0,0,-202651519,-402623901,85,451,10,96,176,183
159,80000,16,10,15,0,13,10,16,3.0446,451,0.0,0,0,0,0,0,0,0,0,-202651519,-402623901,86,451,10,96,172,175
160,80500,16,10,16,0,13,10,16,52.4258,487,0.0,0,0,0,0,0,0,0,0,-202651424,-402623977,86,487,10,96,175,2
161,81000,16,10,16,0,13,10,17,3.1925,487,0.0,0,0,0,0,0,0,0,0,-202651424,-402623977,90,487,9,105,172,5
162,81500,16,10,17,0,13,10,17,53.1414,516,0.0,0,0,0,0,0,0,0,0,-202651309,-402624053,90,516,9,105,182,96
163,82000,16,10,17,0,13,10,18,3.2248,516,0.0,0,0,0,0,0,0,0,0,-202651309,-402624053,98,516,8,97,183,86
164,82500,16,10,18,0,13,10,18,52.6418,485,0.0,0,0,0,0,0,0,0,0,-202651195,-402624168,98,485,8,97,181,13
165,83000,16,10,18,0,13,10,19,3.2209,485,0.0,0,0,0,0,0,0,0,0,-202651195,-402624168,106,485,7,112,176,26
166,83500,16,10,19,0,13,10,19,51.6225,437,0.0,0,0,0,0,0,0,0,0,-202651119,-402624244,106,437,7,112,178,179
167,84000,16,10,19,0,13,10,20,2.2811,437,0.0,0,0,0,0,0,0,0,0,-202651119,-402624244,110,437,10,107,181,172
168,84500,16,10,20,0,13,10,20,51.9379,394,0.0,0,0,0,0,0,0,0,0,-202651081,-402624320,110,394,10,107,179,39
169,85000,16,10,20,0,13,10,21,3.087,394,0.0,0,0,0,0,0,0,0,0,-202651081,-402624320,111,394,9,123,181,46
170,85500,16,10,21,0,13,10,21,52.5177,420,0.0,0,0,0,0,0,0,0,0,-202651100,-402624435,111,420,9,123,187,211
171,86000,16,10,21,0,13,10,22,1.8957,420,0.0,0,0,0,0,0,0,0,0,-202651100,-402624435,113,420,9,107,186,188
172,86500,16,10,22,0,13,10,22,52.1312,427,0.0,0,0,0,0,0,0,0,0,-202651157,-402624511,113,427,9,107,177,60
173,87000,16,10,22,0,13,10,23,1.8367,427,0.0,0,0,0,0,0,0,0,0,-202651157,-402624511,115,427,10,107,180,54
174,87500,16,10,23,0,13,10,23,53.0713,483,0.0,0,0,0,0,0,0,0,0,-202651233,-402624626,115,483,10,107,188,222
175,88000,16,10,23,0,13,10,24,2.3393,483,0.0,0,0,0,0,0,0,0,0,-202651233,-402624626,113,483,9,107,182,210
176,88500,16,10,24,0,13,10,24,52.5233,455,0.0,0,0,0,0,0,0,0,0,-202651290,-402624702,113,455,9,107,180,13
177,89000,16,10,24,0,13,10,25,2.0466,455,0.0,0,0,0,0,0,0,0,0,-202651290,-402624702,116,455,8,107,178,6
178,89500,16,10,25,0,13,10,25,53.0509,463,0.0,0,0,0,0,0,0,0,0,-202651367,-402624778,116,463,8,107,179,116
179,90000,16,10,25,0,13,10,26,2.3871,463,0.0,0,0,0,0,0,0,0,0,-202651367,-402624778,118,463,9,92,186,95
180,90500,16,10,26,0,13,10,26,53.0096,503,0.0,0,0,0,0,0,0,0,0,-202651462,-402624893,118,503,9,92,180,212
181,91000,16,10,26,0,13,10,27,2.9612,503,0.0,0,0,0,0,0,0,0,0,-202651462,-402624893,118,503,9,92,176,203
182,91500,16,10,27,0,13,10,27,52.9485,525,0.0,0,0,0,0,0,0,0,0,-202651538,-402624969,118,525,9,92,181,89
183,92000,16,10,27,0,13,10,28,2.4651,525,0.0,0,0,0,0,0,0,0,0,-202651538,-402624969,115,525,9,92,185,77
184,92500,16,10,28,0,13,10,28,52.1799,481,0.0,0,0,0,0,0,0,0,0,-202651634,-402625045,115,481,9,92,169,62
185,93000,16,10,28,0,13,10,29,2.3771,481,0.0,0,0,0,0,0,0,0,0,-202651634,-402625045,115,481,9,92,187,53
186,93500,16,10,29,0,13,10,29,52.4174,498,0.0,0,0,0,0,0,0,0,0,-202651729,-402625122,115,498,9,92,188,162
187,94000,16,10,29,0,13,10,30,2.3407,498,0.0,0,0,0,0,0,0,0,0,-202651729,-402625122,118,498,9,92,186,156
188,94500,16,10,30,0,13,10,30,52.5049,511,0.0,0,0,0,0,0,0,0,0,-202651805,-402625236,118,511,9,92,184,240
189,95000,16,10,30,0,13,10,31,2.5958,511,0.0,0,0,0,0,0,0,0,0,-202651805,-402625236,116,511,9,92,184,229
190,95500,16,10,31,0,13,10,31,52.1632,522,0.0,0,0,0,0,0,0,0,0,-202651863,-402625312,116,522,9,92,186,110
191,96000,16,10,31,0,13,10,32,2.1629,522,0.0,0,0,0,0,0,0,0,0,-202651863,-402625312,118,522,9,92,180,103
192,96500,16,10,32,0,13,10,32,51.9121,483,0.0,0,0,0,0,0,0,0,0,-202651920,-402625427,118,483,9,92,183,97
193,97000,16,10,32,0,13,10,33,2.7907,483,0.0,0,0,0,0,0,0,0,0,-202651920,-402625427,118,483,9,92,189,88
194,97500,16,10,33,0,13,10,33,52.8942,498,0.0,0,0,0,0,0,0,0,0,-202651958,-402625541,118,498,9,92,192,213
195,98000,16,10,33,0,13,10,34,3.053,498,0.0,0,0,0,0,0,0,0,0,-202651958,-402625541,118,498,9,106,191,218
196,98500,16,10,34,0,13,10,34,52.58,507,0.0,0,0,0,0,0,0,0,0,-202651996,-402625656,118,507,9,106,197,75
197,99000,16,10,34,0,13,10,35,2.287,507,0.0,0,0,0,0,0,0,0,0,-202651996,-402625656,120,507,9,106,198,68
198,99500,16,10,35,0,13,10,35,53.2928,561,0.0,0,0,0,0,0,0,0,0,-202652034,-402625770,120,561,9,106,202,18
199,100000,16,10,35,0,13,10,36,3.1773,561,0.0,0,0,0,0,0,0,0,0,-202652034,-402625770,116,561,9,123,197,22
200,100500,16,10,36,0,13,10,36,52.6368,509,0.0,0,0,0,0,0,0,0,0,-202652072,-402625885,116,509,9,123,194,10
201,101000,16,10,36,0,13,10,37,2.096,509,0.0,0,0,0,0,0,0,0,0,-202652072,-402625885,118,509,8,106,198,241
202,101500,16,10,37,0,13,10,37,53.2018,461,0.0,0,0,0,0,0,0,0,0,-202652091,-402625999,118,461,7,123,198,20
203,102000,16,10,37,0,13,10,38,2.7643,461,0.0,0,0,0,0,0,0,0,0,-202652091,-402625999,118,461,7,123,194,11
204,102500,16,10,38,0,13,10,38,52.6216,483,0.0,0,0,0,0,0,0,0,0,-202652111,-402626113,118,483,7,123,196,168
205,103000,16,10,38,0,13,10,39,2.0062,483,0.0,0,0,0,0,0,0,0,0,-202652111,-402626113,118,483,7,123,197,159
206,103500,16,10,39,0,13,10,39,52.9353,488,0.0,0,0,0,0,0,0,0,0,-202652130,-402626228,118,488,7,123,191,27
207,104000,16,10,39,0,13,10,40,2.4262,488,0.0,0,0,0,0,0,0,0,0,-202652130,-402626228,118,488,7,123,191,18
208,104500,16,10,40,0,13,10,40,52.9369,468,0.0,0,0,0,0,0,0,0,0,-202652149,-402626342,118,468,7,123,188,92
209,105000,16,10,40,0,13,10,41,2.1704,468,0.0,0,0,0,0,0,0,0,0,-202652149,-402626342,121,468,9,92,188,57
210,105500,16,10,41,0,13,10,41,51.7215,501,0.0,0,0,0,0,0,0,0,0,-202652168,-402626457,121,501,9,92,195,236
211,106000,16,10,41,0,13,10,42,2.629,501,0.0,0,0,0,0,0,0,0,0,-202652168,-402626457,121,501,9,92,192,227
212,106500,16,10,42,0,13,10,42,52.2041,435,0.0,0,0,0,0,0,0,0,0,-202652187,-402626533,121,435,9,92,198,248
213,107000,16,10,42,0,13,10,43,2.9083,435,0.0,0,0,0,0,0,0,0,0,-202652187,-402626533,121,435,10,92,197,239
214,107500,16,10,43,0,13,10,43,53.0017,490,0.0,0,0,0,0,0,0,0,0,-202652225,-402626647,121,490,10,92,193,188
215,108000,16,10,43,0,13,10,44,2.6644,490,0.0,0,0,0,0,0,0,0,0,-202652225,-402626647,121,490,8,106,195,191
216,108500,16,10,44,0,13,10,44,52.0885,377,0.0,0,0,0,0,0,0,0,0,-202652282,-402626724,121,377,8,106,194,79
217,109000,16,10,44,0,13,10,45,2.6352,377,0.0,0,0,0,0,0,0,0,0,-202652282,-402626724,123,377,8,106,175,72
218,109500,16,10,45,0,13,10,45,52.4819,379,0.0,0,0,0,0,0,0,0,0,-202652378,-402626724,123,379,8,106,181,228
219,110000,16,10,45,0,13,10,46,2.1743,379,0.0,0,0,0,0,0,0,0,0,-202652378,-402626724,123,379,9,92,192,206
220,110500,16,10,46,0,13,10,46,53.1403,350,0.0,0,0,0,0,0,0,0,0,-202652454,-402626686,123,350,9,92,198,101
221,111000,16,10,46,0,13,10,47,2.5115,350,0.0,0,0,0,0,0,0,0,0,-202652454,-402626686,123,350,8,131,200,130
222,111500,16,10,47,0,13,10,47,52.2974,338,0.0,0,0,0,0,0,0,0,0,-202652549,-402626647,123,338,8,131,199,42
223,112000,16,10,47,0,13,10,48,3.1959,338,0.0,0,0,0,0,0,0,0,0,-202652549,-402626647,120,338,10,107,200,8
224,112500,16,10,48,0,13,10,48,52.5393,400,0.0,0,0,0,0,0,0,0,0,-202652626,-402626533,120,400,10,107,206,162
225,113000,16,10,48,0,13,10,49,1.7336,400,0.0,0,0,0,0,0,0,0,0,-202652626,-402626533,116,400,10,92,199,134
226,113500,16,10,49,0,13,10,49,53.1121,453,0.0,0,0,0,0,0,0,0,0,-202652645,-402626419,116,453,10,92,197,71
227,114000,16,10,49,0,13,10,50,2.3546,453,0.0,0,0,0,0,0,0,0,0,-202652645,-402626419,118,453,10,85,195,57
228,114500,16,10,50,0,13,10,50,51.971,472,0.0,0,0,0,0,0,0,0,0,-202652664,-402626266,118,472,10,85,197,222
229,115000,16,10,50,0,13,10,51,1.8875,472,0.0,0,0,0,0,0,0,0,0,-202652664,-402626266,116,472,10,85,194,211
230,115500,16,10,51,0,13,10,51,52.8899,513,0.0,0,0,0,0,0,0,0,0,-202652683,-402626113,116,513,10,85,199,164
231,116000,16,10,51,0,13,10,52,3.1934,513,0.0,0,0,0,0,0,0,0,0,-202652683,-402626113,116,513,10,85,196,155
232,116500,16,10,52,0,13,10,52,51.8318,383,0.0,0,0,0,0,0,0,0,0,-202652702,-402626037,116,383,10,85,199,199
233,117000,16,10,52,0,13,10,53,1.9098,383,0.0,0,0,0,0,0,0,0,0,-202652702,-402626037,120,383,10,85,197,194
234,117500,16,10,53,0,13,10,53,51.7654,366,0.0,0,0,0,0,0,0,0,0,-202652702,-402625923,120,366,10,85,197,9
235,118000,16,10,53,0,13,10,54,3.0353,366,0.0,0,0,0,0,0,0,0,0,-202652702,-402625923,118,366,10,102,202,15
236,118500,16,10,54,0,13,10,54,52.977,385,0.0,0,0,0,0,0,0,0,0,-202652683,-402625808,118,385,10,102,201,179
237,119000,16,10,54,0,13,10,55,2.3554,385,0.0,0,0,0,0,0,0,0,0,-202652683,-402625808,120,385,9,123,200,192
238,119500,16,10,55,0,13,10,55,53.302,350,0.0,0,0,0,0,0,0,0,0,-202652664,-402625732,120,350,9,123,196,211
239,120000,16,10,55,0,13,10,56,1.8784,350,0.0,0,0,0,0,0,0,0,0,-202652664,-402625732,120,350,10,92,205,172
240,120500,16,10,56,0,13,10,56,52.1095,362,0.0,0,0,0,0,0,0,0,0,-202652664,-402625617,120,362,10,92,203,47
241,121000,16,10,56,0,13,10,57,2.2965,362,0.0,0,0,0,0,0,0,0,0,-202652664,-402625617,121,362,9,106,190,52
242,121500,16,10,57,0,13,10,57,52.7452,401,0.0,0,0,0,0,0,0,0,0,-202652664,-402625541,121,401,9,106,195,198
243,122000,16,10,57,0,13,10,58,2.3827,401,0.0,0,0,0,0,0,0,0,0,-202652664,-402625541,121,401,10,92,199,176
244,122500,16,10,58,0,13,10,58,53.2568,418,0.0,0,0,0,0,0,0,0,0,-202652645,-402625427,121,418,10,92,201,80
245,123000,16,10,58,0,13,10,59,2.6041,418,0.0,0,0,0,0,0,0,0,0,-202652645,-402625427,123,418,10,92,199,73
246,123500,16,10,59,0,13,10,59,52.1884,340,0.0,0,0,0,0,0,0,0,0,-202652626,-402625312,123,340,10,92,198,43
247,124000,16,10,59,0,13,11,0,1.817,340,0.0,0,0,0,0,0,0,0,0,-202652626,-402625312,125,340,10,106,186,50
248,124500,16,11,0,0,13,11,0,53.0165,412,0.0,0,0,0,0,0,0,0,0,-202652626,-402625236,125,412,10,106,186,204
249,125000,16,11,0,0,13,11,1,2.9445,412,0.0,0,0,0,0,0,0,0,0,-202652626,-402625236,125,412,10,85,196,174
250,125500,16,11,1,0,13,11,1,52.9517,442,0.0,0,0,0,0,0,0,0,0,-202652626,-402625122,125,442,10,85,192,84
251,126000,16,11,1,0,13,11,2,2.4264,442,0.0,0,0,0,0,0,0,0,0,-202652626,-402625122,126,442,10,85,188,76
252,126500,16,11,2,0,13,11,2,52.8631,374,0.0,0,0,0,0,0,0,0,0,-202652606,-402625007,126,374,10,85,186,68
253,127000,16,11,2,0,13,11,3,2.0405,374,0.0,0,0,0,0,0,0,0,0,-202652606,-402625007,126,374,10,85,185,59
254,127500,16,11,3,0,13,11,3,53.3351,364,0.0,0,0,0,0,0,0,0,0,-202652587,-402624931,126,364,10,85,193,126
255,128000,16,11,3,0,13,11,4,3.3722,364,0.0,0,0,0,0,0,0,0,0,-202652587,-402624931,130,364,10,85,187,121
256,128500,16,11,4,0,13,11,4,51.9659,322,0.0,0,0,0,0,0,0,0,0,-202652587,-402624855,130,322,10,85,191,105
257,129000,16,11,4,0,13,11,5,1.9627,322,0.0,0,0,0,0,0,0,0,0,-202652587,-402624855,131,322,10,85,195,97
258,129500,16,11,5,0,13,11,5,53.1871,342,0.0,0,0,0,0,0,0,0,0,-202652549,-402624778,131,342,10,85,194,244
259,130000,16,11,5,0,13,11,6,1.8435,342,0.0,0,0,0,0,0,0,0,0,-202652549,-402624778,133,342,9,106,194,1
260,130500,16,11,6,0,13,11,6,52.0757,377,0.0,0,0,0,0,0,0,0,0,-202652530,-402624664,133,377,9,106,193,197
261,131000,16,11,6,0,13,11,7,2.0138,377,0.0,0,0,0,0,0,0,0,0,-202652530,-402624664,135,377,10,92,199,177
262,131500,16,11,7,0,13,11,7,53.1233,401,0.0,0,0,0,0,0,0,0,0,-202652530,-402624588,135,401,10,92,194,38
263,132000,16,11,7,0,13,11,8,3.3697,401,0.0,0,0,0,0,0,0,0,0,-202652530,-402624588,136,401,10,92,199,30
264,132500,16,11,8,0,13,11,8,52.484,405,0.0,0,0,0,0,0,0,0,0,-202652549,-402624511,136,405,10,92,202,89
265,133000,16,11,8,0,13,11,9,3.1931,405,0.0,0,0,0,0,0,0,0,0,-202652549,-402624511,138,405,10,85,189,75
266,133500,16,11,9,0,13,11,9,52.5878,407,0.0,0,0,0,0,0,0,0,0,-202652587,-402624397,138,407,10,85,194,147
267,134000,16,11,9,0,13,11,10,2.1872,407,0.0,0,0,0,0,0,0,0,0,-202652587,-402624397,138,407,10,85,198,138
268,134500,16,11,10,0,13,11,10,53.2534,385,0.0,0,0,0,0,0,0,0,0,-202652664,-402624359,138,385,10,85,201,47
269,135000,16,11,10,0,13,11,11,2.9682,385,0.0,0,0,0,0,0,0,0,0,-202652664,-402624359,140,385,10,85,200,40
270,135500,16,11,11,0,13,11,11,52.3876,412,0.0,0,0,0,0,0,0,0,0,-202652759,-402624359,140,412,10,85,204,246
271,136000,16,11,11,0,13,11,12,2.0103,412,0.0,0,0,0,0,0,0,0,0,-202652759,-402624359,141,412,9,107,201,3
272,136500,16,11,12,0,13,11,12,53.1072,425,0.0,0,0,0,0,0,0,0,0,-202652854,-402624359,141,425,9,107,204,182
273,137000,16,11,12,0,13,11,13,2.0135,425,0.0,0,0,0,0,0,0,0,0,-202652854,-402624359,143,425,9,94,193,162
274,137500,16,11,13,0,13,11,13,52.0605,516,0.0,0,0,0,0,0,0,0,0,-202652950,-402624397,143,516,9,94,195,203
275,138000,16,11,13,0,13,11,14,3.3592,516,0.0,0,0,0,0,0,0,0,0,-202652950,-402624397,143,516,10,85,196,186
276,138500,16,11,14,0,13,11,14,52.8125,351,0.0,0,0,0,0,0,0,0,0,-202653026,-402624473,143,351,10,85,201,206
277,139000,16,11,14,0,13,11,15,3.1383,351,0.0,0,0,0,0,0,0,0,0,-202653026,-402624473,150,351,10,85,192,203
278,139500,16,11,15,0,13,11,15,52.1802,270,0.0,0,0,0,0,0,0,0,0,-202653083,-402624511,150,270,10,85,199,194
279,140000,16,11,15,0,13,11,16,2.1767,270,0.0,0,0,0,0,0,0,0,0,-202653083,-402624511,151,270,9,92,195,192
280,140500,16,11,16,0,13,11,16,51.911,316,0.0,0,0,0,0,0,0,0,0,-202653102,-402624626,151,316,9,92,200,141
281,141000,16,11,16,0,13,11,17,3.1262,316,0.0,0,0,0,0,0,0,0,0,-202653102,-402624626,145,316,9,92,198,126
282,141500,16,11,17,0,13,11,17,52.179,364,0.0,0,0,0,0,0,0,0,0,-202653141,-402624702,145,364,9,92,204,99
283,142000,16,11,17,0,13,11,18,2.0104,364,0.0,0,0,0,0,0,0,0,0,-202653141,-402624702,143,364,8,107,204,102
284,142500,16,11,18,0,13,11,18,53.2849,461,0.0,0,0,0,0,0,0,0,0,-202653179,-402624816,143,461,8,107,204,135
285,143000,16,11,18,0,13,11,19,2.8246,461,0.0,0,0,0,0,0,0,0,0,-202653179,-402624816,141,461,8,124,199,141
286,143500,16,11,19,0,13,11,19,52.1687,487,0.0,0,0,0,0,0,0,0,0,-202653217,-402624931,141,487,8,124,204,31
287,144000,16,11,19,0,13,11,20,2.1109,487,0.0,0,0,0,0,0,0,0,0,-202653217,-402624931,138,487,9,124,199,20
288,144500,16,11,20,0,13,11,20,53.0689,461,0.0,0,0,0,0,0,0,0,0,-202653255,-402625045,138,461,9,124,202,63
289,145000,16,11,20,0,13,11,21,2.8427,461,0.0,0,0,0,0,0,0,0,0,-202653255,-402625045,138,461,9,107,202,37
290,145500,16,11,21,0,13,11,21,52.1795,451,0.0,0,0,0,0,0,0,0,0,-202653312,-402625160,138,451,9,107,199,93
291,146000,16,11,21,0,13,11,22,2.0395,451,0.0,0,0,0,0,0,0,0,0,-202653312,-402625160,135,451,9,107,192,81
292,146500,16,11,22,0,13,11,22,52.7555,481,0.0,0,0,0,0,0,0,0,0,-202653331,-402625274,135,481,9,107,201,0
293,147000,16,11,22,0,13,11,23,2.3944,481,0.0,0,0,0,0,0,0,0,0,-202653331,-402625274,131,481,7,124,200,2
294,147500,16,11,23,0,13,11,23,53.3113,433,0.0,0,0,0,0,0,0,0,0,-202653369,-402625389,131,433,7,124,206,0
295,148000,16,11,23,0,13,11,24,2.2664,433,0.0,0,0,0,0,0,0,0,0,-202653369,-402625389,131,433,8,124,208,248
296,148500,16,11,24,0,13,11,24,53.2609,459,0.0,0,0,0,0,0,0,0,0,-202653388,-402625503,131,459,8,124,206,159
297,149000,16,11,24,0,13,11,25,3.3156,459,0.0,0,0,0,0,0,0,0,0,-202653388,-402625503,126,459,7,124,199,144
298,149500,16,11,25,0,13,11,25,52.6423,468,0.0,0,0,0,0,0,0,0,0,-202653427,-402625656,126,468,7,124,208,216
299,150000,16,11,25,0,13,11,26,2.3165,468,0.0,0,0,0,0,0,0,0,0,-202653427,-402625656,125,468,9,92,202,176
300,150500,16,11,26,0,13,11,26,52.9589,466,0.0,0,0,0,0,0,0,0,0,-202653446,-402625770,125,466,9,92,192,30
301,151000,16,11,26,0,13,11,27,2.1873,466,0.0,0,0,0,0,0,0,0,0,-202653446,-402625770,121,466,9,92,205,17
302,151500,16,11,27,0,13,11,27,51.8338,459,0.0,0,0,0,0,0,0,0,0,-202653484,-402625885,121,459,9,92,203,97
303,152000,16,11,27,0,13,11,28,3.2506,459,0.0,0,0,0,0,0,0,0,0,-202653484,-402625885,120,459,9,92,203,87
304,152500,16,11,28,0,13,11,28,52.9037,474,0.0,0,0,0,0,0,0,0,0,-202653522,-402625999,120,474,9,92,209,213
305,153000,16,11,28,0,13,11,29,2.6036,474,0.0,0,0,0,0,0,0,0,0,-202653522,-402625999,118,474,10,92,210,203
306,153500,16,11,29,0,13,11,29,52.0963,500,0.0,0,0,0,0,0,0,0,0,-202653579,-402626113,118,500,10,92,199,75
307,154000,16,11,29,0,13,11,30,2.0319,500,0.0,0,0,0,0,0,0,0,0,-202653579,-402626113,118,500,9,92,204,65
308,154500,16,11,30,0,13,11,30,52.5467,538,0.0,0,0,0,0,0,0,0,0,-202653617,-402626228,118,538,9,92,196,238
309,155000,16,11,30,0,13,11,31,3.2227,538,0.0,0,0,0,0,0,0,0,0,-202653617,-402626228,116,538,10,92,210,228
310,155500,16,11,31,0,13,11,31,52.1105,527,0.0,0,0,0,0,0,0,0,0,-202653675,-402626380,116,527,10,92,200,243
311,156000,16,11,31,0,13,11,32,3.0729,527,0.0,0,0,0,0,0,0,0,0,-202653675,-402626380,116,527,10,92,195,234
312,156500,16,11,32,0,13,11,32,52.5541,537,0.0,0,0,0,0,0,0,0,0,-202653713,-402626495,116,537,10,92,202,92
313,157000,16,11,32,0,13,11,33,2.1885,537,0.0,0,0,0,0,0,0,0,0,-202653713,-402626495,116,537,10,85,206,76
314,157500,16,11,33,0,13,11,33,53.4928,498,0.0,0,0,0,0,0,0,0,0,-202653770,-402626647,116,498,10,85,209,34
315,158000,16,11,33,0,13,11,34,3.3142,498,0.0,0,0,0,0,0,0,0,0,-202653770,-402626647,116,498,10,85,208,25
316,158500,16,11,34,0,13,11,34,52.1815,368,0.0,0,0,0,0,0,0,0,0,-202653789,-402626762,116,368,10,85,212,135
317,159000,16,11,34,0,13,11,35,3.0729,368,0.0,0,0,0,0,0,0,0,0,-202653789,-402626762,116,368,10,85,206,126
318,159500,16,11,35,0,13,11,35,53.0711,433,0.0,0,0,0,0,0,0,0,0,-202653789,-402626876,116,433,10,85,209,133
319,160000,16,11,35,0,13,11,36,3.1828,433,0.0,0,0,0,0,0,0,0,0,-202653789,-402626876,118,433,10,85,207,126
320,160500,16,11,36,0,13,11,36,52.253,492,0.0,0,0,0,0,0,0,0,0,-202653808,-402626991,118,492,10,85,200,101
321,161000,16,11,36,0,13,11,37,3.0777,492,0.0,0,0,0,0,0,0,0,0,-202653808,-402626991,118,492,10,94,200,101
322,161500,16,11,37,0,13,11,37,52.6214,411,0.0,0,0,0,0,0,0,0,0,-202653808,-402627105,118,411,10,94,202,72
323,162000,16,11,37,0,13,11,38,2.2034,411,0.0,0,0,0,0,0,0,0,0,-202653808,-402627105,123,411,10,85,203,59
324,162500,16,11,38,0,13,11,38,53.2174,400,0.0,0,0,0,0,0,0,0,0,-202653846,-402627220,123,400,10,85,206,132
325,163000,16,11,38,0,13,11,39,3.1523,400,0.0,0,0,0,0,0,0,0,0,-202653846,-402627220,126,400,10,85,202,126
326,163500,16,11,39,0,13,11,39,52.5917,429,0.0,0,0,0,0,0,0,0,0,-202653865,-402627334,126,429,10,85,201,42
327,164000,16,11,39,0,13,11,40,2.2065,429,0.0,0,0,0,0,0,0,0,0,-202653865,-402627334,126,429,10,85,202,33
328,164500,16,11,40,0,13,11,40,52.282,427,0.0,0,0,0,0,0,0,0,0,-202653884,-402627449,126,427,10,85,200,143
329,165000,16,11,40,0,13,11,41,3.0073,427,0.0,0,0,0,0,0,0,0,0,-202653884,-402627449,126,427,10,85,198,134
330,165500,16,11,41,0,13,11,41,52.4058,416,0.0,0,0,0,0,0,0,0,0,-202653903,-402627563,126,416,10,85,199,227
331,166000,16,11,41,0,13,11,42,3.0144,416,0.0,0,0,0,0,0,0,0,0,-202653903,-402627563,123,416,10,85,193,215
332,166500,16,11,42,0,13,11,42,52.7417,403,0.0,0,0,0,0,0,0,0,0,-202653942,-402627639,123,403,10,85,194,65
333,167000,16,11,42,0,13,11,43,3.3951,403,0.0,0,0,0,0,0,0,0,0,-202653942,-402627639,121,403,10,91,191,60
334,167500,16,11,43,0,13,11,43,53.2814,475,0.0,0,0,0,0,0,0,0,0,-202653980,-402627754,121,475,10,91,190,42
335,168000,16,11,43,0,13,11,44,2.7767,475,0.0,0,0,0,0,0,0,0,0,-202653980,-402627754,118,475,10,91,195,30
336,168500,16,11,44,0,13,11,44,52.7182,544,0.0,0,0,0,0,0,0,0,0,-202654018,-402627906,118,544,10,91,195,227
337,169000,16,11,44,0,13,11,45,2.366,544,0.0,0,0,0,0,0,0,0,0,-202654018,-402627906,116,544,10,85,196,210
338,169500,16,11,45,0,13,11,45,53.5036,559,0.0,0,0,0,0,0,0,0,0,-202654056,-402628059,116,559,10,85,197,41
339,170000,16,11,45,0,13,11,46,3.4111,559,0.0,0,0,0,0,0,0,0,0,-202654056,-402628059,116,559,10,92,195,39
340,170500,16,11,46,0,13,11,46,53.2744,537,0.0,0,0,0,0,0,0,0,0,-202654094,-402628211,116,537,10,92,192,52
341,171000,16,11,46,0,13,11,47,2.7984,537,0.0,0,0,0,0,0,0,0,0,-202654094,-402628211,113,537,10,85,184,32
342,171500,16,11,47,0,13,11,47,52.192,488,0.0,0,0,0,0,0,0,0,0,-202654113,-402628326,113,488,10,85,191,46
343,172000,16,11,47,0,13,11,48,3.3511,488,0.0,0,0,0,0,0,0,0,0,-202654113,-402628326,111,488,10,85,174,35
344,172500,16,11,48,0,13,11,48,53.4094,511,0.0,0,0,0,0,0,0,0,0,-202654151,-402628440,111,511,10,85,188,176
345,173000,16,11,48,0,13,11,49,3.387,511,0.0,0,0,0,0,0,0,0,0,-202654151,-402628440,108,511,10,85,188,164
346,173500,16,11,49,0,13,11,49,52.7483,479,0.0,0,0,0,0,0,0,0,0,-202654151,-402628593,108,479,10,85,191,195
347,174000,16,11,49,0,13,11,50,3.3735,479,0.0,0,0,0,0,0,0,0,0,-202654151,-402628593,105,479,10,85,194,183
348,174500,16,11,50,0,13,11,50,52.2599,488,0.0,0,0,0,0,0,0,0,0,-202654151,-402628707,105,488,10,85,194,78
349,175000,16,11,50,0,13,11,51,3.1509,488,0.0,0,0,0,0,0,0,0,0,-202654151,-402628707,101,488,9,90,197,69
350,175500,16,11,51,0,13,11,51,52.6737,555,0.0,0,0,0,0,0,0,0,0,-202654170,-402628860,101,555,9,90,197,25
351,176000,16,11,51,0,13,11,52,2.0754,555,0.0,0,0,0,0,0,0,0,0,-202654170,-402628860,100,555,10,90,197,16
352,176500,16,11,52,0,13,11,52,52.203,520,0.0,0,0,0,0,0,0,0,0,-202654170,-402629013,100,520,10,90,195,40
353,177000,16,11,52,0,13,11,53,2.5973,520,0.0,0,0,0,0,0,0,0,0,-202654170,-402629013,98,520,10,85,195,24
354,177500,16,11,53,0,13,11,53,52.1229,513,0.0,0,0,0,0,0,0,0,0,-202654190,-402629127,98,513,10,85,192,123
355,178000,16,11,53,0,13,11,54,2.1227,513,0.0,0,0,0,0,0,0,0,0,-202654190,-402629127,96,513,10,85,194,112
356,178500,16,11,54,0,13,11,54,52.1344,511,0.0,0,0,0,0,0,0,0,0,-202654209,-402629280,96,511,10,85,187,181
357,179000,16,11,54,0,13,11,55,2.8547,511,0.0,0,0,0,0,0,0,0,0,-202654209,-402629280,98,511,10,85,192,174
358,179500,16,11,55,0,13,11,55,52.3613,459,0.0,0,0,0,0,0,0,0,0,-202654247,-402629394,98,459,10,85,191,165
359,180000,16,11,55,0,13,11,56,2.1252,459,0.0,0,0,0,0,0,0,0,0,-202654247,-402629394,106,459,10,85,189,164
360,180500,16,11,56,0,13,11,56,52.8199,342,0.0,0,0,0,0,0,0,0,0,-202654266,-402629508,106,342,10,85,191,45
361,181000,16,11,56,0,13,11,57,2.5423,342,0.0,0,0,0,0,0,0,0,0,-202654266,-402629508,106,342,9,90,189,40
362,181500,16,11,57,0,13,11,57,52.3523,353,0.0,0,0,0,0,0,0,0,0,-202654285,-402629585,106,353,9,90,177,213
363,182000,16,11,57,0,13,11,58,3.5141,353,0.0,0,0,0,0,0,0,0,0,-202654285,-402629585,110,353,9,90,192,208
364,182500,16,11,58,0,13,11,58,53.0683,379,0.0,0,0,0,0,0,0,0,0,-202654304,-402629699,110,379,9,90,186,118
365,183000,16,11,58,0,13,11,59,3.601,379,0.0,0,0,0,0,0,0,0,0,-202654304,-402629699,110,379,10,85,186,105
366,183500,16,11,59,0,13,11,59,53.1705,487,0.0,0,0,0,0,0,0,0,0,-202654304,-402629814,110,487,10,85,189,198
367,184000,16,11,59,0,13,12,0,2.0354,487,0.0,0,0,0,0,0,0,0,0,-202654304,-402629814,108,487,9,90,185,191
368,184500,16,12,0,0,13,12,0,53.2697,450,0.0,0,0,0,0,0,0,0,0,-202654323,-402629928,108,450,9,90,167,172
369,185000,16,12,0,0,13,12,1,2.7984,450,0.0,0,0,0,0,0,0,0,0,-202654323,-402629928,110,450,10,90,185,166
370,185500,16,12,1,0,13,12,1,52.1486,350,0.0,0,0,0,0,0,0,0,0,-202654342,-402630043,110,350,10,90,189,80
371,186000,16,12,1,0,13,12,2,3.4886,350,0.0,0,0,0,0,0,0,0,0,-202654342,-402630043,116,350,10,85,189,72
372,186500,16,12,2,0,13,12,2,52.9945,379,0.0,0,0,0,0,0,0,0,0,-202654361,-402630119,116,379,10,85,190,27
373,187000,16,12,2,0,13,12,3,2.3623,379,0.0,0,0,0,0,0,0,0,0,-202654361,-402630119,113,379,10,92,189,22
374,187500,16,12,3,0,13,12,3,52.1822,350,0.0,0,0,0,0,0,0,0,0,-202654380,-402630233,113,350,10,92,196,78
375,188000,16,12,3,0,13,12,4,3.0656,350,0.0,0,0,0,0,0,0,0,0,-202654380,-402630233,111,350,10,85,193,60
376,188500,16,12,4,0,13,12,4,53.137,387,0.0,0,0,0,0,0,0,0,0,-202654399,-402630310,111,387,10,85,192,30
377,189000,16,12,4,0,13,12,5,2.479,387,0.0,0,0,0,0,0,0,0,0,-202654399,-402630310,108,387,10,92,190,25
378,189500,16,12,5,0,13,12,5,52.0866,425,0.0,0,0,0,0,0,0,0,0,-202654399,-402630424,108,425,10,92,179,234
379,190000,16,12,5,0,13,12,6,2.9906,425,0.0,0,0,0,0,0,0,0,0,-202654399,-402630424,106,425,10,85,183,216
380,190500,16,12,6,0,13,12,6,52.7416,450,0.0,0,0,0,0,0,0,0,0,-202654438,-402630538,106,450,10,85,184,105
381,191000,16,12,6,0,13,12,7,2.1709,450,0.0,0,0,0,0,0,0,0,0,-202654438,-402630538,105,450,10,85,183,95
382,191500,16,12,7,0,13,12,7,53.45,501,0.0,0,0,0,0,0,0,0,0,-202654457,-402630653,105,501,10,85,180,55
383,192000,16,12,7,0,13,12,8,2.9807,501,0.0,0,0,0,0,0,0,0,0,-202654457,-402630653,105,501,10,85,179,46
384,192500,16,12,8,0,13,12,8,52.6447,525,0.0,0,0,0,0,0,0,0,0,-202654495,-402630805,105,525,10,85,182,151
385,193000,16,12,8,0,13,12,9,2.2704,525,0.0,0,0,0,0,0,0,0,0,-202654495,-402630805,105,525,10,85,182,142
386,193500,16,12,9,0,13,12,9,53.4234,477,0.0,0,0,0,0,0,0,0,0,-202654514,-402630920,105,477,10,85,179,157
387,194000,16,12,9,0,13,12,10,3.427,477,0.0,0,0,0,0,0,0,0,0,-202654514,-402630920,105,477,10,92,180,155
388,194500,16,12,10,0,13,12,10,53.1034,503,0.0,0,0,0,0,0,0,0,0,-202654552,-402631072,105,503,10,92,185,9
389,195000,16,12,10,0,13,12,11,2.4663,503,0.0,0,0,0,0,0,0,0,0,-202654552,-402631072,105,503,10,92,177,0
390,195500,16,12,11,0,13,12,11,53.6148,492,0.0,0,0,0,0,0,0,0,0,-202654609,-402631187,105,492,10,92,176,53
391,196000,16,12,11,0,13,12,12,2.3171,492,0.0,0,0,0,0,0,0,0,0,-202654609,-402631187,106,492,10,92,178,45
392,196500,16,12,12,0,13,12,12,51.9991,524,0.0,0,0,0,0,0,0,0,0,-202654647,-402631301,106,524,10,92,182,207
393,197000,16,12,12,0,13,12,13,2.9164,524,0.0,0,0,0,0,0,0,0,0,-202654647,-402631301,106,524,10,92,186,199
394,197500,16,12,13,0,13,12,13,52.932,490,0.0,0,0,0,0,0,0,0,0,-202654685,-402631454,106,490,10,92,186,185
395,198000,16,12,13,0,13,12,14,3.353,490,0.0,0,0,0,0,0,0,0,0,-202654685,-402631454,106,490,10,85,183,169
396,198500,16,12,14,0,13,12,14,52.05,544,0.0,0,0,0,0,0,0,0,0,-202654705,-402631568,106,544,10,85,178,137
397,199000,16,12,14,0,13,12,15,2.7948,544,0.0,0,0,0,0,0,0,0,0,-202654705,-402631568,105,544,10,85,181,127
398,199500,16,12,15,0,13,12,15,52.1778,433,0.0,0,0,0,0,0,0,0,0,-202654724,-402631683,105,433,10,85,186,15
399,200000,16,12,15,0,13,12,16,2.6541,433,0.0,0,0,0,0,0,0,0,0,-202654724,-402631683,106,433,10,85,179,7
400,200500,16,12,16,0,13,12,16,52.6596,392,0.0,0,0,0,0,0,0,0,0,-202654724,-402631797,106,392,10,85,185,59
401,201000,16,12,16,0,13,12,17,2.1928,392,0.0,0,0,0,0,0,0,0,0,-202654724,-402631797,111,392,10,85,183,55
402,201500,16,12,17,0,13,12,17,53.2005,337,0.0,0,0,0,0,0,0,0,0,-202654724,-402631912,111,337,10,85,185,78
403,202000,16,12,17,0,13,12,18,2.2896,337,0.0,0,0,0,0,0,0,0,0,-202654724,-402631912,111,337,10,90,180,74
404,202500,16,12,18,0,13,12,18,52.2496,474,0.0,0,0,0,0,0,0,0,0,-202654762,-402632026,111,474,10,90,177,187
405,203000,16,12,18,0,13,12,19,2.7829,474,0.0,0,0,0,0,0,0,0,0,-202654762,-402632026,110,474,10,85,180,171
406,203500,16,12,19,0,13,12,19,52.781,487,0.0,0,0,0,0,0,0,0,0,-202654800,-402632141,110,487,10,85,182,36
407,204000,16,12,19,0,13,12,20,2.8027,487,0.0,0,0,0,0,0,0,0,0,-202654800,-402632141,111,487,10,85,175,28
408,204500,16,12,20,0,13,12,20,52.4389,351,0.0,0,0,0,0,0,0,0,0,-202654819,-402632217,111,351,10,85,177,164
409,205000,16,12,20,0,13,12,21,3.3911,351,0.0,0,0,0,0,0,0,0,0,-202654819,-402632217,113,351,10,85,184,157
410,205500,16,12,21,0,13,12,21,52.9737,359,0.0,0,0,0,0,0,0,0,0,-202654838,-402632331,113,359,10,85,187,32
411,206000,16,12,21,0,13,12,22,2.54,359,0.0,0,0,0,0,0,0,0,0,-202654838,-402632331,111,359,10,85,186,21
412,206500,16,12,22,0,13,12,22,53.2603,531,0.0,0,0,0,0,0,0,0,0,-202654876,-402632446,111,531,10,85,188,206
413,207000,16,12,22,0,13,12,23,3.6103,531,0.0,0,0,0,0,0,0,0,0,-202654876,-402632446,113,531,10,85,190,199
414,207500,16,12,23,0,13,12,23,53.2867,450,0.0,0,0,0,0,0,0,0,0,-202654914,-402632560,113,450,10,85,190,130
415,208000,16,12,23,0,13,12,24,3.2336,450,0.0,0,0,0,0,0,0,0,0,-202654914,-402632560,113,450,10,85,192,121
416,208500,16,12,24,0,13,12,24,53.6804,427,0.0,0,0,0,0,0,0,0,0,-202654991,-402632675,113,427,10,85,191,130
417,209000,16,12,24,0,13,12,25,2.3129,427,0.0,0,0,0,0,0,0,0,0,-202654991,-402632675,111,427,10,85,193,119
418,209500,16,12,25,0,13,12,25,52.161,420,0.0,0,0,0,0,0,0,0,0,-202655048,-402632789,111,420,10,85,194,181
419,210000,16,12,25,0,13,12,26,3.4554,420,0.0,0,0,0,0,0,0,0,0,-202655048,-402632789,111,420,10,85,190,172
420,210500,16,12,26,0,13,12,26,53.1052,520,0.0,0,0,0,0,0,0,0,0,-202655105,-402632904,111,520,10,85,190,194
421,211000,16,12,26,0,13,12,27,3.1325,520,0.0,0,0,0,0,0,0,0,0,-202655105,-402632904,108,520,10,85,188,182
422,211500,16,12,27,0,13,12,27,52.5012,524,0.0,0,0,0,0,0,0,0,0,-202655124,-402633018,108,524,10,85,185,48
423,212000,16,12,27,0,13,12,28,2.2862,524,0.0,0,0,0,0,0,0,0,0,-202655124,-402633018,106,524,10,85,178,37
424,212500,16,12,28,0,13,12,28,52.2306,516,0.0,0,0,0,0,0,0,0,0,-202655124,-402633171,106,516,10,85,182,116
425,213000,16,12,28,0,13,12,29,2.8114,516,0.0,0,0,0,0,0,0,0,0,-202655124,-402633171,106,516,10,85,174,107
426,213500,16,12,29,0,13,12,29,52.1616,509,0.0,0,0,0,0,0,0,0,0,-202655067,-402633285,106,509,10,85,175,24
427,214000,16,12,29,0,13,12,30,3.4861,509,0.0,0,0,0,0,0,0,0,0,-202655067,-402633285,103,509,10,85,183,12
428,214500,16,12,30,0,13,12,30,52.9519,518,0.0,0,0,0,0,0,0,0,0,-202654991,-402633399,103,518,10,85,183,242
429,215000,16,12,30,0,13,12,31,2.3874,518,0.0,0,0,0,0,0,0,0,0,-202654991,-402633399,101,518,10,85,179,231
430,215500,16,12,31,0,13,12,31,53.6435,563,0.0,0,0,0,0,0,0,0,0,-202654933,-402633514,101,563,10,85,178,0
431,216000,16,12,31,0,13,12,32,3.155,563,0.0,0,0,0,0,0,0,0,0,-202654933,-402633514,101,563,9,91,180,252
432,216500,16,12,32,0,13,12,32,52.8623,598,0.0,0,0,0,0,0,0,0,0,-202654876,-402633666,101,598,9,91,183,219
433,217000,16,12,32,0,13,12,33,2.2646,598,0.0,0,0,0,0,0,0,0,0,-202654876,-402633666,101,598,9,91,181,210
434,217500,16,12,33,0,13,12,33,53.3949,696,0.0,0,0,0,0,0,0,0,0,-202654781,-402633819,101,696,9,91,185,83
435,218000,16,12,33,0,13,12,34,3.4665,696,0.0,0,0,0,0,0,0,0,0,-202654781,-402633819,103,696,9,91,187,76
436,218500,16,12,34,0,13,12,34,53.0064,564,0.0,0,0,0,0,0,0,0,0,-202654666,-402633895,103,564,9,91,187,100
437,219000,16,12,34,0,13,12,35,2.4104,564,0.0,0,0,0,0,0,0,0,0,-202654666,-402633895,106,564,9,91,192,94
438,219500,16,12,35,0,13,12,35,52.1492,435,0.0,0,0,0,0,0,0,0,0,-202654552,-402633972,106,435,9,91,194,119
439,220000,16,12,35,0,13,12,36,3.5268,435,0.0,0,0,0,0,0,0,0,0,-202654552,-402633972,106,435,9,105,190,124
440,220500,16,12,36,0,13,12,36,52.9053,368,0.0,0,0,0,0,0,0,0,0,-202654476,-402633934,106,368,9,105,187,96
441,221000,16,12,36,0,13,12,37,2.4522,368,0.0,0,0,0,0,0,0,0,0,-202654476,-402633934,103,368,9,91,183,70
442,221500,16,12,37,0,13,12,37,52.4403,440,0.0,0,0,0,0,0,0,0,0,-202654438,-402633819,103,440,9,91,184,104
443,222000,16,12,37,0,13,12,38,2.9732,440,0.0,0,0,0,0,0,0,0,0,-202654438,-402633819,98,440,9,91,182,90
444,222500,16,12,38,0,13,12,38,53.0121,494,0.0,0,0,0,0,0,0,0,0,-202654361,-402633705,98,494,9,91,184,126
445,223000,16,12,38,0,13,12,39,3.4172,494,0.0,0,0,0,0,0,0,0,0,-202654361,-402633705,98,494,9,91,184,117
446,223500,16,12,39,0,13,12,39,52.7767,503,0.0,0,0,0,0,0,0,0,0,-202654285,-402633628,98,503,9,91,184,24
447,224000,16,12,39,0,13,12,40,2.2372,503,0.0,0,0,0,0,0,0,0,0,-202654285,-402633628,96,503,10,91,184,14
448,224500,16,12,40,0,13,12,40,53.4679,490,0.0,0,0,0,0,0,0,0,0,-202654190,-402633552,96,490,10,91,182,151
449,225000,16,12,40,0,13,12,41,2.8792,490,0.0,0,0,0,0,0,0,0,0,-202654190,-402633552,95,490,10,91,173,141
450,225500,16,12,41,0,13,12,41,52.9658,492,0.0,0,0,0,0,0,0,0,0,-202654094,-402633476,95,492,10,91,173,53
451,226000,16,12,41,0,13,12,42,2.3082,492,0.0,0,0,0,0,0,0,0,0,-202654094,-402633476,96,492,9,91,183,44
452,226500,16,12,42,0,13,12,42,53.4853,529,0.0,0,0,0,0,0,0,0,0,-202654018,-402633361,96,529,9,91,179,48
453,227000,16,12,42,0,13,12,43,3.5895,529,0.0,0,0,0,0,0,0,0,0,-202654018,-402633361,96,529,10,91,181,40
454,227500,16,12,43,0,13,12,43,53.2929,513,0.0,0,0,0,0,0,0,0,0,-202653923,-402633285,96,513,10,91,183,172
455,228000,16,12,43,0,13,12,44,2.7389,513,0.0,0,0,0,0,0,0,0,0,-202653923,-402633285,96,513,10,91,179,163
456,228500,16,12,44,0,13,12,44,52.4454,513,0.0,0,0,0,0,0,0,0,0,-202653827,-402633171,96,513,10,91,187,110
457,229000,16,12,44,0,13,12,45,2.882,513,0.0,0,0,0,0,0,0,0,0,-202653827,-402633171,96,513,10,91,187,101
458,229500,16,12,45,0,13,12,45,52.4075,500,0.0,0,0,0,0,0,0,0,0,-202653751,-402633094,96,500,10,91,189,218
459,230000,16,12,45,0,13,12,46,2.686,500,0.0,0,0,0,0,0,0,0,0,-202653751,-402633094,98,500,10,91,188,211
460,230500,16,12,46,0,13,12,46,53.7454,503,0.0,0,0,0,0,0,0,0,0,-202653656,-402632980,98,503,10,91,190,163
461,231000,16,12,46,0,13,12,47,2.3171,503,0.0,0,0,0,0,0,0,0,0,-202653656,-402632980,98,503,10,91,188,154
462,231500,16,12,47,0,13,12,47,52.316,527,0.0,0,0,0,0,0,0,0,0,-202653560,-402632904,98,527,10,91,178,113
463,232000,16,12,47,0,13,12,48,3.6761,527,0.0,0,0,0,0,0,0,0,0,-202653560,-402632904,100,527,9,91,177,105
464,232500,16,12,48,0,13,12,48,52.8377,468,0.0,0,0,0,0,0,0,0,0,-202653484,-402632789,100,468,9,91,180,168
465,233000,16,12,48,0,13,12,49,2.4762,468,0.0,0,0,0,0,0,0,0,0,-202653484,-402632789,101,468,9,105,182,174
466,233500,16,12,49,0,13,12,49,53.6239,264,0.0,0,0,0,0,0,0,0,0,-202653446,-402632713,101,264,9,105,188,128
467,234000,16,12,49,0,13,12,50,3.4234,264,0.0,0,0,0,0,0,0,0,0,-202653446,-402632713,106,264,9,91,190,110
468,234500,16,12,50,0,13,12,50,52.6739,261,0.0,0,0,0,0,0,0,0,0,-202653408,-402632675,106,261,9,91,190,174
469,235000,16,12,50,0,13,12,51,2.6735,261,0.0,0,0,0,0,0,0,0,0,-202653408,-402632675,108,261,9,91,189,166
470,235500,16,12,51,0,13,12,51,52.9024,451,0.0,0,0,0,0,0,0,0,0,-202653369,-402632560,108,451,9,91,183,180
471,236000,16,12,51,0,13,12,52,2.5005,451,0.0,0,0,0,0,0,0,0,0,-202653369,-402632560,111,451,10,91,178,175
472,236500,16,12,52,0,13,12,52,53.3413,425,0.0,0,0,0,0,0,0,0,0,-202653312,-402632484,111,425,10,91,186,248
473,237000,16,12,52,0,13,12,53,3.0774,425,0.0,0,0,0,0,0,0,0,0,-202653312,-402632484,113,425,10,85,179,235
474,237500,16,12,53,0,13,12,53,52.4281,385,0.0,0,0,0,0,0,0,0,0,-202653274,-402632369,113,385,10,85,177,45
475,238000,16,12,53,0,13,12,54,3.3509,385,0.0,0,0,0,0,0,0,0,0,-202653274,-402632369,113,385,10,85,183,36
476,238500,16,12,54,0,13,12,54,53.0159,427,0.0,0,0,0,0,0,0,0,0,-202653217,-402632293,113,427,10,85,184,245
477,239000,16,12,54,0,13,12,55,2.2962,427,0.0,0,0,0,0,0,0,0,0,-202653217,-402632293,113,427,10,85,175,236
478,239500,16,12,55,0,13,12,55,53.8534,398,0.0,0,0,0,0,0,0,0,0,-202653160,-402632179,113,398,10,85,185,87
479,240000,16,12,55,0,13,12,56,2.9413,398,0.0,0,0,0,0,0,0,0,0,-202653160,-402632179,111,398,10,85,193,76
480,240500,16,12,56,0,13,12,56,53.4724,422,0.0,0,0,0,0,0,0,0,0,-202653102,-402632102,111,422,10,85,192,251
481,241000,16,12,56,0,13,12,57,2.3207,422,0.0,0,0,0,0,0,0,0,0,-202653102,-402632102,110,422,10,85,197,241
482,241500,16,12,57,0,13,12,57,52.4896,427,0.0,0,0,0,0,0,0,0,0,-202653045,-402631988,110,427,10,85,198,158
483,242000,16,12,57,0,13,12,58,3.5917,427,0.0,0,0,0,0,0,0,0,0,-202653045,-402631988,108,427,10,90,197,152
484,242500,16,12,58,0,13,12,58,52.9867,463,0.0,0,0,0,0,0,0,0,0,-202652988,-402631912,108,463,10,90,192,94
485,243000,16,12,58,0,13,12,59,2.443,463,0.0,0,0,0,0,0,0,0,0,-202652988,-402631912,108,463,10,85,193,80
486,243500,16,12,59,0,13,12,59,53.5451,518,0.0,0,0,0,0,0,0,0,0,-202652931,-402631797,108,518,10,85,189,100
487,244000,16,12,59,0,13,13,0,2.8897,518,0.0,0,0,0,0,0,0,0,0,-202652931,-402631797,106,518,10,85,186,89
488,244500,16,13,0,0,13,13,0,52.3264,542,0.0,0,0,0,0,0,0,0,0,-202652854,-402631645,106,542,10,85,187,45
489,245000,16,13,0,0,13,13,1,3.645,542,0.0,0,0,0,0,0,0,0,0,-202652854,-402631645,103,542,10,85,185,33
490,245500,16,13,1,0,13,13,1,53.0004,542,0.0,0,0,0,0,0,0,0,0,-202652797,-402631530,103,542,10,85,188,196
491,246000,16,13,1,0,13,13,2,2.7292,542,0.0,0,0,0,0,0,0,0,0,-202652797,-402631530,103,542,10,85,188,187
492,246500,16,13,2,0,13,13,2,52.4234,546,0.0,0,0,0,0,0,0,0,0,-202652759,-402631378,103,546,10,85,192,122
493,247000,16,13,2,0,13,13,3,3.428,546,0.0,0,0,0,0,0,0,0,0,-202652759,-402631378,103,546,10,85,192,113
494,247500,16,13,3,0,13,13,3,52.9129,546,0.0,0,0,0,0,0,0,0,0,-202652702,-402631263,103,546,10,85,190,21
495,248000,16,13,3,0,13,13,4,3.3428,546,0.0,0,0,0,0,0,0,0,0,-202652702,-402631263,101,546,10,85,189,10
496,248500,16,13,4,0,13,13,4,53.7576,566,0.0,0,0,0,0,0,0,0,0,-202652645,-402631111,101,566,10,85,188,253
497,249000,16,13,4,0,13,13,5,3.2975,566,0.0,0,0,0,0,0,0,0,0,-202652645,-402631111,101,566,10,85,188,244
498,249500,16,13,5,0,13,13,5,53.0053,496,0.0,0,0,0,0,0,0,0,0,-202652587,-402630996,101,496,10,85,180,11
499,250000,16,13,5,0,13,13,6,2.3551,496,0.0,0,0,0,0,0,0,0,0,-202652587,-402630996,101,496,10,85,189,2
500,250500,16,13,6,0,13,13,6,53.3342,342,0.0,0,0,0,0,0,0,0,0,-202652549,-402630882,101,342,10,85,194,95
501,251000,16,13,6,0,13,13,7,3.3813,342,0.0,0,0,0,0,0,0,0,0,-202652549,-402630882,106,342,10,91,197,97
502,251500,16,13,7,0,13,13,7,53.0811,479,0.0,0,0,0,0,0,0,0,0,-202652511,-402630767,106,479,10,91,194,4
503,252000,16,13,7,0,13,13,8,2.5683,479,0.0,0,0,0,0,0,0,0,0,-202652511,-402630767,110,479,10,91,194,255
504,252500,16,13,8,0,13,13,8,52.2058,400,0.0,0,0,0,0,0,0,0,0,-202652454,-402630691,110,400,10,91,193,222
505,253000,16,13,8,0,13,13,9,3.3253,400,0.0,0,0,0,0,0,0,0,0,-202652454,-402630691,108,400,10,85,197,205
506,253500,16,13,9,0,13,13,9,53.2395,340,0.0,0,0,0,0,0,0,0,0,-202652397,-402630615,108,340,10,85,196,212
507,254000,16,13,9,0,13,13,10,3.2463,340,0.0,0,0,0,0,0,0,0,0,-202652397,-402630615,108,340,10,85,193,203
508,254500,16,13,10,0,13,13,10,53.0247,374,0.0,0,0,0,0,0,0,0,0,-202652359,-402630500,108,374,10,85,193,160
509,255000,16,13,10,0,13,13,11,2.3591,374,0.0,0,0,0,0,0,0,0,0,-202652359,-402630500,105,374,10,85,192,148
510,255500,16,13,11,0,13,13,11,53.6599,466,0.0,0,0,0,0,0,0,0,0,-202652320,-402630386,105,466,10,85,193,222
511,256000,16,13,11,0,13,13,12,3.0975,466,0.0,0,0,0,0,0,0,0,0,-202652320,-402630386,101,466,10,84,192,208
512,256500,16,13,12,0,13,13,12,52.8484,503,0.0,0,0,0,0,0,0,0,0,-202652263,-402630271,101,503,10,84,194,190
513,257000,16,13,12,0,13,13,13,3.068,503,0.0,0,0,0,0,0,0,0,0,-202652263,-402630271,101,503,10,84,194,181
514,257500,16,13,13,0,13,13,13,52.4863,542,0.0,0,0,0,0,0,0,0,0,-202652206,-402630157,101,542,10,84,189,168
515,258000,16,13,13,0,13,13,14,3.5381,542,0.0,0,0,0,0,0,0,0,0,-202652206,-402630157,100,542,10,84,186,158
516,258500,16,13,14,0,13,13,14,52.9081,520,0.0,0,0,0,0,0,0,0,0,-202652149,-402630043,100,520,10,84,186,23
517,259000,16,13,14,0,13,13,15,3.0499,520,0.0,0,0,0,0,0,0,0,0,-202652149,-402630043,100,520,10,84,178,14
518,259500,16,13,15,0,13,13,15,53.8015,342,0.0,0,0,0,0,0,0,0,0,-202652130,-402629928,100,342,10,84,185,38
519,260000,16,13,15,0,13,13,16,3.7337,342,0.0,0,0,0,0,0,0,0,0,-202652130,-402629928,103,342,10,84,185,32
520,260500,16,13,16,0,13,13,16,53.7783,338,0.0,0,0,0,0,0,0,0,0,-202652111,-402629852,103,338,10,84,188,112
521,261000,16,13,16,0,13,13,17,3.7783,338,0.0,0,0,0,0,0,0,0,0,-202652111,-402629852,105,338,10,84,188,105
522,261500,16,13,17,0,13,13,17,53.1436,305,0.0,0,0,0,0,0,0,0,0,-202652091,-402629737,105,305,10,84,189,166
523,262000,16,13,17,0,13,13,18,2.5808,305,0.0,0,0,0,0,0,0,0,0,-202652091,-402629737,106,305,10,84,190,158
524,262500,16,13,18,0,13,13,18,53.4986,337,0.0,0,0,0,0,0,0,0,0,-202652034,-402629699,106,337,10,84,194,54
525,263000,16,13,18,0,13,13,19,3.5566,337,0.0,0,0,0,0,0,0,0,0,-202652034,-402629699,108,337,10,84,188,47
526,263500,16,13,19,0,13,13,19,53.0886,416,0.0,0,0,0,0,0,0,0,0,-202651977,-402629623,108,416,10,84,187,75
527,264000,16,13,19,0,13,13,20,2.8182,416,0.0,0,0,0,0,0,0,0,0,-202651977,-402629623,106,416,10,84,194,64
528,264500,16,13,20,0,13,13,20,53.6336,527,0.0,0,0,0,0,0,0,0,0,-202651920,-402629508,106,527,10,84,187,196
529,265000,16,13,20,0,13,13,21,2.6971,527,0.0,0,0,0,0,0,0,0,0,-202651920,-402629508,105,527,10,84,193,186
530,265500,16,13,21,0,13,13,21,53.8068,535,0.0,0,0,0,0,0,0,0,0,-202651844,-402629394,105,535,10,84,186,129
531,266000,16,13,21,0,13,13,22,3.3394,535,0.0,0,0,0,0,0,0,0,0,-202651844,-402629394,106,535,10,84,178,121
532,266500,16,13,22,0,13,13,22,52.6592,472,0.0,0,0,0,0,0,0,0,0,-202651786,-402629241,106,472,10,84,182,197
533,267000,16,13,22,0,13,13,23,2.4309,472,0.0,0,0,0,0,0,0,0,0,-202651786,-402629241,106,472,10,84,185,187
534,267500,16,13,23,0,13,13,23,52.5701,477,0.0,0,0,0,0,0,0,0,0,-202651748,-402629127,106,477,10,84,192,85
535,268000,16,13,23,0,13,13,24,2.8661,477,0.0,0,0,0,0,0,0,0,0,-202651748,-402629127,108,477,10,84,190,78
536,268500,16,13,24,0,13,13,24,52.665,475,0.0,0,0,0,0,0,0,0,0,-202651748,-402629013,108,475,10,84,185,181
537,269000,16,13,24,0,13,13,25,3.2755,475,0.0,0,0,0,0,0,0,0,0,-202651748,-402629013,108,475,10,84,180,172
538,269500,16,13,25,0,13,13,25,52.6317,520,0.0,0,0,0,0,0,0,0,0,-202651805,-402628898,108,520,10,84,174,58
539,270000,16,13,25,0,13,13,26,3.8685,520,0.0,0,0,0,0,0,0,0,0,-202651805,-402628898,108,520,10,84,184,49
540,270500,16,13,26,0,13,13,26,53.4254,538,0.0,0,0,0,0,0,0,0,0,-202651882,-402628784,108,538,10,84,185,115
541,271000,16,13,26,0,13,13,27,2.8064,538,0.0,0,0,0,0,0,0,0,0,-202651882,-402628784,106,538,10,84,183,104
542,271500,16,13,27,0,13,13,27,52.7957,563,0.0,0,0,0,0,0,0,0,0,-202651958,-402628669,106,563,10,84,178,184
543,272000,16,13,27,0,13,13,28,3.7756,563,0.0,0,0,0,0,0,0,0,0,-202651958,-402628669,106,563,10,84,175,175
544,272500,16,13,28,0,13,13,28,53.8397,579,0.0,0,0,0,0,0,0,0,0,-202652034,-402628517,106,579,10,84,184,20
545,273000,16,13,28,0,13,13,29,3.3957,579,0.0,0,0,0,0,0,0,0,0,-202652034,-402628517,108,579,10,84,192,13
546,273500,16,13,29,0,13,13,29,52.8486,388,0.0,0,0,0,0,0,0,0,0,-202652111,-402628440,108,388,10,84,197,133
547,274000,16,13,29,0,13,13,30,2.6251,388,0.0,0,0,0,0,0,0,0,0,-202652111,-402628440,115,388,10,91,197,138
548,274500,16,13,30,0,13,13,30,52.3161,377,0.0,0,0,0,0,0,0,0,0,-202652187,-402628479,115,377,10,91,196,248
549,275000,16,13,30,0,13,13,31,3.8781,377,0.0,0,0,0,0,0,0,0,0,-202652187,-402628479,116,377,9,91,190,239
550,275500,16,13,31,0,13,13,31,53.2912,290,0.0,0,0,0,0,0,0,0,0,-202652244,-402628555,116,290,9,91,185,180
551,276000,16,13,31,0,13,13,32,2.5164,290,0.0,0,0,0,0,0,0,0,0,-202652244,-402628555,115,290,10,91,183,171
552,276500,16,13,32,0,13,13,32,53.9049,598,0.0,0,0,0,0,0,0,0,0,-202652301,-402628669,115,598,10,91,185,97
553,277000,16,13,32,0,13,13,33,2.3428,598,0.0,0,0,0,0,0,0,0,0,-202652301,-402628669,108,598,9,91,186,80
554,277500,16,13,33,0,13,13,33,53.1719,542,0.0,0,0,0,0,0,0,0,0,-202652378,-402628784,108,542,9,91,188,23
555,278000,16,13,33,0,13,13,34,3.8951,542,0.0,0,0,0,0,0,0,0,0,-202652378,-402628784,108,542,9,91,185,14
556,278500,16,13,34,0,13,13,34,53.7922,485,0.0,0,0,0,0,0,0,0,0,-202652435,-402628898,108,485,9,91,190,229
558,279500,16,13,35,0,13,13,35,53.1582,474,0.0,0,0,0,0,0,0,0,0,-202652511,-402629013,111,474,10,91,189,3
559,280000,16,13,35,0,13,13,36,2.8171,474,0.0,0,0,0,0,0,0,0,0,-202652511,-402629013,111,474,10,91,181,250
560,280500,16,13,36,0,13,13,36,52.9631,498,0.0,0,0,0,0,0,0,0,0,-202652587,-402629089,111,498,10,91,177,138
561,281000,16,13,36,0,13,13,37,3.5105,498,0.0,0,0,0,0,0,0,0,0,-202652587,-402629089,111,498,10,84,187,122
562,281500,16,13,37,0,13,13,37,53.8612,492,0.0,0,0,0,0,0,0,0,0,-202652664,-402629203,111,492,10,84,189,166
563,282000,16,13,37,0,13,13,38,3.9184,492,0.0,0,0,0,0,0,0,0,0,-202652664,-402629203,111,492,10,84,166,157
564,282500,16,13,38,0,13,13,38,53.3255,520,0.0,0,0,0,0,0,0,0,0,-202652740,-402629318,111,520,10,84,188,15
565,283000,16,13,38,0,13,13,39,2.7283,520,0.0,0,0,0,0,0,0,0,0,-202652740,-402629318,113,520,10,84,183,8
566,283500,16,13,39,0,13,13,39,52.5166,468,0.0,0,0,0,0,0,0,0,0,-202652797,-402629432,113,468,10,84,189,234
567,284000,16,13,39,0,13,13,40,3.6007,468,0.0,0,0,0,0,0,0,0,0,-202652797,-402629432,116,468,9,91,192,234
568,284500,16,13,40,0,13,13,40,53.0109,372,0.0,0,0,0,0,0,0,0,0,-202652835,-402629508,116,372,9,91,190,176
569,285000,16,13,40,0,13,13,41,3.8351,372,0.0,0,0,0,0,0,0,0,0,-202652835,-402629508,120,372,9,91,192,171
570,285500,16,13,41,0,13,13,41,53.9803,424,0.0,0,0,0,0,0,0,0,0,-202652873,-402629623,120,424,9,91,196,114
571,286000,16,13,41,0,13,13,42,3.5698,424,0.0,0,0,0,0,0,0,0,0,-202652873,-402629623,120,424,9,91,193,105
572,286500,16,13,42,0,13,13,42,52.99,446,0.0,0,0,0,0,0,0,0,0,-202652912,-402629737,120,446,9,91,197,243
