PACKAGE,ELAPSED_TIME,HOUR_GPS,MIN_GPS,SEC_GPS,CENT_GPS,HOUR_PC,MIN_PC,SEC_PC,CENT_PC,VEL_RODA,ROTACAO,TEMP,FLUIDO,AX,AY,AZ,ROLL,PITCH,HEADING,LAT,LON,ALT,VEL_GPS,SAT,HDOP,RSSI,CHECKSUM
0,1000,14,34,25,98,11,34,27,15.2242,0,0.0,0,0,0,0,0,0,0,0,0,0,0,0,0,15,222,167
1,2000,14,34,27,0,11,34,28,15.4651,0,0.0,0,0,0,0,0,0,0,0,0,0,0,0,0,15,239,52
2,3000,14,34,28,0,11,34,29,15.203,0,0.0,0,0,0,0,0,0,0,0,0,0,0,0,0,15,239,34
3,4000,14,34,29,0,11,34,30,15.6301,0,0.0,0,0,0,0,0,0,0,0,0,0,0,0,0,15,239,16
4,5000,14,34,30,0,11,34,31,15.1725,0,0.0,0,0,0,0,0,0,0,0,0,0,0,0,0,15,239,254
5,6000,14,34,31,0,11,34,32,14.5718,0,0.0,0,0,0,0,0,0,0,0,0,0,0,0,0,15,239,236
6,7000,14,34,32,0,11,34,33,14.8979,0,0.0,0,0,0,0,0,0,0,0,0,0,0,0,0,15,239,218
0,1000,14,35,11,4,11,35,12,21.4978,0,0.0,0,0,0,0,0,0,0,0,0,0,0,0,0,15,231,60
1,2000,14,35,12,0,11,35,13,20.1711,0,0.0,0,0,0,0,0,0,0,0,0,0,0,0,0,15,225,38
2,3000,14,35,13,0,11,35,14,21.5054,0,0.0,0,0,0,0,0,0,0,0,0,0,0,0,5,56,224,66
3,4000,14,35,14,0,11,35,15,20.2255,663,0.0,0,0,0,0,0,0,0,0,-202653598,-402626533,-25,663,10,109,227,237
4,5000,14,35,15,0,11,35,16,20.162,311,0.0,0,0,0,0,0,0,0,0,-202653560,-402626609,-8,311,10,90,232,240
5,6000,14,35,16,0,11,35,17,20.5587,324,0.0,0,0,0,0,0,0,0,0,-202653560,-402626686,6,324,9,90,229,185
6,7000,14,35,17,0,11,35,18,21.3147,192,0.0,0,0,0,0,0,0,0,0,-202653598,-402626647,3,192,8,92,229,156
7,8000,14,35,18,0,11,35,19,20.5826,229,0.0,0,0,0,0,0,0,0,0,-202653598,-402626647,3,229,9,90,232,211
8,9000,14,35,19,0,11,35,20,20.1454,261,0.0,0,0,0,0,0,0,0,0,-202653598,-402626686,17,261,8,99,233,242
9,10000,14,35,20,0,11,35,21,20.9493,240,0.0,0,0,0,0,0,0,0,0,-202653598,-402626724,25,240,8,99,228,150
10,11000,14,35,21,0,11,35,22,20.0885,59,0.0,0,0,0,0,0,0,0,0,-202653617,-402626724,29,59,8,99,228,10
11,12000,14,35,22,0,11,35,23,21.3516,62,0.0,0,0,0,0,0,0,0,0,-202653656,-402626724,30,62,9,90,232,208
12,13000,14,35,23,0,11,35,24,20.4379,66,0.0,0,0,0,0,0,0,0,0,-202653675,-402626724,35,66,10,92,233,187
13,14000,14,35,24,0,11,35,25,20.8488,27,0.0,0,0,0,0,0,0,0,0,-202653694,-402626762,41,27,10,90,234,38
14,15000,14,35,25,0,11,35,26,21.3211,18,0.0,0,0,0,0,0,0,0,0,-202653713,-402626762,50,18,10,81,233,238
15,16000,14,35,26,0,11,35,27,20.8306,48,0.0,0,0,0,0,0,0,0,0,-202653713,-402626800,51,48,10,81,232,243
16,17000,14,35,27,0,11,35,28,21.5387,11,0.0,0,0,0,0,0,0,0,0,-202653713,-402626800,55,11,10,81,233,155
17,18000,14,35,28,0,11,35,29,20.143,20,0.0,0,0,0,0,0,0,0,0,-202653713,-402626838,56,20,10,81,232,117
18,19000,14,35,29,0,11,35,30,20.6654,11,0.0,0,0,0,0,0,0,0,0,-202653713,-402626838,60,11,10,81,234,85
19,20000,14,35,30,0,11,35,31,20.1028,16,0.0,0,0,0,0,0,0,0,0,-202653732,-402626838,61,16,10,81,234,59
20,21000,14,35,31,0,11,35,32,21.3184,29,0.0,0,0,0,0,0,0,0,0,-202653713,-402626838,61,29,10,81,235,86
21,22000,14,35,32,0,11,35,33,20.2914,37,0.0,0,0,0,0,0,0,0,0,-202653694,-402626876,60,37,10,81,234,64
22,23000,14,35,33,0,11,35,34,20.1791,25,0.0,0,0,0,0,0,0,0,0,-202653713,-402626876,61,25,10,81,235,3
23,24000,14,35,34,0,11,35,35,20.3424,12,0.0,0,0,0,0,0,0,0,0,-202653713,-402626914,64,12,10,81,234,180
24,25000,14,35,35,0,11,35,36,21.4523,9,0.0,0,0,0,0,0,0,0,0,-202653713,-402626914,65,9,10,81,234,157
25,26000,14,35,36,0,11,35,37,21.6495,12,0.0,0,0,0,0,0,0,0,0,-202653713,-402626914,68,12,10,81,233,148
26,27000,14,35,37,0,11,35,38,20.8582,9,0.0,0,0,0,0,0,0,0,0,-202653732,-402626914,70,9,10,81,233,107
27,28000,14,35,38,0,11,35,39,21.5541,7,0.0,0,0,0,0,0,0,0,0,-202653713,-402626914,69,7,9,85,233,106
28,29000,14,35,39,0,11,35,40,21.1314,131,0.0,0,0,0,0,0,0,0,0,-202653732,-402626914,69,131,9,85,231,61
29,30000,14,35,40,0,11,35,41,20.1279,74,0.0,0,0,0,0,0,0,0,0,-202653732,-402626914,69,74,10,85,233,186
30,31000,14,35,41,0,11,35,42,21.5481,72,0.0,0,0,0,0,0,0,0,0,-202653732,-402626914,68,72,10,81,235,159
31,32000,14,35,42,0,11,35,43,21.3328,46,0.0,0,0,0,0,0,0,0,0,-202653751,-402626914,68,46,10,81,234,70
32,33000,14,35,43,0,11,35,44,21.7048,29,0.0,0,0,0,0,0,0,0,0,-202653751,-402626914,70,29,10,81,234,19
33,34000,14,35,44,0,11,35,45,21.3164,11,0.0,0,0,0,0,0,0,0,0,-202653751,-402626953,75,11,10,81,234,187
34,35000,14,35,45,0,11,35,46,21.5443,18,0.0,0,0,0,0,0,0,0,0,-202653751,-402626953,75,18,10,81,233,183
35,36000,14,35,46,0,11,35,47,20.4146,25,0.0,0,0,0,0,0,0,0,0,-202653770,-402626953,78,25,10,81,234,163
36,37000,14,35,47,0,11,35,48,20.6943,12,0.0,0,0,0,0,0,0,0,0,-202653770,-402626953,79,12,10,81,233,120
37,38000,14,35,48,0,11,35,49,21.245,1,0.0,0,0,0,0,0,0,0,0,-202653770,-402626991,81,1,10,81,233,44
38,39000,14,35,49,0,11,35,50,20.2988,3,0.0,0,0,0,0,0,0,0,0,-202653770,-402626991,81,3,10,81,234,30
39,40000,14,35,50,0,11,35,51,21.7165,3,0.0,0,0,0,0,0,0,0,0,-202653770,-402626991,81,3,10,81,233,12
40,41000,14,35,51,0,11,35,52,21.2545,1,0.0,0,0,0,0,0,0,0,0,-202653770,-402626991,80,1,10,81,235,245
41,42000,14,35,52,0,11,35,53,20.2785,0,0.0,0,0,0,0,0,0,0,0,-202653770,-402626991,78,0,10,90,235,232
42,43000,14,35,53,0,11,35,54,21.7846,7,0.0,0,0,0,0,0,0,0,0,-202653770,-402626991,76,7,10,90,234,225
43,44000,14,35,54,0,11,35,55,21.3187,1,0.0,0,0,0,0,0,0,0,0,-202653751,-402626991,75,1,10,90,234,213
44,45000,14,35,55,0,11,35,56,21.3964,9,0.0,0,0,0,0,0,0,0,0,-202653751,-402626991,71,9,10,90,234,207
45,46000,14,35,56,0,11,35,57,20.4981,3,0.0,0,0,0,0,0,0,0,0,-202653751,-402626991,70,3,10,90,236,176
46,47000,14,35,57,0,11,35,58,21.506,5,0.0,0,0,0,0,0,0,0,0,-202653770,-402626991,69,5,10,81,234,133
47,48000,14,35,58,0,11,35,59,20.6021,12,0.0,0,0,0,0,0,0,0,0,-202653770,-402626953,69,12,10,81,235,167
48,49000,14,35,59,0,11,36,0,21.3946,3,0.0,0,0,0,0,0,0,0,0,-202653789,-402626953,70,3,10,81,235,113
49,50000,14,36,0,0,11,36,1,20.5013,3,0.0,0,0,0,0,0,0,0,0,-202653789,-402626953,70,3,10,81,235,36
50,51000,14,36,1,0,11,36,2,21.0924,3,0.0,0,0,0,0,0,0,0,0,-202653808,-402626953,70,3,10,81,230,255
51,52000,14,36,2,0,11,36,3,20.6668,7,0.0,0,0,0,0,0,0,0,0,-202653808,-402626953,70,7,10,81,219,245
52,53000,14,36,3,0,11,36,4,21.0737,5,0.0,0,0,0,0,0,0,0,0,-202653808,-402626953,70,5,10,81,229,223
53,54000,14,36,4,0,11,36,5,20.8374,0,0.0,0,0,0,0,0,0,0,0,-202653827,-402626914,70,0,10,81,229,214
54,55000,14,36,5,0,11,36,6,20.291,7,0.0,0,0,0,0,0,0,0,0,-202653846,-402626914,71,7,10,81,230,192
55,56000,14,36,6,0,11,36,7,20.4657,3,0.0,0,0,0,0,0,0,0,0,-202653846,-402626914,71,3,10,81,230,166
56,57000,14,36,7,0,11,36,8,20.8042,0,0.0,0,0,0,0,0,0,0,0,-202653846,-402626914,70,0,10,81,229,141
57,58000,14,36,8,0,11,36,9,20.504,1,0.0,0,0,0,0,0,0,0,0,-202653846,-402626914,70,1,10,81,230,125
58,59000,14,36,9,0,11,36,10,21.1816,3,0.0,0,0,0,0,0,0,0,0,-202653846,-402626876,70,3,10,81,229,149
59,60000,14,36,10,0,11,36,11,21.7703,1,0.0,0,0,0,0,0,0,0,0,-202653865,-402626876,69,1,10,81,227,107
60,61000,14,36,11,0,11,36,12,21.7941,3,0.0,0,0,0,0,0,0,0,0,-202653865,-402626876,69,3,10,81,226,93
61,62000,14,36,12,0,11,36,13,21.6014,3,0.0,0,0,0,0,0,0,0,0,-202653865,-402626876,68,3,10,81,228,74
62,63000,14,36,13,0,11,36,14,21.0414,11,0.0,0,0,0,0,0,0,0,0,-202653865,-402626876,66,11,10,81,223,70
63,64000,14,36,14,0,11,36,15,21.4964,9,0.0,0,0,0,0,0,0,0,0,-202653865,-402626838,65,9,10,81,232,85
64,65000,14,36,15,0,11,36,16,20.4146,3,0.0,0,0,0,0,0,0,0,0,-202653865,-402626838,65,3,10,81,229,54
65,66000,14,36,16,0,11,36,17,21.3914,5,0.0,0,0,0,0,0,0,0,0,-202653865,-402626838,64,5,10,81,229,40
66,67000,14,36,17,0,11,36,18,20.4589,0,0.0,0,0,0,0,0,0,0,0,-202653884,-402626838,63,0,10,100,229,11
67,68000,14,36,18,0,11,36,19,20.8144,7,0.0,0,0,0,0,0,0,0,0,-202653884,-402626838,63,7,10,81,230,244
68,69000,14,36,19,0,11,36,20,20.2904,0,0.0,0,0,0,0,0,0,0,0,-202653884,-402626800,63,0,10,81,232,251
69,70000,14,36,20,0,11,36,21,21.2378,3,0.0,0,0,0,0,0,0,0,0,-202653884,-402626800,63,3,10,81,230,239
70,71000,14,36,21,0,11,36,22,20.7458,5,0.0,0,0,0,0,0,0,0,0,-202653884,-402626800,61,5,10,81,226,223
71,72000,14,36,22,0,11,36,23,21.405,5,0.0,0,0,0,0,0,0,0,0,-202653884,-402626800,61,5,9,90,227,213
72,73000,14,36,23,0,11,36,24,21.8435,0,0.0,0,0,0,0,0,0,0,0,-202653884,-402626800,60,0,10,90,226,185
73,74000,14,36,24,0,11,36,25,21.1023,3,0.0,0,0,0,0,0,0,0,0,-202653865,-402626800,60,3,10,90,228,192
74,75000,14,36,25,0,11,36,26,21.4924,3,0.0,0,0,0,0,0,0,0,0,-202653865,-402626762,60,3,10,81,228,202
75,76000,14,36,26,0,11,36,27,21.3153,1,0.0,0,0,0,0,0,0,0,0,-202653865,-402626762,60,1,10,81,226,180
76,77000,14,36,27,0,11,36,28,21.2179,1,0.0,0,0,0,0,0,0,0,0,-202653865,-402626762,60,1,10,81,231,162
77,78000,14,36,28,0,11,36,29,21.7387,46,0.0,0,0,0,0,0,0,0,0,-202653865,-402626762,60,46,10,81,226,234
78,79000,14,36,29,0,11,36,30,21.3114,11,0.0,0,0,0,0,0,0,0,0,-202653865,-402626762,60,11,10,81,231,146
79,80000,14,36,30,0,11,36,31,20.4052,3,0.0,0,0,0,0,0,0,0,0,-202653865,-402626762,60,3,10,81,231,112
80,81000,14,36,31,0,11,36,32,21.117,7,0.0,0,0,0,0,0,0,0,0,-202653865,-402626762,60,7,10,85,220,106
81,82000,14,36,32,0,11,36,33,21.1899,62,0.0,0,0,0,0,0,0,0,0,-202653865,-402626762,60,62,10,81,211,194
82,83000,14,36,33,0,11,36,34,20.6083,29,0.0,0,0,0,0,0,0,0,0,-202653884,-402626762,63,29,10,81,221,94
83,84000,14,36,34,0,11,36,35,21.8133,24,0.0,0,0,0,0,0,0,0,0,-202653865,-402626762,64,24,10,81,218,86
84,85000,14,36,35,0,11,36,36,20.6331,3,0.0,0,0,0,0,0,0,0,0,-202653865,-402626724,64,3,10,81,217,64
85,86000,14,36,36,0,11,36,37,21.738,11,0.0,0,0,0,0,0,0,0,0,-202653865,-402626724,63,11,10,81,225,60
86,87000,14,36,37,0,11,36,38,20.9996,7,0.0,0,0,0,0,0,0,0,0,-202653865,-402626724,63,7,10,81,226,34
87,88000,14,36,38,0,11,36,39,20.3664,150,0.0,0,0,0,0,0,0,0,0,-202653865,-402626762,61,150,10,81,219,6
88,89000,14,36,39,0,11,36,40,21.2829,87,0.0,0,0,0,0,0,0,0,0,-202653846,-402626762,64,87,10,81,225,140
89,90000,14,36,40,0,11,36,41,20.4942,75,0.0,0,0,0,0,0,0,0,0,-202653846,-402626762,68,75,10,81,219,102
90,91000,14,36,41,0,11,36,42,20.7957,29,0.0,0,0,0,0,0,0,0,0,-202653846,-402626762,68,29,10,81,210,248
91,92000,14,36,42,0,11,36,43,20.3625,222,0.0,0,0,0,0,0,0,0,0,-202653884,-402626762,68,222,10,81,219,66
92,93000,14,36,43,0,11,36,44,21.0885,251,0.0,0,0,0,0,0,0,0,0,-202653923,-402626724,68,251,10,81,224,105
93,94000,14,36,44,0,11,36,45,20.4297,87,0.0,0,0,0,0,0,0,0,0,-202653942,-402626686,70,87,10,81,227,36
94,95000,14,36,45,0,11,36,46,21.0831,27,0.0,0,0,0,0,0,0,0,0,-202653942,-402626686,70,27,10,81,226,154
95,96000,14,36,46,0,11,36,47,20.9449,33,0.0,0,0,0,0,0,0,0,0,-202653942,-402626686,71,33,10,81,224,149
96,97000,14,36,47,0,11,36,48,21.3998,29,0.0,0,0,0,0,0,0,0,0,-202653942,-402626686,71,29,10,81,202,122
97,98000,14,36,48,0,11,36,49,21.2667,12,0.0,0,0,0,0,0,0,0,0,-202653942,-402626686,73,12,10,81,213,72
98,99000,14,36,49,0,11,36,50,21.379,64,0.0,0,0,0,0,0,0,0,0,-202653942,-402626686,73,64,10,81,226,158
99,100000,14,36,50,0,11,36,51,21.8456,172,0.0,0,0,0,0,0,0,0,0,-202653961,-402626647,74,172,10,81,218,120
100,101000,14,36,51,0,11,36,52,20.8966,244,0.0,0,0,0,0,0,0,0,0,-202654018,-402626609,74,244,10,81,218,227
101,102000,14,36,52,0,11,36,53,21.5932,227,0.0,0,0,0,0,0,0,0,0,-202654037,-402626571,74,227,10,81,218,194
102,103000,14,36,53,0,11,36,54,20.8993,177,0.0,0,0,0,0,0,0,0,0,-202654037,-402626495,75,177,10,81,221,154
103,104000,14,36,54,0,11,36,55,20.5129,229,0.0,0,0,0,0,0,0,0,0,-202654056,-402626457,75,229,10,81,211,3
104,105000,14,36,55,0,11,36,56,22.1001,272,0.0,0,0,0,0,0,0,0,0,-202654037,-402626380,75,272,10,81,213,169
105,106000,14,36,56,0,11,36,57,21.6761,290,0.0,0,0,0,0,0,0,0,0,-202654037,-402626304,75,290,10,81,208,8
106,107000,14,36,57,0,11,36,58,20.5932,327,0.0,0,0,0,0,0,0,0,0,-202653980,-402626228,74,327,10,81,213,195
107,108000,14,36,58,0,11,36,59,21.2122,329,0.0,0,0,0,0,0,0,0,0,-202653923,-402626190,74,329,10,81,209,21
108,109000,14,36,59,0,11,37,0,20.8557,350,0.0,0,0,0,0,0,0,0,0,-202653884,-402626113,73,350,10,81,213,160
109,110000,14,37,0,0,11,37,1,20.4038,381,0.0,0,0,0,0,0,0,0,0,-202653846,-402625999,73,381,10,81,208,42
110,111000,14,37,1,0,11,37,2,21.1535,361,0.0,0,0,0,0,0,0,0,0,-202653808,-402625923,71,361,10,81,201,96
111,112000,14,37,2,0,11,37,3,21.4987,359,0.0,0,0,0,0,0,0,0,0,-202653789,-402625846,70,359,10,81,204,169
112,113000,14,37,3,0,11,37,4,21.1765,390,0.0,0,0,0,0,0,0,0,0,-202653751,-402625732,70,390,10,81,203,110
113,114000,14,37,4,0,11,37,5,21.6492,400,0.0,0,0,0,0,0,0,0,0,-202653713,-402625617,70,400,10,81,204,9
114,115000,14,37,5,0,11,37,6,22.005,405,0.0,0,0,0,0,0,0,0,0,-202653694,-402625541,70,405,10,81,197,97
115,116000,14,37,6,0,11,37,7,21.0143,403,0.0,0,0,0,0,0,0,0,0,-202653675,-402625427,70,403,10,81,185,209
116,117000,14,37,7,0,11,37,8,20.8002,375,0.0,0,0,0,0,0,0,0,0,-202653656,-402625312,66,375,10,81,185,9
117,118000,14,37,8,0,11,37,9,21.3077,453,0.0,0,0,0,0,0,0,0,0,-202653617,-402625198,65,453,10,89,176,51
118,119000,14,37,9,0,11,37,10,20.7694,450,0.0,0,0,0,0,0,0,0,0,-202653579,-402625083,64,450,10,81,190,171
119,120000,14,37,10,0,11,37,11,21.4085,453,0.0,0,0,0,0,0,0,0,0,-202653541,-402624969,63,453,10,81,188,55
120,121000,14,37,11,0,11,37,12,20.7231,420,0.0,0,0,0,0,0,0,0,0,-202653503,-402624855,64,420,10,81,182,124
121,122000,14,37,12,0,11,37,13,21.1078,433,0.0,0,0,0,0,0,0,0,0,-202653465,-402624740,63,433,10,81,187,29
122,123000,14,37,13,0,11,37,14,21.0193,407,0.0,0,0,0,0,0,0,0,0,-202653427,-402624626,61,407,10,81,182,110
123,124000,14,37,14,0,11,37,15,20.9287,450,0.0,0,0,0,0,0,0,0,0,-202653388,-402624549,60,450,10,81,180,37
124,125000,14,37,15,0,11,37,16,20.9986,435,0.0,0,0,0,0,0,0,0,0,-202653369,-402624435,60,435,10,81,177,123
125,126000,14,37,16,0,11,37,17,21.5968,448,0.0,0,0,0,0,0,0,0,0,-202653331,-402624282,60,448,10,81,178,66
126,127000,14,37,17,0,11,37,18,21.3208,440,0.0,0,0,0,0,0,0,0,0,-202653312,-402624168,60,440,10,81,173,166
127,128000,14,37,18,0,11,37,19,21.6962,464,0.0,0,0,0,0,0,0,0,0,-202653255,-402624053,58,464,10,81,177,110
128,129000,14,37,19,0,11,37,20,21.9659,463,0.0,0,0,0,0,0,0,0,0,-202653217,-402623939,58,463,10,81,173,242
129,130000,14,37,20,0,11,37,21,21.9505,468,0.0,0,0,0,0,0,0,0,0,-202653198,-402623825,59,468,10,81,167,112
130,131000,14,37,21,0,11,37,22,20.8138,437,0.0,0,0,0,0,0,0,0,0,-202653179,-402623710,58,437,10,81,178,167
131,132000,14,37,22,0,11,37,23,21.5863,500,0.0,0,0,0,0,0,0,0,0,-202653160,-402623596,60,500,10,81,179,155
132,133000,14,37,23,0,11,37,24,21.8511,485,0.0,0,0,0,0,0,0,0,0,-202653141,-402623481,60,485,10,81,182,242
133,134000,14,37,24,0,11,37,25,21.5204,438,0.0,0,0,0,0,0,0,0,0,-202653102,-402623367,61,438,10,81,182,28
134,135000,14,37,25,0,11,37,26,22.0694,338,0.0,0,0,0,0,0,0,0,0,-202653007,-402623329,49,338,10,81,178,187
135,136000,14,37,26,0,11,37,27,21.3668,418,0.0,0,0,0,0,0,0,0,0,-202652931,-402623329,50,418,10,81,187,150
136,137000,14,37,27,0,11,37,28,21.7296,435,0.0,0,0,0,0,0,0,0,0,-202652835,-402623291,53,435,10,81,176,48
137,138000,14,37,28,0,11,37,29,22.0032,412,0.0,0,0,0,0,0,0,0,0,-202652721,-402623252,53,412,10,81,163,137
138,139000,14,37,29,0,11,37,30,21.9651,409,0.0,0,0,0,0,0,0,0,0,-202652626,-402623291,54,409,9,88,179,176
139,140000,14,37,30,0,11,37,31,20.8529,446,0.0,0,0,0,0,0,0,0,0,-202652530,-402623329,55,446,10,81,172,29
140,141000,14,37,31,0,11,37,32,22.0436,459,0.0,0,0,0,0,0,0,0,0,-202652416,-402623329,56,459,10,81,182,153
141,142000,14,37,32,0,11,37,33,21.5377,437,0.0,0,0,0,0,0,0,0,0,-202652301,-402623367,55,437,10,81,170,167
142,143000,14,37,33,0,11,37,34,21.0845,477,0.0,0,0,0,0,0,0,0,0,-202652206,-402623405,54,477,10,81,177,29
143,144000,14,37,34,0,11,37,35,22.0688,401,0.0,0,0,0,0,0,0,0,0,-202652111,-402623443,54,401,10,81,177,173
144,145000,14,37,35,0,11,37,36,21.383,474,0.0,0,0,0,0,0,0,0,0,-202652015,-402623481,54,474,10,88,179,110
145,146000,14,37,36,0,11,37,37,20.5081,444,0.0,0,0,0,0,0,0,0,0,-202651920,-402623519,54,444,10,88,178,88
146,147000,14,37,37,0,11,37,38,21.8399,446,0.0,0,0,0,0,0,0,0,0,-202651805,-402623596,53,446,10,88,179,112
147,148000,14,37,38,0,11,37,39,21.7753,444,0.0,0,0,0,0,0,0,0,0,-202651710,-402623596,50,444,10,81,178,175
148,149000,14,37,39,0,11,37,40,20.6444,375,0.0,0,0,0,0,0,0,0,0,-202651615,-402623672,50,375,10,83,174,41
149,150000,14,37,40,0,11,37,41,21.6363,407,0.0,0,0,0,0,0,0,0,0,-202651519,-402623710,55,407,10,81,177,147
150,151000,14,37,41,0,11,37,42,20.6328,388,0.0,0,0,0,0,0,0,0,0,-202651424,-402623786,61,388,10,81,180,115
151,152000,14,37,42,0,11,37,43,20.737,446,0.0,0,0,0,0,0,0,0,0,-202651348,-402623863,64,446,10,81,171,216
152,153000,14,37,43,0,11,37,44,21.4911,409,0.0,0,0,0,0,0,0,0,0,-202651252,-402623939,65,409,10,81,184,145
153,154000,14,37,44,0,11,37,45,22.0366,438,0.0,0,0,0,0,0,0,0,0,-202651176,-402624015,64,438,10,81,176,183
154,155000,14,37,45,0,11,37,46,20.9891,437,0.0,0,0,0,0,0,0,0,0,-202651100,-402624092,64,437,10,81,173,163
155,156000,14,37,46,0,11,37,47,22.029,440,0.0,0,0,0,0,0,0,0,0,-202651023,-402624206,65,440,10,81,177,115
156,157000,14,37,47,0,11,37,48,21.0296,429,0.0,0,0,0,0,0,0,0,0,-202650947,-402624282,65,429,10,81,183,74
157,158000,14,37,48,0,11,37,49,21.563,403,0.0,0,0,0,0,0,0,0,0,-202650890,-402624359,65,403,10,81,181,240
158,159000,14,37,49,0,11,37,50,21.9112,394,0.0,0,0,0,0,0,0,0,0,-202650871,-402624473,65,394,10,81,176,110
159,160000,14,37,50,0,11,37,51,20.7598,370,0.0,0,0,0,0,0,0,0,0,-202650871,-402624549,66,370,10,81,185,224
160,161000,14,37,51,0,11,37,52,21.8999,388,0.0,0,0,0,0,0,0,0,0,-202650928,-402624626,66,388,10,81,186,106
161,162000,14,37,52,0,11,37,53,22.2092,446,0.0,0,0,0,0,0,0,0,0,-202650985,-402624740,66,446,10,81,182,33
162,163000,14,37,53,0,11,37,54,21.5243,446,0.0,0,0,0,0,0,0,0,0,-202651042,-402624816,65,446,10,81,181,136
163,164000,14,37,54,0,11,37,55,21.7508,442,0.0,0,0,0,0,0,0,0,0,-202651100,-402624893,65,442,10,81,180,231
164,165000,14,37,55,0,11,37,56,20.5848,470,0.0,0,0,0,0,0,0,0,0,-202651176,-402625007,64,470,10,81,184,77
165,166000,14,37,56,0,11,37,57,21.0413,438,0.0,0,0,0,0,0,0,0,0,-202651233,-402625083,64,438,10,81,180,117
166,167000,14,37,57,0,11,37,58,21.9493,425,0.0,0,0,0,0,0,0,0,0,-202651290,-402625160,63,425,10,81,190,194
167,168000,14,37,58,0,11,37,59,22.0915,433,0.0,0,0,0,0,0,0,0,0,-202651348,-402625274,63,433,10,81,196,20
168,169000,14,37,59,0,11,38,0,22.0916,442,0.0,0,0,0,0,0,0,0,0,-202651424,-402625350,63,442,10,81,183,122
169,170000,14,38,0,0,11,38,1,21.2139,440,0.0,0,0,0,0,0,0,0,0,-202651481,-402625465,63,440,10,81,188,125
170,171000,14,38,1,0,11,38,2,21.2225,463,0.0,0,0,0,0,0,0,0,0,-202651519,-402625579,61,463,10,81,193,253
171,172000,14,38,2,0,11,38,3,21.6023,463,0.0,0,0,0,0,0,0,0,0,-202651557,-402625694,63,463,10,81,185,84
172,173000,14,38,3,0,11,38,4,20.7959,461,0.0,0,0,0,0,0,0,0,0,-202651596,-402625808,61,461,10,81,179,162
173,174000,14,38,4,0,11,38,5,22.1442,468,0.0,0,0,0,0,0,0,0,0,-202651615,-402625923,60,468,10,81,202,23
174,175000,14,38,5,0,11,38,6,21.2623,438,0.0,0,0,0,0,0,0,0,0,-202651634,-402626037,60,438,10,81,191,68
175,176000,14,38,6,0,11,38,7,22.0207,433,0.0,0,0,0,0,0,0,0,0,-202651634,-402626152,60,433,10,81,188,180
176,177000,14,38,7,0,11,38,8,21.4432,431,0.0,0,0,0,0,0,0,0,0,-202651634,-402626266,60,431,10,81,199,44
177,178000,14,38,8,0,11,38,9,20.6952,453,0.0,0,0,0,0,0,0,0,0,-202651634,-402626380,59,453,10,81,184,210
178,179000,14,38,9,0,11,38,10,22.0757,424,0.0,0,0,0,0,0,0,0,0,-202651653,-402626457,59,424,10,81,182,37
179,180000,14,38,10,0,11,38,11,20.8618,453,0.0,0,0,0,0,0,0,0,0,-202651672,-402626571,59,453,10,81,192,199
180,181000,14,38,11,0,11,38,12,21.6285,457,0.0,0,0,0,0,0,0,0,0,-202651691,-402626724,56,457,10,81,182,14
181,182000,14,38,12,0,11,38,13,22.2323,442,0.0,0,0,0,0,0,0,0,0,-202651710,-402626838,56,442,10,81,198,87
182,183000,14,38,13,0,11,38,14,21.3977,461,0.0,0,0,0,0,0,0,0,0,-202651729,-402626953,55,461,10,81,195,228
183,184000,14,38,14,0,11,38,15,21.1944,424,0.0,0,0,0,0,0,0,0,0,-202651748,-402627029,55,424,10,81,197,41
184,185000,14,38,15,0,11,38,16,22.081,374,0.0,0,0,0,0,0,0,0,0,-202651805,-402627143,55,374,10,81,201,7
185,186000,14,38,16,0,11,38,17,21.7464,318,0.0,0,0,0,0,0,0,0,0,-202651882,-402627143,56,318,10,81,203,57
186,187000,14,38,17,0,11,38,18,22.0737,370,0.0,0,0,0,0,0,0,0,0,-202651958,-402627143,56,370,10,81,206,66
187,188000,14,38,18,0,11,38,19,21.3758,396,0.0,0,0,0,0,0,0,0,0,-202652034,-402627067,56,396,10,81,205,101
188,189000,14,38,19,0,11,38,20,22.1369,424,0.0,0,0,0,0,0,0,0,0,-202652091,-402626991,56,424,10,81,185,158
189,190000,14,38,20,0,11,38,21,21.1012,396,0.0,0,0,0,0,0,0,0,0,-202652130,-402626876,56,396,10,81,202,160
190,191000,14,38,21,0,11,38,22,21.3043,401,0.0,0,0,0,0,0,0,0,0,-202652149,-402626800,56,401,10,81,203,210
191,192000,14,38,22,0,11,38,23,21.3064,416,0.0,0,0,0,0,0,0,0,0,-202652149,-402626686,55,416,10,81,191,79
192,193000,14,38,23,0,11,38,24,21.5462,483,0.0,0,0,0,0,0,0,0,0,-202652168,-402626533,53,483,10,81,207,70
193,194000,14,38,24,0,11,38,25,20.8844,370,0.0,0,0,0,0,0,0,0,0,-202652168,-402626457,53,370,10,81,205,158
194,195000,14,38,25,0,11,38,26,21.3314,318,0.0,0,0,0,0,0,0,0,0,-202652168,-402626342,55,318,10,81,203,153
195,196000,14,38,26,0,11,38,27,21.556,274,0.0,0,0,0,0,0,0,0,0,-202652149,-402626266,56,274,10,81,203,145
196,197000,14,38,27,0,11,38,28,21.931,268,0.0,0,0,0,0,0,0,0,0,-202652149,-402626228,60,268,10,81,206,158
197,198000,14,38,28,0,11,38,29,21.9421,316,0.0,0,0,0,0,0,0,0,0,-202652149,-402626113,60,316,10,81,206,95
198,199000,14,38,29,0,11,38,30,21.862,320,0.0,0,0,0,0,0,0,0,0,-202652130,-402626037,60,320,10,81,198,181
199,200000,14,38,30,0,11,38,31,20.9132,342,0.0,0,0,0,0,0,0,0,0,-202652130,-402625961,61,342,10,81,196,28
200,201000,14,38,31,0,11,38,32,22.0706,364,0.0,0,0,0,0,0,0,0,0,-202652130,-402625846,64,364,10,81,190,172
201,202000,14,38,32,0,11,38,33,21.7792,322,0.0,0,0,0,0,0,0,0,0,-202652111,-402625770,65,322,10,81,192,167
202,203000,14,38,33,0,11,38,34,22.1133,294,0.0,0,0,0,0,0,0,0,0,-202652111,-402625694,65,294,10,81,182,168
203,204000,14,38,34,0,11,38,35,21.3887,381,0.0,0,0,0,0,0,0,0,0,-202652091,-402625579,65,381,10,98,190,220
204,205000,14,38,35,0,11,38,36,22.0226,324,0.0,0,0,0,0,0,0,0,0,-202652091,-402625503,65,324,10,106,192,173
205,206000,14,38,36,0,11,38,37,22.1787,331,0.0,0,0,0,0,0,0,0,0,-202652072,-402625427,68,331,10,81,190,242
206,207000,14,38,37,0,11,38,38,22.0924,357,0.0,0,0,0,0,0,0,0,0,-202652072,-402625312,70,357,10,81,188,137
207,208000,14,38,38,0,11,38,39,22.0285,348,0.0,0,0,0,0,0,0,0,0,-202652053,-402625236,73,348,10,81,192,200
208,209000,14,38,39,0,11,38,40,21.2784,327,0.0,0,0,0,0,0,0,0,0,-202652053,-402625160,74,327,10,89,181,225
209,210000,14,38,40,0,11,38,41,21.5333,338,0.0,0,0,0,0,0,0,0,0,-202652034,-402625045,75,338,10,89,187,108
210,211000,14,38,41,0,11,38,42,22.3225,366,0.0,0,0,0,0,0,0,0,0,-202652034,-402624969,75,366,10,81,196,215
211,212000,14,38,42,0,11,38,43,21.4363,407,0.0,0,0,0,0,0,0,0,0,-202652034,-402624855,75,407,10,81,205,137
212,213000,14,38,43,0,11,38,44,22.1949,427,0.0,0,0,0,0,0,0,0,0,-202652091,-402624778,75,427,10,81,201,179
213,214000,14,38,44,0,11,38,45,21.8642,400,0.0,0,0,0,0,0,0,0,0,-202652168,-402624702,76,400,10,81,206,106
214,215000,14,38,45,0,11,38,46,21.8769,407,0.0,0,0,0,0,0,0,0,0,-202652263,-402624664,78,407,10,81,201,47
215,216000,14,38,46,0,11,38,47,22.3125,468,0.0,0,0,0,0,0,0,0,0,-202652378,-402624702,80,468,10,81,200,0
216,217000,14,38,47,0,11,38,48,21.659,333,0.0,0,0,0,0,0,0,0,0,-202652454,-402624740,81,333,10,81,192,110
217,218000,14,38,48,0,11,38,49,22.2147,288,0.0,0,0,0,0,0,0,0,0,-202652511,-402624778,83,288,10,81,198,164
218,219000,14,38,49,0,11,38,50,21.316,161,0.0,0,0,0,0,0,0,0,0,-202652530,-402624855,83,161,10,81,191,50
219,220000,14,38,50,0,11,38,51,21.5435,64,0.0,0,0,0,0,0,0,0,0,-202652549,-402624855,83,64,10,81,198,75
220,221000,14,38,51,0,11,38,52,22.0212,240,0.0,0,0,0,0,0,0,0,0,-202652568,-402624893,81,240,10,81,187,94
221,222000,14,38,52,0,11,38,53,21.493,344,0.0,0,0,0,0,0,0,0,0,-202652606,-402624969,78,344,10,81,195,169
222,223000,14,38,53,0,11,38,54,22.0618,392,0.0,0,0,0,0,0,0,0,0,-202652645,-402625083,75,392,10,81,194,90
223,224000,14,38,54,0,11,38,55,21.3067,375,0.0,0,0,0,0,0,0,0,0,-202652664,-402625160,74,375,10,81,197,197
224,225000,14,38,55,0,11,38,56,22.1811,401,0.0,0,0,0,0,0,0,0,0,-202652702,-402625274,70,401,10,81,198,73
225,226000,14,38,56,0,11,38,57,21.7032,390,0.0,0,0,0,0,0,0,0,0,-202652740,-402625350,70,390,10,81,203,174
226,227000,14,38,57,0,11,38,58,21.2748,407,0.0,0,0,0,0,0,0,0,0,-202652759,-402625465,66,407,10,81,193,52
227,228000,14,38,58,0,11,38,59,21.2964,381,0.0,0,0,0,0,0,0,0,0,-202652797,-402625579,65,381,10,81,206,84
228,229000,14,38,59,0,11,39,0,21.9399,383,0.0,0,0,0,0,0,0,0,0,-202652835,-402625656,61,383,10,81,205,207
229,230000,14,39,0,0,11,39,1,22.1945,348,0.0,0,0,0,0,0,0,0,0,-202652873,-402625732,59,348,10,81,205,200
230,231000,14,39,1,0,11,39,2,21.3647,409,0.0,0,0,0,0,0,0,0,0,-202652893,-402625846,54,409,10,81,196,164
231,232000,14,39,2,0,11,39,3,22.1066,431,0.0,0,0,0,0,0,0,0,0,-202652931,-402625961,50,431,10,81,206,32
232,233000,14,39,3,0,11,39,4,21.3433,446,0.0,0,0,0,0,0,0,0,0,-202652969,-402626075,49,446,10,81,211,146
233,234000,14,39,4,0,11,39,5,22.1869,485,0.0,0,0,0,0,0,0,0,0,-202653007,-402626190,46,485,10,81,210,50
234,235000,14,39,5,0,11,39,6,20.9975,492,0.0,0,0,0,0,0,0,0,0,-202653045,-402626304,45,492,10,81,207,148
235,236000,14,39,6,0,11,39,7,20.926,525,0.0,0,0,0,0,0,0,0,0,-202653083,-402626419,45,525,10,81,208,44
236,237000,14,39,7,0,11,39,8,21.2511,563,0.0,0,0,0,0,0,0,0,0,-202653121,-402626571,43,563,10,81,205,165
237,238000,14,39,8,0,11,39,9,21.9754,553,0.0,0,0,0,0,0,0,0,0,-202653179,-402626724,43,553,10,81,210,172
238,239000,14,39,9,0,11,39,10,22.3326,561,0.0,0,0,0,0,0,0,0,0,-202653217,-402626838,43,561,10,81,204,16
239,240000,14,39,10,0,11,39,11,21.6899,444,0.0,0,0,0,0,0,0,0,0,-202653274,-402626953,45,444,10,81,215,104
240,241000,14,39,11,0,11,39,12,21.2112,348,0.0,0,0,0,0,0,0,0,0,-202653312,-402627067,48,348,10,81,213,1
241,242000,14,39,12,0,11,39,13,21.7329,370,0.0,0,0,0,0,0,0,0,0,-202653331,-402627143,50,370,10,81,208,189
242,243000,14,39,13,0,11,39,14,22.0525,403,0.0,0,0,0,0,0,0,0,0,-202653369,-402627258,53,403,10,81,211,87
243,244000,14,39,14,0,11,39,15,21.5683,327,0.0,0,0,0,0,0,0,0,0,-202653388,-402627334,55,327,10,81,203,79
244,245000,14,39,15,0,11,39,16,22.0526,450,0.0,0,0,0,0,0,0,0,0,-202653446,-402627410,58,450,10,81,208,175
245,246000,14,39,16,0,11,39,17,21.3226,503,0.0,0,0,0,0,0,0,0,0,-202653484,-402627525,55,503,10,81,202,106
246,247000,14,39,17,0,11,39,18,21.9118,400,0.0,0,0,0,0,0,0,0,0,-202653503,-402627639,54,400,10,84,211,6
247,248000,14,39,18,0,11,39,19,21.3192,442,0.0,0,0,0,0,0,0,0,0,-202653541,-402627754,50,442,10,81,205,168
248,249000,14,39,19,0,11,39,20,21.7296,474,0.0,0,0,0,0,0,0,0,0,-202653598,-402627868,49,474,10,81,202,41
249,250000,14,39,20,0,11,39,21,22.4583,503,0.0,0,0,0,0,0,0,0,0,-202653636,-402627983,46,503,10,81,205,181
250,251000,14,39,21,0,11,39,22,21.5204,535,0.0,0,0,0,0,0,0,0,0,-202653675,-402628135,45,535,10,81,205,36
251,252000,14,39,22,0,11,39,23,21.2559,548,0.0,0,0,0,0,0,0,0,0,-202653713,-402628250,45,548,10,81,205,146
252,253000,14,39,23,0,11,39,24,21.8463,527,0.0,0,0,0,0,0,0,0,0,-202653751,-402628402,45,527,10,81,202,151
253,254000,14,39,24,0,11,39,25,21.0634,537,0.0,0,0,0,0,0,0,0,0,-202653789,-402628517,45,537,10,81,203,0
254,255000,14,39,25,0,11,39,26,21.5291,461,0.0,0,0,0,0,0,0,0,0,-202653808,-402628631,48,461,10,81,205,209
255,256000,14,39,26,0,11,39,27,21.0148,477,0.0,0,0,0,0,0,0,0,0,-202653846,-402628746,46,477,10,81,203,68
256,257000,14,39,27,0,11,39,28,21.5947,527,0.0,0,0,0,0,0,0,0,0,-202653884,-402628898,45,527,10,81,204,216
257,258000,14,39,28,0,11,39,29,21.8073,498,0.0,0,0,0,0,0,0,0,0,-202653903,-402629013,44,498,10,81,198,3
258,259000,14,39,29,0,11,39,30,21.6345,518,0.0,0,0,0,0,0,0,0,0,-202653923,-402629165,44,518,10,85,200,114
259,260000,14,39,30,0,11,39,31,22.2301,505,0.0,0,0,0,0,0,0,0,0,-202653961,-402629280,44,505,10,81,198,166
260,261000,14,39,31,0,11,39,32,21.6194,514,0.0,0,0,0,0,0,0,0,0,-202653999,-402629394,44,514,10,81,197,15
261,262000,14,39,32,0,11,39,33,22.4155,422,0.0,0,0,0,0,0,0,0,0,-202653999,-402629508,45,422,10,112,198,241
262,263000,14,39,33,0,11,39,34,21.1865,324,0.0,0,0,0,0,0,0,0,0,-202654037,-402629623,46,324,10,81,200,101
263,264000,14,39,34,0,11,39,35,21.3557,227,0.0,0,0,0,0,0,0,0,0,-202654056,-402629661,48,227,10,81,196,87
264,265000,14,39,35,0,11,39,36,21.1251,305,0.0,0,0,0,0,0,0,0,0,-202654075,-402629737,48,305,10,84,197,135
265,266000,14,39,36,0,11,39,37,21.6704,418,0.0,0,0,0,0,0,0,0,0,-202654094,-402629852,46,418,10,81,190,204
266,267000,14,39,37,0,11,39,38,22.414,511,0.0,0,0,0,0,0,0,0,0,-202654132,-402629966,46,511,10,81,190,218
267,268000,14,39,38,0,11,39,39,22.2226,464,0.0,0,0,0,0,0,0,0,0,-202654170,-402630081,51,464,10,81,191,214
268,269000,14,39,39,0,11,39,40,22.2325,446,0.0,0,0,0,0,0,0,0,0,-202654209,-402630195,54,446,10,81,189,8
269,270000,14,39,40,0,11,39,41,21.0127,407,0.0,0,0,0,0,0,0,0,0,-202654228,-402630310,53,407,10,81,183,33
270,271000,14,39,41,0,11,39,42,21.8983,459,0.0,0,0,0,0,0,0,0,0,-202654247,-402630424,53,459,10,81,182,241
271,272000,14,39,42,0,11,39,43,22.39,429,0.0,0,0,0,0,0,0,0,0,-202654285,-402630538,54,429,10,81,187,12
272,273000,14,39,43,0,11,39,44,21.934,537,0.0,0,0,0,0,0,0,0,0,-202654323,-402630653,51,537,10,81,182,56
273,274000,14,39,44,0,11,39,45,21.3995,538,0.0,0,0,0,0,0,0,0,0,-202654342,-402630805,53,538,10,81,190,126
274,275000,14,39,45,0,11,39,46,21.4565,503,0.0,0,0,0,0,0,0,0,0,-202654399,-402630920,56,503,10,81,184,122
275,276000,14,39,46,0,11,39,47,20.9887,501,0.0,0,0,0,0,0,0,0,0,-202654418,-402631034,58,501,10,81,185,225
276,277000,14,39,47,0,11,39,48,21.7054,592,0.0,0,0,0,0,0,0,0,0,-202654438,-402631187,58,592,10,81,183,217
277,278000,14,39,48,0,11,39,49,21.0953,553,0.0,0,0,0,0,0,0,0,0,-202654457,-402631340,59,553,10,81,180,205
278,279000,14,39,49,0,11,39,50,22.3684,496,0.0,0,0,0,0,0,0,0,0,-202654476,-402631454,58,496,10,81,184,191
279,280000,14,39,50,0,11,39,51,21.8474,531,0.0,0,0,0,0,0,0,0,0,-202654514,-402631607,58,531,10,81,192,54
280,281000,14,39,51,0,11,39,52,22.2726,533,0.0,0,0,0,0,0,0,0,0,-202654533,-402631721,58,533,10,81,192,162
281,282000,14,39,52,0,11,39,53,21.6318,522,0.0,0,0,0,0,0,0,0,0,-202654571,-402631874,60,522,10,84,197,192
282,283000,14,39,53,0,11,39,54,22.5367,346,0.0,0,0,0,0,0,0,0,0,-202654609,-402631950,63,346,10,81,189,217
283,284000,14,39,54,0,11,39,55,21.3025,201,0.0,0,0,0,0,0,0,0,0,-202654609,-402632026,66,201,10,81,188,90
284,285000,14,39,55,0,11,39,56,21.5702,340,0.0,0,0,0,0,0,0,0,0,-202654628,-402632102,68,340,10,81,186,3
285,286000,14,39,56,0,11,39,57,22.5445,442,0.0,0,0,0,0,0,0,0,0,-202654628,-402632217,68,442,10,81,192,73
286,287000,14,39,57,0,11,39,58,21.9188,501,0.0,0,0,0,0,0,0,0,0,-202654647,-402632331,74,501,10,93,190,58
287,288000,14,39,58,0,11,39,59,21.8534,346,0.0,0,0,0,0,0,0,0,0,-202654666,-402632408,79,346,10,81,201,139
288,289000,14,39,59,0,11,40,0,21.4485,357,0.0,0,0,0,0,0,0,0,0,-202654647,-402632522,81,357,10,81,201,48
289,290000,14,40,0,0,11,40,1,21.9854,348,0.0,0,0,0,0,0,0,0,0,-202654609,-402632484,85,348,10,81,199,33
290,291000,14,40,1,0,11,40,2,21.231,48,0.0,0,0,0,0,0,0,0,0,-202654609,-402632446,90,48,10,107,185,251
291,292000,14,40,2,0,11,40,3,22.6642,368,0.0,0,0,0,0,0,0,0,0,-202654628,-402632522,90,368,10,93,189,253
292,293000,14,40,3,0,11,40,4,22.067,294,0.0,0,0,0,0,0,0,0,0,-202654647,-402632598,88,294,10,81,193,234
293,294000,14,40,4,0,11,40,5,22.5218,355,0.0,0,0,0,0,0,0,0,0,-202654666,-402632675,86,355,10,81,197,240
294,295000,14,40,5,0,11,40,6,21.8782,372,0.0,0,0,0,0,0,0,0,0,-202654705,-402632751,86,372,10,81,194,140
295,296000,14,40,6,0,11,40,7,21.5836,398,0.0,0,0,0,0,0,0,0,0,-202654743,-402632827,86,398,10,81,193,59
296,297000,14,40,7,0,11,40,8,21.4989,457,0.0,0,0,0,0,0,0,0,0,-202654800,-402632942,85,457,10,81,196,242
297,298000,14,40,8,0,11,40,9,22.3328,457,0.0,0,0,0,0,0,0,0,0,-202654838,-402633056,83,457,10,81,180,69
298,299000,14,40,9,0,11,40,10,21.8078,488,0.0,0,0,0,0,0,0,0,0,-202654895,-402633171,81,488,10,81,177,194
299,300000,14,40,10,0,11,40,11,22.5785,496,0.0,0,0,0,0,0,0,0,0,-202654895,-402633285,80,496,10,81,177,76
300,301000,14,40,11,0,11,40,12,21.5614,516,0.0,0,0,0,0,0,0,0,0,-202654876,-402633399,78,516,10,81,171,3
301,302000,14,40,12,0,11,40,13,22.2026,525,0.0,0,0,0,0,0,0,0,0,-202654819,-402633552,76,525,10,81,184,160
302,303000,14,40,13,0,11,40,14,21.9961,555,0.0,0,0,0,0,0,0,0,0,-202654743,-402633666,75,555,10,81,177,163
303,304000,14,40,14,0,11,40,15,21.5224,474,0.0,0,0,0,0,0,0,0,0,-202654647,-402633743,75,474,10,81,174,0
304,305000,14,40,15,0,11,40,16,22.0776,461,0.0,0,0,0,0,0,0,0,0,-202654590,-402633857,75,461,10,81,175,155
305,306000,14,40,16,0,11,40,17,22.5657,500,0.0,0,0,0,0,0,0,0,0,-202654514,-402633934,78,500,10,81,176,217
306,307000,14,40,17,0,11,40,18,21.9452,394,0.0,0,0,0,0,0,0,0,0,-202654418,-402634010,83,394,10,81,190,12
307,308000,14,40,18,0,11,40,19,22.245,427,0.0,0,0,0,0,0,0,0,0,-202654323,-402634010,83,427,10,81,194,155
308,309000,14,40,19,0,11,40,20,22.6501,374,0.0,0,0,0,0,0,0,0,0,-202654247,-402633972,81,374,10,81,188,144
309,310000,14,40,20,0,11,40,21,22.282,464,0.0,0,0,0,0,0,0,0,0,-202654170,-402633895,78,464,10,80,185,200
310,311000,14,40,21,0,11,40,22,22.5691,496,0.0,0,0,0,0,0,0,0,0,-202654056,-402633819,76,496,10,80,182,178
311,312000,14,40,22,0,11,40,23,21.5657,490,0.0,0,0,0,0,0,0,0,0,-202653942,-402633743,75,490,10,80,190,82
312,313000,14,40,23,0,11,40,24,22.3107,498,0.0,0,0,0,0,0,0,0,0,-202653846,-402633705,74,498,10,80,192,214
313,314000,14,40,24,0,11,40,25,21.5744,490,0.0,0,0,0,0,0,0,0,0,-202653732,-402633628,74,490,10,80,193,115
314,315000,14,40,25,0,11,40,26,21.3903,529,0.0,0,0,0,0,0,0,0,0,-202653636,-402633552,75,529,10,80,189,95
315,316000,14,40,26,0,11,40,27,22.084,531,0.0,0,0,0,0,0,0,0,0,-202653541,-402633438,75,531,10,80,191,35
316,317000,14,40,27,0,11,40,28,22.51,503,0.0,0,0,0,0,0,0,0,0,-202653446,-402633361,76,503,10,80,187,132
317,318000,14,40,28,0,11,40,29,22.0395,544,0.0,0,0,0,0,0,0,0,0,-202653369,-402633247,75,544,10,80,187,133
318,319000,14,40,29,0,11,40,30,21.264,535,0.0,0,0,0,0,0,0,0,0,-202653293,-402633132,76,535,10,80,185,34
319,320000,14,40,30,0,11,40,31,22.3326,585,0.0,0,0,0,0,0,0,0,0,-202653217,-402633018,75,585,10,80,191,49
320,321000,14,40,31,0,11,40,32,21.8686,498,0.0,0,0,0,0,0,0,0,0,-202653160,-402632865,76,498,10,80,196,67
321,322000,14,40,32,0,11,40,33,21.9162,353,0.0,0,0,0,0,0,0,0,0,-202653102,-402632789,76,353,10,80,185,149
322,323000,14,40,33,0,11,40,34,21.2192,361,0.0,0,0,0,0,0,0,0,0,-202653083,-402632713,75,361,10,80,202,241
323,324000,14,40,34,0,11,40,35,21.9276,457,0.0,0,0,0,0,0,0,0,0,-202653045,-402632598,76,457,10,80,196,58
324,325000,14,40,35,0,11,40,36,21.9827,370,0.0,0,0,0,0,0,0,0,0,-202653007,-402632522,79,370,10,80,199,239
325,326000,14,40,36,0,11,40,37,21.5682,418,0.0,0,0,0,0,0,0,0,0,-202652969,-402632408,79,418,10,80,194,214
326,327000,14,40,37,0,11,40,38,22.453,450,0.0,0,0,0,0,0,0,0,0,-202652931,-402632293,76,450,10,80,196,154
327,328000,14,40,38,0,11,40,39,22.1044,429,0.0,0,0,0,0,0,0,0,0,-202652893,-402632179,75,429,10,80,199,248
328,329000,14,40,39,0,11,40,40,22.4357,375,0.0,0,0,0,0,0,0,0,0,-202652854,-402632102,73,375,10,80,199,236
329,330000,14,40,40,0,11,40,41,21.4332,366,0.0,0,0,0,0,0,0,0,0,-202652816,-402631988,68,366,10,80,188,91
330,331000,14,40,41,0,11,40,42,21.7655,472,0.0,0,0,0,0,0,0,0,0,-202652778,-402631912,66,472,10,89,177,150
331,332000,14,40,42,0,11,40,43,22.3401,501,0.0,0,0,0,0,0,0,0,0,-202652721,-402631759,64,501,10,80,188,133
332,333000,14,40,43,0,11,40,44,21.6323,553,0.0,0,0,0,0,0,0,0,0,-202652664,-402631645,63,553,10,80,197,137
333,334000,14,40,44,0,11,40,45,22.7521,553,0.0,0,0,0,0,0,0,0,0,-202652606,-402631492,60,553,10,80,201,71
334,335000,14,40,45,0,11,40,46,22.6761,487,0.0,0,0,0,0,0,0,0,0,-202652549,-402631378,60,487,10,80,198,91
335,336000,14,40,46,0,11,40,47,21.4412,500,0.0,0,0,0,0,0,0,0,0,-202652492,-402631263,60,500,10,80,198,15
336,337000,14,40,47,0,11,40,48,22.628,572,0.0,0,0,0,0,0,0,0,0,-202652454,-402631149,61,572,10,80,197,41
337,338000,14,40,48,0,11,40,49,21.6366,427,0.0,0,0,0,0,0,0,0,0,-202652416,-402630996,65,427,10,80,202,183
338,339000,14,40,49,0,11,40,50,21.425,394,0.0,0,0,0,0,0,0,0,0,-202652397,-402630920,66,394,10,80,205,195
339,340000,14,40,50,0,11,40,51,22.6721,403,0.0,0,0,0,0,0,0,0,0,-202652359,-402630805,70,403,10,80,209,97
340,341000,14,40,51,0,11,40,52,22.6375,350,0.0,0,0,0,0,0,0,0,0,-202652301,-402630729,73,350,10,80,206,110
341,342000,14,40,52,0,11,40,53,22.7315,370,0.0,0,0,0,0,0,0,0,0,-202652244,-402630653,69,370,10,80,202,5
342,343000,14,40,53,0,11,40,54,21.7496,446,0.0,0,0,0,0,0,0,0,0,-202652187,-402630577,64,446,10,80,200,11
343,344000,14,40,54,0,11,40,55,22.3961,581,0.0,0,0,0,0,0,0,0,0,-202652111,-402630462,65,581,10,80,203,202
344,345000,14,40,55,0,11,40,56,21.7535,564,0.0,0,0,0,0,0,0,0,0,-202652053,-402630310,69,564,10,80,200,109
345,346000,14,40,56,0,11,40,57,22.5764,548,0.0,0,0,0,0,0,0,0,0,-202651996,-402630157,69,548,10,80,198,13
346,347000,14,40,57,0,11,40,58,21.5931,396,0.0,0,0,0,0,0,0,0,0,-202651977,-402630043,71,396,10,80,186,81
347,348000,14,40,58,0,11,40,59,22.479,388,0.0,0,0,0,0,0,0,0,0,-202651939,-402629966,74,388,10,80,195,165
348,349000,14,40,59,0,11,41,0,21.3751,335,0.0,0,0,0,0,0,0,0,0,-202651901,-402629890,76,335,10,80,194,158
349,350000,14,41,0,0,11,41,1,22.0364,290,0.0,0,0,0,0,0,0,0,0,-202651863,-402629814,80,290,10,80,194,110
350,351000,14,41,1,0,11,41,2,21.2809,337,0.0,0,0,0,0,0,0,0,0,-202651805,-402629737,78,337,10,80,184,63
351,352000,14,41,2,0,11,41,3,21.973,461,0.0,0,0,0,0,0,0,0,0,-202651748,-402629661,75,461,10,80,180,167
352,353000,14,41,3,0,11,41,4,21.4258,483,0.0,0,0,0,0,0,0,0,0,-202651672,-402629547,76,483,10,80,190,128
353,354000,14,41,4,0,11,41,5,22.0395,435,0.0,0,0,0,0,0,0,0,0,-202651615,-402629470,76,435,10,80,193,149
354,355000,14,41,5,0,11,41,6,22.4698,425,0.0,0,0,0,0,0,0,0,0,-202651576,-402629356,75,425,10,80,169,8
355,356000,14,41,6,0,11,41,7,22.7541,525,0.0,0,0,0,0,0,0,0,0,-202651576,-402629203,75,525,10,80,183,89
356,357000,14,41,7,0,11,41,8,21.7065,544,0.0,0,0,0,0,0,0,0,0,-202651576,-402629051,74,544,10,80,194,5
357,358000,14,41,8,0,11,41,9,22.3268,525,0.0,0,0,0,0,0,0,0,0,-202651596,-402628936,75,525,10,80,196,45
358,359000,14,41,9,0,11,41,10,21.7318,513,0.0,0,0,0,0,0,0,0,0,-202651615,-402628784,75,513,10,80,192,137
359,360000,14,41,10,0,11,41,11,22.4843,496,0.0,0,0,0,0,0,0,0,0,-202651691,-402628707,78,496,10,80,201,86
360,361000,14,41,11,0,11,41,12,21.7011,459,0.0,0,0,0,0,0,0,0,0,-202651786,-402628631,80,459,10,80,190,233
361,362000,14,41,12,0,11,41,13,22.4957,613,0.0,0,0,0,0,0,0,0,0,-202651920,-402628669,79,613,10,80,188,95
362,363000,14,41,13,0,11,41,14,21.9128,583,0.0,0,0,0,0,0,0,0,0,-202652034,-402628784,76,583,10,80,171,40
363,364000,14,41,14,0,11,41,15,22.8834,655,0.0,0,0,0,0,0,0,0,0,-202652130,-402628898,75,655,10,80,188,210
364,365000,14,41,15,0,11,41,16,22.3013,513,0.0,0,0,0,0,0,0,0,0,-202652206,-402629013,78,513,10,80,182,231
365,366000,14,41,16,0,11,41,17,22.8486,500,0.0,0,0,0,0,0,0,0,0,-202652282,-402629127,76,500,10,80,189,248
366,367000,14,41,17,0,11,41,18,22.1678,563,0.0,0,0,0,0,0,0,0,0,-202652378,-402629203,76,563,10,80,188,186
367,368000,14,41,18,0,11,41,19,21.7635,559,0.0,0,0,0,0,0,0,0,0,-202652454,-402629356,75,559,10,80,190,185
368,369000,14,41,19,0,11,41,20,22.3665,542,0.0,0,0,0,0,0,0,0,0,-202652511,-402629470,75,542,10,80,192,217
369,370000,14,41,20,0,11,41,21,21.8068,490,0.0,0,0,0,0,0,0,0,0,-202652587,-402629585,76,490,10,80,204,159
370,371000,14,41,21,0,11,41,22,22.4349,322,0.0,0,0,0,0,0,0,0,0,-202652626,-402629661,78,322,10,80,205,203
371,372000,14,41,22,0,11,41,23,22.6966,405,0.0,0,0,0,0,0,0,0,0,-202652664,-402629737,79,405,10,80,200,238
372,373000,14,41,23,0,11,41,24,21.4335,455,0.0,0,0,0,0,0,0,0,0,-202652702,-402629852,80,455,10,80,202,167
373,374000,14,41,24,0,11,41,25,21.8816,457,0.0,0,0,0,0,0,0,0,0,-202652740,-402629966,76,457,10,80,196,251
374,375000,14,41,25,0,11,41,26,22.7903,516,0.0,0,0,0,0,0,0,0,0,-202652778,-402630081,74,516,10,80,203,198
375,376000,14,41,26,0,11,41,27,21.4378,537,0.0,0,0,0,0,0,0,0,0,-202652816,-402630233,71,537,10,80,204,28
376,377000,14,41,27,0,11,41,28,22.8503,563,0.0,0,0,0,0,0,0,0,0,-202652854,-402630348,70,563,10,80,196,164
377,378000,14,41,28,0,11,41,29,22.0488,559,0.0,0,0,0,0,0,0,0,0,-202652893,-402630500,70,559,10,80,196,202
378,379000,14,41,29,0,11,41,30,22.7915,540,0.0,0,0,0,0,0,0,0,0,-202652931,-402630653,70,540,10,80,198,210
379,380000,14,41,30,0,11,41,31,22.2965,425,0.0,0,0,0,0,0,0,0,0,-202652950,-402630767,70,425,10,80,200,82
380,381000,14,41,31,0,11,41,32,21.9964,338,0.0,0,0,0,0,0,0,0,0,-202652969,-402630844,73,338,10,80,201,53
381,382000,14,41,32,0,11,41,33,22.8627,416,0.0,0,0,0,0,0,0,0,0,-202652969,-402630958,70,416,10,80,203,73
382,383000,14,41,33,0,11,41,34,21.7341,516,0.0,0,0,0,0,0,0,0,0,-202653007,-402631072,71,516,10,80,199,106
383,384000,14,41,34,0,11,41,35,21.3853,435,0.0,0,0,0,0,0,0,0,0,-202653045,-402631187,70,435,10,80,195,25
384,385000,14,41,35,0,11,41,36,21.7226,533,0.0,0,0,0,0,0,0,0,0,-202653083,-402631340,69,533,10,80,195,12
385,386000,14,41,36,0,11,41,37,22.7803,509,0.0,0,0,0,0,0,0,0,0,-202653121,-402631454,69,509,10,80,187,47
386,387000,14,41,37,0,11,41,38,21.7448,387,0.0,0,0,0,0,0,0,0,0,-202653198,-402631530,68,387,10,80,188,142
387,388000,14,41,38,0,11,41,39,21.7001,361,0.0,0,0,0,0,0,0,0,0,-202653274,-402631568,68,361,10,80,190,214
388,389000,14,41,39,0,11,41,40,22.4189,379,0.0,0,0,0,0,0,0,0,0,-202653369,-402631530,66,379,10,80,192,173
389,390000,14,41,40,0,11,41,41,22.2045,505,0.0,0,0,0,0,0,0,0,0,-202653465,-402631492,66,505,10,80,199,92
390,391000,14,41,41,0,11,41,42,23.0108,490,0.0,0,0,0,0,0,0,0,0,-202653541,-402631378,66,490,10,80,200,83
391,392000,14,41,42,0,11,41,43,21.8821,431,0.0,0,0,0,0,0,0,0,0,-202653579,-402631263,68,431,10,80,196,26
392,393000,14,41,43,0,11,41,44,22.3451,370,0.0,0,0,0,0,0,0,0,0,-202653560,-402631187,66,370,10,80,200,235
393,394000,14,41,44,0,11,41,45,21.5407,581,0.0,0,0,0,0,0,0,0,0,-202653503,-402631034,65,581,10,80,191,84
394,395000,14,41,45,0,11,41,46,22.2216,583,0.0,0,0,0,0,0,0,0,0,-202653427,-402630920,65,583,10,80,197,4
395,396000,14,41,46,0,11,41,47,22.9403,494,0.0,0,0,0,0,0,0,0,0,-202653369,-402630805,69,494,10,80,199,240
396,397000,14,41,47,0,11,41,48,22.8653,411,0.0,0,0,0,0,0,0,0,0,-202653312,-402630691,70,411,10,80,199,228
397,398000,14,41,48,0,11,41,49,22.2185,514,0.0,0,0,0,0,0,0,0,0,-202653255,-402630577,65,514,10,80,204,73
398,399000,14,41,49,0,11,41,50,21.6599,633,0.0,0,0,0,0,0,0,0,0,-202653179,-402630424,65,633,10,80,200,11
399,400000,14,41,50,0,11,41,51,21.7709,481,0.0,0,0,0,0,0,0,0,0,-202653141,-402630310,66,481,10,80,201,97
400,401000,14,41,51,0,11,41,52,22.6359,531,0.0,0,0,0,0,0,0,0,0,-202653102,-402630195,64,531,10,80,199,77
401,402000,14,41,52,0,11,41,53,22.0847,603,0.0,0,0,0,0,0,0,0,0,-202653064,-402630043,64,603,10,80,196,138
402,403000,14,41,53,0,11,41,54,22.6198,487,0.0,0,0,0,0,0,0,0,0,-202653026,-402629890,65,487,10,80,201,78
403,404000,14,41,54,0,11,41,55,21.6108,485,0.0,0,0,0,0,0,0,0,0,-202653007,-402629776,63,485,10,80,203,188
404,405000,14,41,55,0,11,41,56,22.9441,568,0.0,0,0,0,0,0,0,0,0,-202652969,-402629623,63,568,10,80,200,18
405,406000,14,41,56,0,11,41,57,22.5294,466,0.0,0,0,0,0,0,0,0,0,-202652912,-402629508,66,466,10,80,197,225
406,407000,14,41,57,0,11,41,58,23.0816,448,0.0,0,0,0,0,0,0,0,0,-202652893,-402629394,63,448,10,80,200,45
407,408000,14,41,58,0,11,41,59,22.7131,587,0.0,0,0,0,0,0,0,0,0,-202652854,-402629241,63,587,10,80,202,244
408,409000,14,41,59,0,11,42,0,22.6985,553,0.0,0,0,0,0,0,0,0,0,-202652816,-402629127,63,553,10,80,201,54
409,410000,14,42,0,0,11,42,1,22.5996,488,0.0,0,0,0,0,0,0,0,0,-202652797,-402628974,63,488,10,80,207,18
410,411000,14,42,1,0,11,42,2,22.4864,459,0.0,0,0,0,0,0,0,0,0,-202652778,-402628860,63,459,10,80,205,76
411,412000,14,42,2,0,11,42,3,21.8887,550,0.0,0,0,0,0,0,0,0,0,-202652740,-402628746,61,550,10,80,205,136
412,413000,14,42,3,0,11,42,4,22.7709,563,0.0,0,0,0,0,0,0,0,0,-202652702,-402628593,61,563,10,80,197,80
413,414000,14,42,4,0,11,42,5,21.666,524,0.0,0,0,0,0,0,0,0,0,-202652664,-402628440,61,524,10,80,179,176
414,415000,14,42,5,0,11,42,6,22.8571,487,0.0,0,0,0,0,0,0,0,0,-202652645,-402628326,60,487,10,80,199,215
415,416000,14,42,6,0,11,42,7,21.9282,390,0.0,0,0,0,0,0,0,0,0,-202652606,-402628211,56,390,10,80,195,153
416,417000,14,42,7,0,11,42,8,23.1333,516,0.0,0,0,0,0,0,0,0,0,-202652587,-402628097,54,516,10,80,194,7
417,418000,14,42,8,0,11,42,9,22.8179,563,0.0,0,0,0,0,0,0,0,0,-202652549,-402627944,56,563,10,80,203,21
418,419000,14,42,9,0,11,42,10,22.8318,544,0.0,0,0,0,0,0,0,0,0,-202652511,-402627830,56,544,10,80,208,118
419,420000,14,42,10,0,11,42,11,21.7281,564,0.0,0,0,0,0,0,0,0,0,-202652454,-402627677,58,564,10,80,210,96
420,421000,14,42,11,0,11,42,12,22.1571,524,0.0,0,0,0,0,0,0,0,0,-202652416,-402627563,60,524,10,80,205,154
421,422000,14,42,12,0,11,42,13,22.976,546,0.0,0,0,0,0,0,0,0,0,-202652359,-402627410,60,546,10,80,194,134
422,423000,14,42,13,0,11,42,14,22.7448,548,0.0,0,0,0,0,0,0,0,0,-202652320,-402627296,61,548,10,80,198,19
423,424000,14,42,14,0,11,42,15,21.9319,566,0.0,0,0,0,0,0,0,0,0,-202652301,-402627143,61,566,10,80,187,209
424,425000,14,42,15,0,11,42,16,22.3037,551,0.0,0,0,0,0,0,0,0,0,-202652263,-402626991,63,551,10,80,202,98
425,426000,14,42,16,0,11,42,17,23.0566,524,0.0,0,0,0,0,0,0,0,0,-202652244,-402626876,61,524,10,80,188,158
426,427000,14,42,17,0,11,42,18,22.6655,553,0.0,0,0,0,0,0,0,0,0,-202652206,-402626724,60,553,10,80,199,131
427,428000,14,42,18,0,11,42,19,21.9257,596,0.0,0,0,0,0,0,0,0,0,-202652187,-402626571,59,596,10,80,196,114
428,429000,14,42,19,0,11,42,20,22.6133,492,0.0,0,0,0,0,0,0,0,0,-202652168,-402626419,61,492,10,80,203,60
429,430000,14,42,20,0,11,42,21,23.1144,427,0.0,0,0,0,0,0,0,0,0,-202652168,-402626304,65,427,10,80,204,32
430,431000,14,42,21,0,11,42,22,22.6749,374,0.0,0,0,0,0,0,0,0,0,-202652149,-402626190,68,374,10,80,202,45
431,432000,14,42,22,0,11,42,23,22.6892,405,0.0,0,0,0,0,0,0,0,0,-202652149,-402626113,70,405,10,80,197,168
432,433000,14,42,23,0,11,42,24,22.9166,318,0.0,0,0,0,0,0,0,0,0,-202652149,-402625999,70,318,10,80,204,91
433,434000,14,42,24,0,11,42,25,22.0218,375,0.0,0,0,0,0,0,0,0,0,-202652149,-402625923,73,375,10,80,194,10
434,435000,14,42,25,0,11,42,26,22.7979,390,0.0,0,0,0,0,0,0,0,0,-202652149,-402625808,75,390,10,80,194,139
435,436000,14,42,26,0,11,42,27,21.9062,307,0.0,0,0,0,0,0,0,0,0,-202652111,-402625732,79,307,10,80,195,74
436,437000,14,42,27,0,11,42,28,23.0807,414,0.0,0,0,0,0,0,0,0,0,-202652091,-402625617,81,414,10,80,199,151
437,438000,14,42,28,0,11,42,29,22.1974,392,0.0,0,0,0,0,0,0,0,0,-202652091,-402625541,81,392,10,80,202,164
438,439000,14,42,29,0,11,42,30,22.9521,338,0.0,0,0,0,0,0,0,0,0,-202652091,-402625427,83,338,10,80,198,155
439,440000,14,42,30,0,11,42,31,21.8802,348,0.0,0,0,0,0,0,0,0,0,-202652091,-402625350,86,348,10,80,202,237
440,441000,14,42,31,0,11,42,32,22.675,400,0.0,0,0,0,0,0,0,0,0,-202652072,-402625236,88,400,10,80,172,203
441,442000,14,42,32,0,11,42,33,21.7707,414,0.0,0,0,0,0,0,0,0,0,-202652053,-402625122,91,414,10,80,195,93
442,443000,14,42,33,0,11,42,34,22.3595,381,0.0,0,0,0,0,0,0,0,0,-202652034,-402625045,91,381,10,80,191,105
443,444000,14,42,34,0,11,42,35,23.1753,414,0.0,0,0,0,0,0,0,0,0,-202652034,-402624931,91,414,10,80,201,12
444,445000,14,42,35,0,11,42,36,22.5972,514,0.0,0,0,0,0,0,0,0,0,-202652091,-402624816,93,514,10,80,199,0
445,446000,14,42,36,0,11,42,37,21.7261,494,0.0,0,0,0,0,0,0,0,0,-202652187,-402624740,96,494,10,80,192,179
446,447000,14,42,37,0,11,42,38,22.47,446,0.0,0,0,0,0,0,0,0,0,-202652301,-402624702,96,446,10,80,202,245
447,448000,14,42,38,0,11,42,39,21.6518,496,0.0,0,0,0,0,0,0,0,0,-202652416,-402624702,98,496,10,89,205,223
448,449000,14,42,39,0,11,42,40,22.2184,522,0.0,0,0,0,0,0,0,0,0,-202652549,-402624740,101,522,10,80,206,80
449,450000,14,42,40,0,11,42,41,22.755,274,0.0,0,0,0,0,0,0,0,0,-202652626,-402624778,103,274,10,80,205,218
450,451000,14,42,41,0,11,42,42,23.2448,98,0.0,0,0,0,0,0,0,0,0,-202652664,-402624778,106,98,10,80,203,67
451,452000,14,42,42,0,11,42,43,22.8157,9,0.0,0,0,0,0,0,0,0,0,-202652664,-402624816,106,9,10,80,199,89
