PACKAGE,ELAPSED_TIME,HOUR_GPS,MIN_GPS,SEC_GPS,CENT_GPS,HOUR_PC,MIN_PC,SEC_PC,CENT_PC,VEL_RODA,ROTACAO,TEMP,FLUIDO,AX,AY,AZ,ROLL,PITCH,HEADING,LAT,LON,ALT,VEL_GPS,SAT,HDOP,RSSI,CHECKSUM
0,500,15,5,48,65,12,5,49,63.6191,0,0.0,0,0,0,0,0,0,0,0,0,0,0,0,0,15,238,139
1,1000,15,5,49,0,12,5,50,13.8937,0,0.0,0,0,0,0,0,0,0,0,0,0,0,0,0,15,239,66
2,1500,15,5,50,0,12,5,50,63.6583,0,0.0,0,0,0,0,0,0,0,0,0,0,0,0,0,15,238,58
3,2000,15,5,50,0,12,5,51,14.7208,0,0.0,0,0,0,0,0,0,0,0,0,0,0,0,0,15,239,49
4,2500,15,5,51,0,12,5,51,64.3908,0,0.0,0,0,0,0,0,0,0,0,0,0,0,0,0,15,239,41
5,3000,15,5,51,0,12,5,52,13.8483,0,0.0,0,0,0,0,0,0,0,0,0,0,0,0,0,15,239,32
6,3500,15,5,52,0,12,5,52,63.6817,0,0.0,0,0,0,0,0,0,0,0,0,0,0,0,0,15,240,24
7,4000,15,5,52,0,12,5,53,14.3683,0,0.0,0,0,0,0,0,0,0,0,0,0,0,0,7,207,239,214
8,4500,15,5,53,0,12,5,53,64.1537,18,0.0,0,0,0,0,0,0,0,0,-202654075,-402626571,0,18,7,207,239,87
9,5000,15,5,53,0,12,5,54,13.5265,18,0.0,0,0,0,0,0,0,0,0,-202654075,-402626571,81,18,10,141,239,96
10,5500,15,5,54,0,12,5,54,64.5043,266,0.0,0,0,0,0,0,0,0,0,-202653865,-402626533,81,266,10,141,238,68
11,6000,15,5,54,0,12,5,55,14.9816,266,0.0,0,0,0,0,0,0,0,0,-202653865,-402626533,141,266,10,141,239,119
12,6500,15,5,55,0,12,5,55,63.7272,209,0.0,0,0,0,0,0,0,0,0,-202653827,-402626495,141,209,10,141,240,71
13,7000,15,5,55,0,12,5,56,14.5824,209,0.0,0,0,0,0,0,0,0,0,-202653827,-402626495,133,209,10,84,240,253
14,7500,15,5,56,0,12,5,56,64.3593,253,0.0,0,0,0,0,0,0,0,0,-202653846,-402626457,133,253,10,84,240,96
15,8000,15,5,56,0,12,5,57,14.1224,253,0.0,0,0,0,0,0,0,0,0,-202653846,-402626457,126,253,10,84,240,80
16,8500,15,5,57,0,12,5,57,63.8001,262,0.0,0,0,0,0,0,0,0,0,-202653827,-402626457,126,262,10,84,240,111
17,9000,15,5,57,0,12,5,58,13.49,262,0.0,0,0,0,0,0,0,0,0,-202653827,-402626457,131,262,10,84,240,107
18,9500,15,5,58,0,12,5,58,64.4065,272,0.0,0,0,0,0,0,0,0,0,-202653846,-402626457,131,272,10,84,239,100
19,10000,15,5,58,0,12,5,59,13.9077,272,0.0,0,0,0,0,0,0,0,0,-202653846,-402626457,135,272,10,84,241,95
20,10500,15,5,59,0,12,5,59,64.8863,242,0.0,0,0,0,0,0,0,0,0,-202653827,-402626457,135,242,10,84,240,44
21,11000,15,5,59,0,12,6,0,14.2742,242,0.0,0,0,0,0,0,0,0,0,-202653827,-402626457,135,242,11,84,241,35
22,11500,15,6,0,0,12,6,0,63.8448,211,0.0,0,0,0,0,0,0,0,0,-202653846,-402626495,135,211,11,84,240,105
23,12000,15,6,0,0,12,6,1,14.8415,211,0.0,0,0,0,0,0,0,0,0,-202653846,-402626495,131,211,11,84,240,92
24,12500,15,6,1,0,12,6,1,64.2094,98,0.0,0,0,0,0,0,0,0,0,-202653865,-402626495,131,98,11,84,241,95
25,13000,15,6,1,0,12,6,2,13.685,98,0.0,0,0,0,0,0,0,0,0,-202653865,-402626495,128,98,10,84,240,82
26,13500,15,6,2,0,12,6,2,64.6608,281,0.0,0,0,0,0,0,0,0,0,-202653884,-402626457,128,281,10,84,241,205
27,14000,15,6,2,0,12,6,3,14.7798,281,0.0,0,0,0,0,0,0,0,0,-202653884,-402626457,143,281,11,84,241,212
28,14500,15,6,3,0,12,6,3,64.1104,79,0.0,0,0,0,0,0,0,0,0,-202653903,-402626457,143,79,11,84,241,35
29,15000,15,6,3,0,12,6,4,13.5343,79,0.0,0,0,0,0,0,0,0,0,-202653903,-402626457,148,79,10,89,241,35
30,15500,15,6,4,0,12,6,4,64.8062,74,0.0,0,0,0,0,0,0,0,0,-202653903,-402626457,148,74,10,89,240,17
31,16000,15,6,4,0,12,6,5,14.4347,74,0.0,0,0,0,0,0,0,0,0,-202653903,-402626457,155,74,10,89,240,15
32,16500,15,6,5,0,12,6,5,64.1461,103,0.0,0,0,0,0,0,0,0,0,-202653923,-402626457,155,103,10,89,241,45
33,17000,15,6,5,0,12,6,6,13.5855,103,0.0,0,0,0,0,0,0,0,0,-202653923,-402626457,156,103,9,89,240,36
34,17500,15,6,6,0,12,6,6,64.7686,18,0.0,0,0,0,0,0,0,0,0,-202653942,-402626495,156,18,9,89,233,57
35,18000,15,6,6,0,12,6,7,14.1105,18,0.0,0,0,0,0,0,0,0,0,-202653942,-402626495,161,18,9,89,217,53
36,18500,15,6,7,0,12,6,7,63.8652,50,0.0,0,0,0,0,0,0,0,0,-202653942,-402626495,161,50,9,89,234,109
37,19000,15,6,7,0,12,6,8,13.7308,50,0.0,0,0,0,0,0,0,0,0,-202653942,-402626495,166,50,10,89,237,106
38,19500,15,6,8,0,12,6,8,64.6487,194,0.0,0,0,0,0,0,0,0,0,-202653903,-402626533,166,194,10,89,234,131
39,20000,15,6,8,0,12,6,9,14.6474,194,0.0,0,0,0,0,0,0,0,0,-202653903,-402626533,182,194,11,89,227,139
40,20500,15,6,9,0,12,6,9,64.5936,79,0.0,0,0,0,0,0,0,0,0,-202653923,-402626571,182,79,11,89,231,98
41,21000,15,6,9,0,12,6,10,14.4754,79,0.0,0,0,0,0,0,0,0,0,-202653923,-402626571,193,79,10,89,224,99
42,21500,15,6,10,0,12,6,10,64.0353,466,0.0,0,0,0,0,0,0,0,0,-202653865,-402626686,193,466,10,89,224,41
43,22000,15,6,10,0,12,6,11,15.0124,466,0.0,0,0,0,0,0,0,0,0,-202653865,-402626686,207,466,11,84,226,42
44,22500,15,6,11,0,12,6,11,64.0127,863,0.0,0,0,0,0,0,0,0,0,-202653827,-402626914,207,863,11,84,226,129
45,23000,15,6,11,0,12,6,12,14.1938,863,0.0,0,0,0,0,0,0,0,0,-202653827,-402626914,220,863,11,84,226,133
46,23500,15,6,12,0,12,6,12,63.6764,976,0.0,0,0,0,0,0,0,0,0,-202653903,-402627143,220,976,11,84,220,45
47,24000,15,6,12,0,12,6,13,13.6819,976,0.0,0,0,0,0,0,0,0,0,-202653903,-402627143,232,976,11,75,229,39
48,24500,15,6,13,0,12,6,13,65.0836,340,0.0,0,0,0,0,0,0,0,0,-202654018,-402627143,232,340,11,75,231,175
49,25000,15,6,13,0,12,6,14,14.3063,340,0.0,0,0,0,0,0,0,0,0,-202654018,-402627143,233,340,11,75,235,167
50,25500,15,6,14,0,12,6,14,64.0571,83,0.0,0,0,0,0,0,0,0,0,-202654094,-402627067,233,83,11,75,224,156
51,26000,15,6,14,0,12,6,15,14.9991,83,0.0,0,0,0,0,0,0,0,0,-202654094,-402627067,216,83,11,75,220,130
52,26500,15,6,15,0,12,6,15,64.3733,209,0.0,0,0,0,0,0,0,0,0,-202654132,-402626991,216,209,11,75,229,156
53,27000,15,6,15,0,12,6,16,13.6544,209,0.0,0,0,0,0,0,0,0,0,-202654132,-402626991,207,209,11,75,225,138
54,27500,15,6,16,0,12,6,16,64.3585,188,0.0,0,0,0,0,0,0,0,0,-202654151,-402626914,207,188,11,75,228,146
55,28000,15,6,16,0,12,6,17,14.0257,188,0.0,0,0,0,0,0,0,0,0,-202654151,-402626914,202,188,11,75,223,132
56,28500,15,6,17,0,12,6,17,63.9777,250,0.0,0,0,0,0,0,0,0,0,-202654132,-402626838,202,250,11,75,226,87
57,29000,15,6,17,0,12,6,18,13.6647,250,0.0,0,0,0,0,0,0,0,0,-202654132,-402626838,195,250,11,75,221,71
58,29500,15,6,18,0,12,6,18,64.5802,212,0.0,0,0,0,0,0,0,0,0,-202654113,-402626762,195,212,11,75,216,83
59,30000,15,6,18,0,12,6,19,14.0852,212,0.0,0,0,0,0,0,0,0,0,-202654113,-402626762,191,212,11,75,218,70
60,30500,15,6,19,0,12,6,19,64.0701,159,0.0,0,0,0,0,0,0,0,0,-202654094,-402626686,191,159,11,75,212,51
61,31000,15,6,19,0,12,6,20,14.1019,159,0.0,0,0,0,0,0,0,0,0,-202654094,-402626686,182,159,11,75,220,33
62,31500,15,6,20,0,12,6,20,65.1025,361,0.0,0,0,0,0,0,0,0,0,-202654056,-402626609,182,361,11,75,213,34
63,32000,15,6,20,0,12,6,21,13.7547,361,0.0,0,0,0,0,0,0,0,0,-202654056,-402626609,176,361,11,75,205,19
64,32500,15,6,21,0,12,6,21,64.8327,440,0.0,0,0,0,0,0,0,0,0,-202654018,-402626495,176,440,11,75,212,65
65,33000,15,6,21,0,12,6,22,14.2245,440,0.0,0,0,0,0,0,0,0,0,-202654018,-402626495,172,440,11,75,207,52
66,33500,15,6,22,0,12,6,22,63.8052,411,0.0,0,0,0,0,0,0,0,0,-202653999,-402626380,172,411,11,75,211,120
67,34000,15,6,22,0,12,6,23,14.7643,411,0.0,0,0,0,0,0,0,0,0,-202653999,-402626380,171,411,11,75,209,110
68,34500,15,6,23,0,12,6,23,64.3571,394,0.0,0,0,0,0,0,0,0,0,-202653980,-402626266,171,394,11,75,203,202
69,35000,15,6,23,0,12,6,24,14.1286,394,0.0,0,0,0,0,0,0,0,0,-202653980,-402626266,167,394,11,75,194,189
70,35500,15,6,24,0,12,6,24,63.5978,422,0.0,0,0,0,0,0,0,0,0,-202653961,-402626152,167,422,11,75,208,114
71,36000,15,6,24,0,12,6,25,14.3712,422,0.0,0,0,0,0,0,0,0,0,-202653961,-402626152,167,422,11,75,202,105
72,36500,15,6,25,0,12,6,25,64.1316,264,0.0,0,0,0,0,0,0,0,0,-202653961,-402626037,167,264,11,75,203,153
73,37000,15,6,25,0,12,6,26,14.8056,264,0.0,0,0,0,0,0,0,0,0,-202653961,-402626037,158,264,11,75,206,135
74,37500,15,6,26,0,12,6,26,64.8462,285,0.0,0,0,0,0,0,0,0,0,-202653942,-402625961,158,285,11,75,203,9
75,38000,15,6,26,0,12,6,27,14.3984,285,0.0,0,0,0,0,0,0,0,0,-202653942,-402625961,155,285,11,75,201,253
76,38500,15,6,27,0,12,6,27,64.7967,390,0.0,0,0,0,0,0,0,0,0,-202653903,-402625885,155,390,11,75,208,58
77,39000,15,6,27,0,12,6,28,15.121,390,0.0,0,0,0,0,0,0,0,0,-202653903,-402625885,151,390,11,75,203,45
78,39500,15,6,28,0,12,6,28,64.9731,429,0.0,0,0,0,0,0,0,0,0,-202653865,-402625770,151,429,11,75,189,13
79,40000,15,6,28,0,12,6,29,14.9083,429,0.0,0,0,0,0,0,0,0,0,-202653865,-402625770,146,429,11,75,196,255
80,40500,15,6,29,0,12,6,29,64.5712,418,0.0,0,0,0,0,0,0,0,0,-202653827,-402625656,146,418,11,75,201,121
81,41000,15,6,29,0,12,6,30,14.7252,418,0.0,0,0,0,0,0,0,0,0,-202653827,-402625656,141,418,11,75,197,107
82,41500,15,6,30,0,12,6,30,63.9863,366,0.0,0,0,0,0,0,0,0,0,-202653808,-402625579,141,366,11,75,198,91
83,42000,15,6,30,0,12,6,31,15.0295,366,0.0,0,0,0,0,0,0,0,0,-202653808,-402625579,138,366,11,75,195,79
85,43000,15,6,31,0,12,6,32,14.0644,366,0.0,0,0,0,0,0,0,0,0,-202653789,-402625465,136,366,11,75,195,193
86,43500,15,6,32,0,12,6,32,64.2008,322,0.0,0,0,0,0,0,0,0,0,-202653751,-402625389,136,322,11,75,195,211
87,44000,15,6,32,0,12,6,33,14.3589,322,0.0,0,0,0,0,0,0,0,0,-202653751,-402625389,131,322,11,75,189,197
88,44500,15,6,33,0,12,6,33,63.7755,394,0.0,0,0,0,0,0,0,0,0,-202653694,-402625274,131,394,11,75,195,251
89,45000,15,6,33,0,12,6,34,14.8688,394,0.0,0,0,0,0,0,0,0,0,-202653694,-402625274,131,394,11,75,192,242
91,46000,15,6,34,0,12,6,35,14.1764,392,0.0,0,0,0,0,0,0,0,0,-202653675,-402625160,133,392,11,75,198,100
104,52500,15,6,41,0,12,6,41,64.4021,448,0.0,0,0,0,0,0,0,0,0,-202653484,-402624359,126,448,11,75,184,66
116,58500,15,6,47,0,12,6,47,63.744,425,0.0,0,0,0,0,0,0,0,0,-202653274,-402623634,116,425,11,75,184,78
117,59000,15,6,47,0,12,6,48,14.7823,425,0.0,0,0,0,0,0,0,0,0,-202653274,-402623634,111,425,11,75,177,64
118,59500,15,6,48,0,12,6,48,64.7037,390,0.0,0,0,0,0,0,0,0,0,-202653198,-402623558,111,390,11,75,176,138
119,60000,15,6,48,0,12,6,49,15.1958,390,0.0,0,0,0,0,0,0,0,0,-202653198,-402623558,110,390,11,75,181,128
120,60500,15,6,49,0,12,6,49,64.838,416,0.0,0,0,0,0,0,0,0,0,-202653102,-402623481,110,416,11,75,186,91
121,61000,15,6,49,0,12,6,50,14.3687,416,0.0,0,0,0,0,0,0,0,0,-202653102,-402623481,108,416,11,75,177,80
123,62000,15,6,50,0,12,6,51,14.9689,362,0.0,0,0,0,0,0,0,0,0,-202653026,-402623481,111,362,11,75,171,34
124,62500,15,6,51,0,12,6,51,64.379,416,0.0,0,0,0,0,0,0,0,0,-202652912,-402623481,111,416,11,75,168,249
125,63000,15,6,51,0,12,6,52,13.9335,416,0.0,0,0,0,0,0,0,0,0,-202652912,-402623481,113,416,11,75,180,242
126,63500,15,6,52,0,12,6,52,64.8047,450,0.0,0,0,0,0,0,0,0,0,-202652797,-402623481,113,450,11,75,163,161
127,64000,15,6,52,0,12,6,53,14.3436,450,0.0,0,0,0,0,0,0,0,0,-202652797,-402623481,116,450,11,75,171,155
128,64500,15,6,53,0,12,6,53,65.0733,427,0.0,0,0,0,0,0,0,0,0,-202652702,-402623481,116,427,11,75,164,195
129,65000,15,6,53,0,12,6,54,15.213,427,0.0,0,0,0,0,0,0,0,0,-202652702,-402623481,116,427,11,75,172,186
130,65500,15,6,54,0,12,6,54,64.2248,444,0.0,0,0,0,0,0,0,0,0,-202652606,-402623519,116,444,11,75,173,14
131,66000,15,6,54,0,12,6,55,13.8226,444,0.0,0,0,0,0,0,0,0,0,-202652606,-402623519,115,444,11,75,177,5
132,66500,15,6,55,0,12,6,55,64.0951,709,0.0,0,0,0,0,0,0,0,0,-202652454,-402623558,115,709,11,75,175,130
133,67000,15,6,55,0,12,6,56,14.7136,709,0.0,0,0,0,0,0,0,0,0,-202652454,-402623558,113,709,11,75,178,119
134,67500,15,6,56,0,12,6,56,64.0426,451,0.0,0,0,0,0,0,0,0,0,-202652339,-402623596,113,451,11,75,173,183
135,68000,15,6,56,0,12,6,57,15.0424,451,0.0,0,0,0,0,0,0,0,0,-202652339,-402623596,113,451,11,75,180,174
136,68500,15,6,57,0,12,6,57,65.1654,461,0.0,0,0,0,0,0,0,0,0,-202652225,-402623596,113,461,11,75,178,44
137,69000,15,6,57,0,12,6,58,14.3126,461,0.0,0,0,0,0,0,0,0,0,-202652225,-402623596,113,461,11,75,173,35
138,69500,15,6,58,0,12,6,58,64.6677,490,0.0,0,0,0,0,0,0,0,0,-202652091,-402623634,113,490,11,75,177,182
139,70000,15,6,58,0,12,6,59,14.4936,490,0.0,0,0,0,0,0,0,0,0,-202652091,-402623634,111,490,11,75,179,171
140,70500,15,6,59,0,12,6,59,65.2545,592,0.0,0,0,0,0,0,0,0,0,-202651958,-402623710,111,592,11,75,183,170
141,71000,15,6,59,0,12,7,0,14.391,592,0.0,0,0,0,0,0,0,0,0,-202651958,-402623710,108,592,11,75,178,158
142,71500,15,7,0,0,12,7,0,64.2117,540,0.0,0,0,0,0,0,0,0,0,-202651844,-402623748,108,540,11,75,179,63
143,72000,15,7,0,0,12,7,1,15.2584,540,0.0,0,0,0,0,0,0,0,0,-202651844,-402623748,106,540,11,75,177,52
144,72500,15,7,1,0,12,7,1,64.9236,477,0.0,0,0,0,0,0,0,0,0,-202651729,-402623825,106,477,11,75,173,210
145,73000,15,7,1,0,12,7,2,14.6146,477,0.0,0,0,0,0,0,0,0,0,-202651729,-402623825,103,477,11,75,177,198
146,73500,15,7,2,0,12,7,2,63.9864,394,0.0,0,0,0,0,0,0,0,0,-202651634,-402623863,103,394,11,75,181,82
147,74000,15,7,2,0,12,7,3,15.1,394,0.0,0,0,0,0,0,0,0,0,-202651634,-402623863,105,394,11,75,179,75
148,74500,15,7,3,0,12,7,3,64.7098,442,0.0,0,0,0,0,0,0,0,0,-202651538,-402623901,105,442,11,75,185,221
149,75000,15,7,3,0,12,7,4,14.187,442,0.0,0,0,0,0,0,0,0,0,-202651538,-402623901,106,442,11,75,183,212
150,75500,15,7,4,0,12,7,4,64.9376,459,0.0,0,0,0,0,0,0,0,0,-202651443,-402623977,106,459,11,75,178,1
151,76000,15,7,4,0,12,7,5,15.1855,459,0.0,0,0,0,0,0,0,0,0,-202651443,-402623977,106,459,11,75,183,248
152,76500,15,7,5,0,12,7,5,65.0318,488,0.0,0,0,0,0,0,0,0,0,-202651348,-402624053,106,488,11,75,184,61
153,77000,15,7,5,0,12,7,6,14.4089,488,0.0,0,0,0,0,0,0,0,0,-202651348,-402624053,108,488,11,75,180,54
154,77500,15,7,6,0,12,7,6,63.8442,455,0.0,0,0,0,0,0,0,0,0,-202651252,-402624130,108,455,11,75,183,255
155,78000,15,7,6,0,12,7,7,15.0053,455,0.0,0,0,0,0,0,0,0,0,-202651252,-402624130,108,455,11,75,180,246
156,78500,15,7,7,0,12,7,7,64.5821,448,0.0,0,0,0,0,0,0,0,0,-202651195,-402624206,108,448,11,75,180,205
157,79000,15,7,7,0,12,7,8,14.2978,448,0.0,0,0,0,0,0,0,0,0,-202651195,-402624206,110,448,11,75,181,198
158,79500,15,7,8,0,12,7,8,65.2379,431,0.0,0,0,0,0,0,0,0,0,-202651119,-402624320,110,431,11,75,187,118
159,80000,15,7,8,0,12,7,9,14.7345,431,0.0,0,0,0,0,0,0,0,0,-202651119,-402624320,110,431,11,75,189,109
160,80500,15,7,9,0,12,7,9,65.2152,444,0.0,0,0,0,0,0,0,0,0,-202651081,-402624397,110,444,11,75,186,88
161,81000,15,7,9,0,12,7,10,14.1839,444,0.0,0,0,0,0,0,0,0,0,-202651081,-402624397,108,444,11,75,188,77
162,81500,15,7,10,0,12,7,10,65.0951,396,0.0,0,0,0,0,0,0,0,0,-202651062,-402624511,108,396,11,75,180,134
163,82000,15,7,10,0,12,7,11,14.5001,396,0.0,0,0,0,0,0,0,0,0,-202651062,-402624511,111,396,10,80,187,132
164,82500,15,7,11,0,12,7,11,64.409,414,0.0,0,0,0,0,0,0,0,0,-202651062,-402624588,111,414,10,80,185,82
165,83000,15,7,11,0,12,7,12,14.506,414,0.0,0,0,0,0,0,0,0,0,-202651062,-402624588,111,414,10,80,187,73
166,83500,15,7,12,0,12,7,12,64.4311,407,0.0,0,0,0,0,0,0,0,0,-202651100,-402624702,111,407,10,80,178,155
167,84000,15,7,12,0,12,7,13,13.8657,407,0.0,0,0,0,0,0,0,0,0,-202651100,-402624702,111,407,10,80,185,146
168,84500,15,7,13,0,12,7,13,64.8444,407,0.0,0,0,0,0,0,0,0,0,-202651138,-402624778,111,407,10,80,181,22
169,85000,15,7,13,0,12,7,14,14.9907,407,0.0,0,0,0,0,0,0,0,0,-202651138,-402624778,111,407,11,80,174,14
170,85500,15,7,14,0,12,7,14,64.0248,429,0.0,0,0,0,0,0,0,0,0,-202651176,-402624855,111,429,11,80,186,190
171,86000,15,7,14,0,12,7,15,14.3423,429,0.0,0,0,0,0,0,0,0,0,-202651176,-402624855,113,429,11,75,181,178
172,86500,15,7,15,0,12,7,15,64.3394,453,0.0,0,0,0,0,0,0,0,0,-202651252,-402624969,113,453,11,75,169,28
173,87000,15,7,15,0,12,7,16,13.9602,453,0.0,0,0,0,0,0,0,0,0,-202651252,-402624969,113,453,11,75,179,19
174,87500,15,7,16,0,12,7,16,64.3799,442,0.0,0,0,0,0,0,0,0,0,-202651309,-402625045,113,442,11,75,187,111
175,88000,15,7,16,0,12,7,17,14.552,442,0.0,0,0,0,0,0,0,0,0,-202651309,-402625045,113,442,11,75,185,102
176,88500,15,7,17,0,12,7,17,64.2178,483,0.0,0,0,0,0,0,0,0,0,-202651367,-402625160,113,483,11,75,179,3
177,89000,15,7,17,0,12,7,18,15.1962,483,0.0,0,0,0,0,0,0,0,0,-202651367,-402625160,111,483,11,75,192,248
178,89500,15,7,18,0,12,7,18,64.5908,474,0.0,0,0,0,0,0,0,0,0,-202651424,-402625236,111,474,11,75,187,88
179,90000,15,7,18,0,12,7,19,14.095,474,0.0,0,0,0,0,0,0,0,0,-202651424,-402625236,108,474,11,75,185,76
180,90500,15,7,19,0,12,7,19,65.0935,477,0.0,0,0,0,0,0,0,0,0,-202651481,-402625350,108,477,11,75,179,158
181,91000,15,7,19,0,12,7,20,14.4511,477,0.0,0,0,0,0,0,0,0,0,-202651481,-402625350,108,477,11,75,189,149
182,91500,15,7,20,0,12,7,20,64.4298,500,0.0,0,0,0,0,0,0,0,0,-202651538,-402625465,108,500,11,75,190,15
183,92000,15,7,20,0,12,7,21,14.9232,500,0.0,0,0,0,0,0,0,0,0,-202651538,-402625465,108,500,11,75,194,6
184,92500,15,7,21,0,12,7,21,65.3491,494,0.0,0,0,0,0,0,0,0,0,-202651576,-402625617,108,494,11,75,198,51
185,93000,15,7,21,0,12,7,22,15.2485,494,0.0,0,0,0,0,0,0,0,0,-202651576,-402625617,108,494,11,75,195,42
186,93500,15,7,22,0,12,7,22,65.414,485,0.0,0,0,0,0,0,0,0,0,-202651615,-402625732,108,485,11,75,200,118
187,94000,15,7,22,0,12,7,23,14.9193,485,0.0,0,0,0,0,0,0,0,0,-202651615,-402625732,108,485,11,75,200,109
188,94500,15,7,23,0,12,7,23,64.3616,509,0.0,0,0,0,0,0,0,0,0,-202651653,-402625846,108,509,11,75,195,251
189,95000,15,7,23,0,12,7,24,14.7272,509,0.0,0,0,0,0,0,0,0,0,-202651653,-402625846,108,509,11,75,197,242
190,95500,15,7,24,0,12,7,24,64.3699,492,0.0,0,0,0,0,0,0,0,0,-202651691,-402625961,108,492,11,75,202,47
191,96000,15,7,24,0,12,7,25,15.3432,492,0.0,0,0,0,0,0,0,0,0,-202651691,-402625961,110,492,11,75,201,40
192,96500,15,7,25,0,12,7,25,64.1305,513,0.0,0,0,0,0,0,0,0,0,-202651710,-402626113,110,513,11,75,196,159
193,97000,15,7,25,0,12,7,26,14.3576,513,0.0,0,0,0,0,0,0,0,0,-202651710,-402626113,108,513,11,75,199,148
194,97500,15,7,26,0,12,7,26,63.9825,492,0.0,0,0,0,0,0,0,0,0,-202651729,-402626228,108,492,11,75,206,218
195,98000,15,7,26,0,12,7,27,15.0778,492,0.0,0,0,0,0,0,0,0,0,-202651729,-402626228,108,492,11,75,203,209
196,98500,15,7,27,0,12,7,27,64.728,488,0.0,0,0,0,0,0,0,0,0,-202651748,-402626342,108,488,11,75,197,59
197,99000,15,7,27,0,12,7,28,14.2556,488,0.0,0,0,0,0,0,0,0,0,-202651748,-402626342,108,488,11,75,195,50
198,99500,15,7,28,0,12,7,28,65.2581,477,0.0,0,0,0,0,0,0,0,0,-202651748,-402626457,108,477,11,75,203,161
199,100000,15,7,28,0,12,7,29,14.6319,477,0.0,0,0,0,0,0,0,0,0,-202651748,-402626457,108,477,11,75,203,152
200,100500,15,7,29,0,12,7,29,64.6189,479,0.0,0,0,0,0,0,0,0,0,-202651748,-402626609,108,479,11,75,196,251
201,101000,15,7,29,0,12,7,30,15.1666,479,0.0,0,0,0,0,0,0,0,0,-202651748,-402626609,108,479,11,75,195,242
202,101500,15,7,30,0,12,7,30,65.2912,475,0.0,0,0,0,0,0,0,0,0,-202651786,-402626724,108,475,11,75,202,73
203,102000,15,7,30,0,12,7,31,14.6304,475,0.0,0,0,0,0,0,0,0,0,-202651786,-402626724,108,475,11,75,194,64
204,102500,15,7,31,0,12,7,31,64.0754,509,0.0,0,0,0,0,0,0,0,0,-202651805,-402626838,108,509,11,75,191,246
205,103000,15,7,31,0,12,7,32,15.0395,509,0.0,0,0,0,0,0,0,0,0,-202651805,-402626838,106,509,11,75,203,235
206,103500,15,7,32,0,12,7,32,64.378,501,0.0,0,0,0,0,0,0,0,0,-202651824,-402626953,106,501,11,75,204,77
207,104000,15,7,32,0,12,7,33,14.938,501,0.0,0,0,0,0,0,0,0,0,-202651824,-402626953,106,501,11,75,202,68
208,104500,15,7,33,0,12,7,33,64.5379,474,0.0,0,0,0,0,0,0,0,0,-202651863,-402627105,106,474,11,75,200,70
209,105000,15,7,33,0,12,7,34,14.1881,474,0.0,0,0,0,0,0,0,0,0,-202651863,-402627105,106,474,11,75,201,61
210,105500,15,7,34,0,12,7,34,65.2582,390,0.0,0,0,0,0,0,0,0,0,-202651920,-402627182,106,390,11,75,204,6
211,106000,15,7,34,0,12,7,35,15.4539,390,0.0,0,0,0,0,0,0,0,0,-202651920,-402627182,106,390,11,75,203,253
212,106500,15,7,35,0,12,7,35,64.2318,342,0.0,0,0,0,0,0,0,0,0,-202651996,-402627220,106,342,11,75,194,35
213,107000,15,7,35,0,12,7,36,15.2155,342,0.0,0,0,0,0,0,0,0,0,-202651996,-402627220,106,342,11,75,197,25
214,107500,15,7,36,0,12,7,36,64.6429,350,0.0,0,0,0,0,0,0,0,0,-202652091,-402627220,106,350,11,75,202,194
215,108000,15,7,36,0,12,7,37,14.8715,350,0.0,0,0,0,0,0,0,0,0,-202652091,-402627220,106,350,11,75,201,185
216,108500,15,7,37,0,12,7,37,65.0678,403,0.0,0,0,0,0,0,0,0,0,-202652168,-402627143,106,403,11,75,191,26
217,109000,15,7,37,0,12,7,38,14.665,403,0.0,0,0,0,0,0,0,0,0,-202652168,-402627143,106,403,11,75,188,17
218,109500,15,7,38,0,12,7,38,64.4113,435,0.0,0,0,0,0,0,0,0,0,-202652225,-402627067,106,435,11,75,197,93
219,110000,15,7,38,0,12,7,39,14.0732,435,0.0,0,0,0,0,0,0,0,0,-202652225,-402627067,108,435,11,75,207,86
220,110500,15,7,39,0,12,7,39,64.2441,411,0.0,0,0,0,0,0,0,0,0,-202652263,-402626953,108,411,11,75,213,106
221,111000,15,7,39,0,12,7,40,15.0466,411,0.0,0,0,0,0,0,0,0,0,-202652263,-402626953,108,411,11,75,208,97
222,111500,15,7,40,0,12,7,40,64.9894,407,0.0,0,0,0,0,0,0,0,0,-202652263,-402626838,108,407,11,75,207,196
223,112000,15,7,40,0,12,7,41,14.6334,407,0.0,0,0,0,0,0,0,0,0,-202652263,-402626838,110,407,11,75,197,189
224,112500,15,7,41,0,12,7,41,64.2708,420,0.0,0,0,0,0,0,0,0,0,-202652263,-402626724,110,420,11,75,202,66
225,113000,15,7,41,0,12,7,42,14.6098,420,0.0,0,0,0,0,0,0,0,0,-202652263,-402626724,111,420,11,75,208,58
226,113500,15,7,42,0,12,7,42,64.5529,461,0.0,0,0,0,0,0,0,0,0,-202652263,-402626609,111,461,11,75,210,247
227,114000,15,7,42,0,12,7,43,14.4579,461,0.0,0,0,0,0,0,0,0,0,-202652263,-402626609,110,461,11,75,214,237
228,114500,15,7,43,0,12,7,43,64.2003,411,0.0,0,0,0,0,0,0,0,0,-202652263,-402626495,110,411,11,75,214,244
229,115000,15,7,43,0,12,7,44,14.0909,411,0.0,0,0,0,0,0,0,0,0,-202652263,-402626495,111,411,11,75,208,236
230,115500,15,7,44,0,12,7,44,64.9619,266,0.0,0,0,0,0,0,0,0,0,-202652244,-402626419,111,266,11,75,210,33
231,116000,15,7,44,0,12,7,45,14.3234,266,0.0,0,0,0,0,0,0,0,0,-202652244,-402626419,113,266,11,75,208,26
232,116500,15,7,45,0,12,7,45,63.8365,283,0.0,0,0,0,0,0,0,0,0,-202652225,-402626342,113,283,11,75,205,148
233,117000,15,7,45,0,12,7,46,14.7837,283,0.0,0,0,0,0,0,0,0,0,-202652225,-402626342,115,283,11,75,210,141
234,117500,15,7,46,0,12,7,46,65.1888,335,0.0,0,0,0,0,0,0,0,0,-202652225,-402626228,115,335,11,75,205,95
235,118000,15,7,46,0,12,7,47,15.3316,335,0.0,0,0,0,0,0,0,0,0,-202652225,-402626228,116,335,10,80,209,91
236,118500,15,7,47,0,12,7,47,64.7264,394,0.0,0,0,0,0,0,0,0,0,-202652206,-402626152,116,394,10,80,203,40
237,119000,15,7,47,0,12,7,48,14.113,394,0.0,0,0,0,0,0,0,0,0,-202652206,-402626152,116,394,11,75,208,27
238,119500,15,7,48,0,12,7,48,64.1128,364,0.0,0,0,0,0,0,0,0,0,-202652187,-402626037,116,364,11,75,203,94
239,120000,15,7,48,0,12,7,49,14.4169,364,0.0,0,0,0,0,0,0,0,0,-202652187,-402626037,118,364,11,75,203,87
240,120500,15,7,49,0,12,7,49,64.0443,396,0.0,0,0,0,0,0,0,0,0,-202652187,-402625923,118,396,11,75,194,1
243,122000,15,7,50,0,12,7,51,14.8854,340,0.0,0,0,0,0,0,0,0,0,-202652168,-402625846,121,340,10,88,203,230
244,122500,15,7,51,0,12,7,51,64.9315,361,0.0,0,0,0,0,0,0,0,0,-202652149,-402625732,121,361,10,88,199,143
245,123000,15,7,51,0,12,7,52,14.3954,361,0.0,0,0,0,0,0,0,0,0,-202652149,-402625732,123,361,11,75,203,124
246,123500,15,7,52,0,12,7,52,65.2999,338,0.0,0,0,0,0,0,0,0,0,-202652130,-402625656,123,338,11,75,202,165
247,124000,15,7,52,0,12,7,53,14.7628,338,0.0,0,0,0,0,0,0,0,0,-202652130,-402625656,123,338,11,80,197,161
248,124500,15,7,53,0,12,7,53,64.3506,335,0.0,0,0,0,0,0,0,0,0,-202652130,-402625579,123,335,11,80,195,224
249,125000,15,7,53,0,12,7,54,14.0223,335,0.0,0,0,0,0,0,0,0,0,-202652130,-402625579,126,335,11,75,193,213
250,125500,15,7,54,0,12,7,54,64.9868,331,0.0,0,0,0,0,0,0,0,0,-202652111,-402625465,126,331,11,75,188,75
251,126000,15,7,54,0,12,7,55,14.6808,331,0.0,0,0,0,0,0,0,0,0,-202652111,-402625465,128,331,11,75,184,68
252,126500,15,7,55,0,12,7,55,65.2415,261,0.0,0,0,0,0,0,0,0,0,-202652111,-402625389,128,261,11,75,191,252
253,127000,15,7,55,0,12,7,56,15.0705,261,0.0,0,0,0,0,0,0,0,0,-202652111,-402625389,130,261,11,75,185,245
254,127500,15,7,56,0,12,7,56,65.1856,262,0.0,0,0,0,0,0,0,0,0,-202652111,-402625350,130,262,11,75,193,22
255,128000,15,7,56,0,12,7,57,14.6468,262,0.0,0,0,0,0,0,0,0,0,-202652111,-402625350,130,262,11,80,192,18
256,128500,15,7,57,0,12,7,57,64.0589,322,0.0,0,0,0,0,0,0,0,0,-202652130,-402625236,130,322,11,80,191,226
257,129000,15,7,57,0,12,7,58,14.784,322,0.0,0,0,0,0,0,0,0,0,-202652130,-402625236,128,322,11,90,187,225
258,129500,15,7,58,0,12,7,58,64.9937,437,0.0,0,0,0,0,0,0,0,0,-202652111,-402625160,128,437,11,90,192,30
259,130000,15,7,58,0,12,7,59,14.668,437,0.0,0,0,0,0,0,0,0,0,-202652111,-402625160,128,437,11,75,195,6
260,130500,15,7,59,0,12,7,59,64.1412,407,0.0,0,0,0,0,0,0,0,0,-202652111,-402625045,128,407,11,75,191,53
261,131000,15,7,59,0,12,8,0,15.1699,407,0.0,0,0,0,0,0,0,0,0,-202652111,-402625045,130,407,11,75,197,46
262,131500,15,8,0,0,12,8,0,65.4739,433,0.0,0,0,0,0,0,0,0,0,-202652111,-402624931,130,433,11,75,205,147
263,132000,15,8,0,0,12,8,1,14.2883,433,0.0,0,0,0,0,0,0,0,0,-202652111,-402624931,131,433,11,75,212,139
264,132500,15,8,1,0,12,8,1,64.9915,451,0.0,0,0,0,0,0,0,0,0,-202652149,-402624816,131,451,11,75,208,244
265,133000,15,8,1,0,12,8,2,15.1062,451,0.0,0,0,0,0,0,0,0,0,-202652149,-402624816,131,451,11,75,208,235
266,133500,15,8,2,0,12,8,2,65.2998,403,0.0,0,0,0,0,0,0,0,0,-202652225,-402624740,131,403,11,75,207,131
267,134000,15,8,2,0,12,8,3,15.1213,403,0.0,0,0,0,0,0,0,0,0,-202652225,-402624740,131,403,11,75,203,122
268,134500,15,8,3,0,12,8,3,64.7317,440,0.0,0,0,0,0,0,0,0,0,-202652339,-402624702,131,440,11,75,196,112
269,135000,15,8,3,0,12,8,4,14.1272,440,0.0,0,0,0,0,0,0,0,0,-202652339,-402624702,133,440,11,75,197,105
270,135500,15,8,4,0,12,8,4,65.1002,405,0.0,0,0,0,0,0,0,0,0,-202652435,-402624664,133,405,11,75,203,224
271,136000,15,8,4,0,12,8,5,15.4187,405,0.0,0,0,0,0,0,0,0,0,-202652435,-402624664,138,405,11,75,204,220
272,136500,15,8,5,0,12,8,5,64.1711,494,0.0,0,0,0,0,0,0,0,0,-202652549,-402624740,138,494,11,75,201,200
273,137000,15,8,5,0,12,8,6,15.442,494,0.0,0,0,0,0,0,0,0,0,-202652549,-402624740,140,494,11,75,199,193
274,137500,15,8,6,0,12,8,6,65.2085,355,0.0,0,0,0,0,0,0,0,0,-202652626,-402624778,140,355,11,75,194,47
275,138000,15,8,6,0,12,8,7,15.1771,355,0.0,0,0,0,0,0,0,0,0,-202652626,-402624778,141,355,11,75,197,39
276,138500,15,8,7,0,12,8,7,64.5906,238,0.0,0,0,0,0,0,0,0,0,-202652664,-402624816,141,238,11,75,199,231
277,139000,15,8,7,0,12,8,8,14.1474,238,0.0,0,0,0,0,0,0,0,0,-202652664,-402624816,141,238,11,75,198,221
278,139500,15,8,8,0,12,8,8,65.1915,224,0.0,0,0,0,0,0,0,0,0,-202652683,-402624893,141,224,11,75,197,88
279,140000,15,8,8,0,12,8,9,14.3898,224,0.0,0,0,0,0,0,0,0,0,-202652683,-402624893,136,224,11,75,196,74
280,140500,15,8,9,0,12,8,9,65.2851,361,0.0,0,0,0,0,0,0,0,0,-202652721,-402624969,136,361,11,75,192,228
281,141000,15,8,9,0,12,8,10,15.4633,361,0.0,0,0,0,0,0,0,0,0,-202652721,-402624969,133,361,11,75,187,216
282,141500,15,8,10,0,12,8,10,65.0401,438,0.0,0,0,0,0,0,0,0,0,-202652778,-402625045,133,438,11,75,186,228
283,142000,15,8,10,0,12,8,11,14.7665,438,0.0,0,0,0,0,0,0,0,0,-202652778,-402625045,131,438,11,75,192,217
284,142500,15,8,11,0,12,8,11,64.3342,446,0.0,0,0,0,0,0,0,0,0,-202652835,-402625160,131,446,11,75,204,53
285,143000,15,8,11,0,12,8,12,14.0073,446,0.0,0,0,0,0,0,0,0,0,-202652835,-402625160,128,446,11,75,201,41
286,143500,15,8,12,0,12,8,12,65.5,435,0.0,0,0,0,0,0,0,0,0,-202652873,-402625274,128,435,11,75,202,115
287,144000,15,8,12,0,12,8,13,14.8695,435,0.0,0,0,0,0,0,0,0,0,-202652873,-402625274,128,435,11,75,198,106
288,144500,15,8,13,0,12,8,13,64.2813,355,0.0,0,0,0,0,0,0,0,0,-202652912,-402625350,128,355,11,75,203,78
289,145000,15,8,13,0,12,8,14,15.2947,355,0.0,0,0,0,0,0,0,0,0,-202652912,-402625350,128,355,11,75,207,69
290,145500,15,8,14,0,12,8,14,64.8672,362,0.0,0,0,0,0,0,0,0,0,-202652950,-402625427,128,362,11,75,202,215
291,146000,15,8,14,0,12,8,15,14.3601,362,0.0,0,0,0,0,0,0,0,0,-202652950,-402625427,126,362,11,75,201,204
292,146500,15,8,15,0,12,8,15,65.3534,350,0.0,0,0,0,0,0,0,0,0,-202652988,-402625503,126,350,11,75,212,58
294,147500,15,8,16,0,12,8,16,64.1492,327,0.0,0,0,0,0,0,0,0,0,-202653026,-402625617,123,327,11,75,211,95
295,148000,15,8,16,0,12,8,17,14.7021,327,0.0,0,0,0,0,0,0,0,0,-202653026,-402625617,121,327,11,75,209,84
296,148500,15,8,17,0,12,8,17,64.0339,379,0.0,0,0,0,0,0,0,0,0,-202653045,-402625694,121,379,11,75,210,84
300,150500,15,8,19,0,12,8,19,65.3971,425,0.0,0,0,0,0,0,0,0,0,-202653083,-402625923,115,425,11,75,211,123
301,151000,15,8,19,0,12,8,20,14.828,425,0.0,0,0,0,0,0,0,0,0,-202653083,-402625923,111,425,11,75,212,110
302,151500,15,8,20,0,12,8,20,64.2072,364,0.0,0,0,0,0,0,0,0,0,-202653121,-402625999,111,364,11,75,208,122
303,152000,15,8,20,0,12,8,21,15.164,364,0.0,0,0,0,0,0,0,0,0,-202653121,-402625999,110,364,10,80,201,116
307,154000,15,8,22,0,12,8,23,15.2111,463,0.0,0,0,0,0,0,0,0,0,-202653179,-402626266,105,463,11,75,205,201
309,155000,15,8,23,0,12,8,24,14.5064,466,0.0,0,0,0,0,0,0,0,0,-202653217,-402626380,103,466,11,75,204,34
310,155500,15,8,24,0,12,8,24,64.1749,533,0.0,0,0,0,0,0,0,0,0,-202653274,-402626495,103,533,11,75,208,246
311,156000,15,8,24,0,12,8,25,15.1801,533,0.0,0,0,0,0,0,0,0,0,-202653274,-402626495,100,533,11,75,200,234
312,156500,15,8,25,0,12,8,25,64.5861,492,0.0,0,0,0,0,0,0,0,0,-202653312,-402626609,100,492,11,75,210,245
313,157000,15,8,25,0,12,8,26,14.3259,492,0.0,0,0,0,0,0,0,0,0,-202653312,-402626609,100,492,11,75,198,236
314,157500,15,8,26,0,12,8,26,65.1224,498,0.0,0,0,0,0,0,0,0,0,-202653350,-402626762,100,498,11,75,201,49
315,158000,15,8,26,0,12,8,27,14.7696,498,0.0,0,0,0,0,0,0,0,0,-202653350,-402626762,100,498,11,75,216,40
316,158500,15,8,27,0,12,8,27,64.5239,455,0.0,0,0,0,0,0,0,0,0,-202653408,-402626876,100,455,11,75,208,29
317,159000,15,8,27,0,12,8,28,15.1574,455,0.0,0,0,0,0,0,0,0,0,-202653408,-402626876,101,455,11,75,209,21
318,159500,15,8,28,0,12,8,28,65.4508,322,0.0,0,0,0,0,0,0,0,0,-202653427,-402626953,101,322,11,75,213,163
319,160000,15,8,28,0,12,8,29,15.0312,322,0.0,0,0,0,0,0,0,0,0,-202653427,-402626953,105,322,11,75,212,158
320,160500,15,8,29,0,12,8,29,64.5777,240,0.0,0,0,0,0,0,0,0,0,-202653446,-402627029,105,240,11,75,213,143
321,161000,15,8,29,0,12,8,30,15.2617,240,0.0,0,0,0,0,0,0,0,0,-202653446,-402627029,108,240,11,75,213,137
322,161500,15,8,30,0,12,8,30,65.5692,266,0.0,0,0,0,0,0,0,0,0,-202653484,-402627067,108,266,11,75,201,107
323,162000,15,8,30,0,12,8,31,14.9425,266,0.0,0,0,0,0,0,0,0,0,-202653484,-402627067,108,266,11,75,198,98
324,162500,15,8,31,0,12,8,31,64.8323,481,0.0,0,0,0,0,0,0,0,0,-202653541,-402627182,108,481,11,75,208,91
325,163000,15,8,31,0,12,8,32,14.2901,481,0.0,0,0,0,0,0,0,0,0,-202653541,-402627182,110,481,11,75,209,84
326,163500,15,8,32,0,12,8,32,65.0428,346,0.0,0,0,0,0,0,0,0,0,-202653560,-402627258,110,346,11,75,210,223
327,164000,15,8,32,0,12,8,33,14.5283,346,0.0,0,0,0,0,0,0,0,0,-202653560,-402627258,111,346,11,75,207,215
328,164500,15,8,33,0,12,8,33,65.5148,337,0.0,0,0,0,0,0,0,0,0,-202653579,-402627372,111,337,11,75,209,55
329,165000,15,8,33,0,12,8,34,14.8816,337,0.0,0,0,0,0,0,0,0,0,-202653579,-402627372,113,337,11,75,205,48
330,165500,15,8,34,0,12,8,34,64.8094,370,0.0,0,0,0,0,0,0,0,0,-202653598,-402627449,113,370,11,75,208,10
331,166000,15,8,34,0,12,8,35,15.5751,370,0.0,0,0,0,0,0,0,0,0,-202653598,-402627449,115,370,11,75,209,3
332,166500,15,8,35,0,12,8,35,65.4849,403,0.0,0,0,0,0,0,0,0,0,-202653617,-402627563,115,403,11,75,205,184
333,167000,15,8,35,0,12,8,36,15.0266,403,0.0,0,0,0,0,0,0,0,0,-202653617,-402627563,113,403,11,75,206,173
334,167500,15,8,36,0,12,8,36,64.6655,483,0.0,0,0,0,0,0,0,0,0,-202653617,-402627677,113,483,11,75,207,210
335,168000,15,8,36,0,12,8,37,14.4589,483,0.0,0,0,0,0,0,0,0,0,-202653617,-402627677,111,483,11,75,205,199
336,168500,15,8,37,0,12,8,37,65.4136,457,0.0,0,0,0,0,0,0,0,0,-202653636,-402627792,111,457,11,75,206,5
337,169000,15,8,37,0,12,8,38,14.7805,457,0.0,0,0,0,0,0,0,0,0,-202653636,-402627792,106,457,11,75,202,247
338,169500,15,8,38,0,12,8,38,64.5907,450,0.0,0,0,0,0,0,0,0,0,-202653636,-402627906,106,450,11,75,202,110
339,170000,15,8,38,0,12,8,39,13.9863,450,0.0,0,0,0,0,0,0,0,0,-202653636,-402627906,101,450,11,75,198,96
340,170500,15,8,39,0,12,8,39,65.5154,440,0.0,0,0,0,0,0,0,0,0,-202653656,-402628021,101,440,11,75,197,189
341,171000,15,8,39,0,12,8,40,14.616,440,0.0,0,0,0,0,0,0,0,0,-202653656,-402628021,100,440,11,75,198,178
342,171500,15,8,40,0,12,8,40,64.3429,501,0.0,0,0,0,0,0,0,0,0,-202653694,-402628135,100,501,11,75,198,139
343,172000,15,8,40,0,12,8,41,15.5391,501,0.0,0,0,0,0,0,0,0,0,-202653694,-402628135,101,501,11,75,201,131
344,172500,15,8,41,0,12,8,41,65.6538,461,0.0,0,0,0,0,0,0,0,0,-202653732,-402628288,101,461,11,75,198,107
345,173000,15,8,41,0,12,8,42,14.5676,461,0.0,0,0,0,0,0,0,0,0,-202653732,-402628288,100,461,11,75,201,97
346,173500,15,8,42,0,12,8,42,65.2765,435,0.0,0,0,0,0,0,0,0,0,-202653770,-402628402,100,435,11,75,195,140
347,174000,15,8,42,0,12,8,43,14.1718,435,0.0,0,0,0,0,0,0,0,0,-202653770,-402628402,101,435,11,75,201,132
348,174500,15,8,43,0,12,8,43,65.1245,455,0.0,0,0,0,0,0,0,0,0,-202653789,-402628517,101,455,11,75,204,30
349,175000,15,8,43,0,12,8,44,15.5901,455,0.0,0,0,0,0,0,0,0,0,-202653789,-402628517,101,455,11,75,201,21
350,175500,15,8,44,0,12,8,44,65.2385,453,0.0,0,0,0,0,0,0,0,0,-202653808,-402628631,101,453,11,75,201,131
351,176000,15,8,44,0,12,8,45,15.5317,453,0.0,0,0,0,0,0,0,0,0,-202653808,-402628631,101,453,11,75,201,122
356,178500,15,8,47,0,12,8,47,65.0796,550,0.0,0,0,0,0,0,0,0,0,-202653903,-402628974,100,550,11,75,201,92
357,179000,15,8,47,0,12,8,48,15.0081,550,0.0,0,0,0,0,0,0,0,0,-202653903,-402628974,98,550,11,75,196,81
358,179500,15,8,48,0,12,8,48,64.726,498,0.0,0,0,0,0,0,0,0,0,-202653923,-402629127,98,498,11,75,195,49
359,180000,15,8,48,0,12,8,49,15.2865,498,0.0,0,0,0,0,0,0,0,0,-202653923,-402629127,98,498,11,75,199,40
360,180500,15,8,49,0,12,8,49,65.6605,498,0.0,0,0,0,0,0,0,0,0,-202653942,-402629241,98,498,11,75,196,155
361,181000,15,8,49,0,12,8,50,15.5983,498,0.0,0,0,0,0,0,0,0,0,-202653942,-402629241,98,498,11,75,187,146
362,181500,15,8,50,0,12,8,50,64.5863,479,0.0,0,0,0,0,0,0,0,0,-202653980,-402629394,98,479,11,75,182,162
363,182000,15,8,50,0,12,8,51,15.5834,479,0.0,0,0,0,0,0,0,0,0,-202653980,-402629394,98,479,11,75,189,153
364,182500,15,8,51,0,12,8,51,65.2429,453,0.0,0,0,0,0,0,0,0,0,-202653999,-402629508,98,453,11,75,182,216
365,183000,15,8,51,0,12,8,52,14.9727,453,0.0,0,0,0,0,0,0,0,0,-202653999,-402629508,100,453,11,75,186,209
366,183500,15,8,52,0,12,8,52,64.4238,362,0.0,0,0,0,0,0,0,0,0,-202654018,-402629585,100,362,11,75,188,179
367,184000,15,8,52,0,12,8,53,14.234,362,0.0,0,0,0,0,0,0,0,0,-202654018,-402629585,103,362,11,75,186,173
368,184500,15,8,53,0,12,8,53,65.5983,257,0.0,0,0,0,0,0,0,0,0,-202654056,-402629661,103,257,11,75,193,96
369,185000,15,8,53,0,12,8,54,15.1342,257,0.0,0,0,0,0,0,0,0,0,-202654056,-402629661,106,257,11,75,191,90
370,185500,15,8,54,0,12,8,54,64.6175,259,0.0,0,0,0,0,0,0,0,0,-202654075,-402629737,106,259,11,75,200,247
371,186000,15,8,54,0,12,8,55,14.3133,259,0.0,0,0,0,0,0,0,0,0,-202654075,-402629737,108,259,11,75,187,240
372,186500,15,8,55,0,12,8,55,65.2731,296,0.0,0,0,0,0,0,0,0,0,-202654094,-402629776,108,296,11,75,200,248
373,187000,15,8,55,0,12,8,56,14.9467,296,0.0,0,0,0,0,0,0,0,0,-202654094,-402629776,111,296,11,75,181,242
374,187500,15,8,56,0,12,8,56,64.6995,455,0.0,0,0,0,0,0,0,0,0,-202654132,-402629890,111,455,11,75,192,143
375,188000,15,8,56,0,12,8,57,14.2534,455,0.0,0,0,0,0,0,0,0,0,-202654132,-402629890,111,455,11,75,192,134
376,188500,15,8,57,0,12,8,57,65.2007,488,0.0,0,0,0,0,0,0,0,0,-202654151,-402630004,111,488,11,75,195,59
377,189000,15,8,57,0,12,8,58,15.7283,488,0.0,0,0,0,0,0,0,0,0,-202654151,-402630004,111,488,11,75,193,50
378,189500,15,8,58,0,12,8,58,64.2945,403,0.0,0,0,0,0,0,0,0,0,-202654170,-402630119,111,403,11,75,192,250
379,190000,15,8,58,0,12,8,59,14.2919,403,0.0,0,0,0,0,0,0,0,0,-202654170,-402630119,113,403,10,80,194,247
380,190500,15,8,59,0,12,8,59,65.2286,368,0.0,0,0,0,0,0,0,0,0,-202654209,-402630233,113,368,10,80,196,14
381,191000,15,8,59,0,12,9,0,14.9284,368,0.0,0,0,0,0,0,0,0,0,-202654209,-402630233,115,368,11,75,198,3
382,191500,15,9,0,0,12,9,0,65.3777,394,0.0,0,0,0,0,0,0,0,0,-202654228,-402630310,115,394,11,75,198,148
383,192000,15,9,0,0,12,9,1,14.3062,394,0.0,0,0,0,0,0,0,0,0,-202654228,-402630310,113,394,11,75,199,137
384,192500,15,9,1,0,12,9,1,65.544,375,0.0,0,0,0,0,0,0,0,0,-202654247,-402630424,113,375,11,75,202,212
385,193000,15,9,1,0,12,9,2,15.2288,375,0.0,0,0,0,0,0,0,0,0,-202654247,-402630424,111,375,11,75,201,201
386,193500,15,9,2,0,12,9,2,65.2286,431,0.0,0,0,0,0,0,0,0,0,-202654266,-402630500,111,431,11,75,197,210
387,194000,15,9,2,0,12,9,3,15.2056,431,0.0,0,0,0,0,0,0,0,0,-202654266,-402630500,108,431,10,80,195,202
388,194500,15,9,3,0,12,9,3,65.3433,457,0.0,0,0,0,0,0,0,0,0,-202654285,-402630653,108,457,10,80,190,74
389,195000,15,9,3,0,12,9,4,14.8534,457,0.0,0,0,0,0,0,0,0,0,-202654285,-402630653,105,457,11,80,191,63
390,195500,15,9,4,0,12,9,4,64.7205,496,0.0,0,0,0,0,0,0,0,0,-202654323,-402630767,105,496,11,80,191,236
391,196000,15,9,4,0,12,9,5,14.6489,496,0.0,0,0,0,0,0,0,0,0,-202654323,-402630767,103,496,11,75,192,220
392,196500,15,9,5,0,12,9,5,64.7924,516,0.0,0,0,0,0,0,0,0,0,-202654361,-402630882,103,516,11,75,195,101
393,197000,15,9,5,0,12,9,6,15.1605,516,0.0,0,0,0,0,0,0,0,0,-202654361,-402630882,103,516,11,75,191,93
394,197500,15,9,6,0,12,9,6,65.004,527,0.0,0,0,0,0,0,0,0,0,-202654399,-402630996,103,527,11,75,192,210
395,198000,15,9,6,0,12,9,7,15.5306,527,0.0,0,0,0,0,0,0,0,0,-202654399,-402630996,101,527,11,75,192,199
396,198500,15,9,7,0,12,9,7,64.8907,527,0.0,0,0,0,0,0,0,0,0,-202654438,-402631149,101,527,11,75,190,255
397,199000,15,9,7,0,12,9,8,15.354,527,0.0,0,0,0,0,0,0,0,0,-202654438,-402631149,101,527,10,80,191,250
398,199500,15,9,8,0,12,9,8,65.0329,520,0.0,0,0,0,0,0,0,0,0,-202654476,-402631263,101,520,10,80,191,74
399,200000,15,9,8,0,12,9,9,14.6237,520,0.0,0,0,0,0,0,0,0,0,-202654476,-402631263,100,520,10,80,189,64
400,200500,15,9,9,0,12,9,9,64.1678,520,0.0,0,0,0,0,0,0,0,0,-202654514,-402631416,100,520,10,80,191,121
401,201000,15,9,9,0,12,9,10,14.7289,520,0.0,0,0,0,0,0,0,0,0,-202654514,-402631416,100,520,10,80,194,112
402,201500,15,9,10,0,12,9,10,64.8001,494,0.0,0,0,0,0,0,0,0,0,-202654533,-402631530,100,494,10,80,192,172
403,202000,15,9,10,0,12,9,11,14.1793,494,0.0,0,0,0,0,0,0,0,0,-202654533,-402631530,98,494,10,80,194,161
404,202500,15,9,11,0,12,9,11,65.4737,537,0.0,0,0,0,0,0,0,0,0,-202654571,-402631645,98,537,10,80,189,88
405,203000,15,9,11,0,12,9,12,14.931,537,0.0,0,0,0,0,0,0,0,0,-202654571,-402631645,98,537,11,80,188,79
406,203500,15,9,12,0,12,9,12,65.362,520,0.0,0,0,0,0,0,0,0,0,-202654590,-402631797,98,520,11,80,187,121
407,204000,15,9,12,0,12,9,13,14.3073,520,0.0,0,0,0,0,0,0,0,0,-202654590,-402631797,98,520,11,75,189,107
408,204500,15,9,13,0,12,9,13,65.5988,353,0.0,0,0,0,0,0,0,0,0,-202654609,-402631912,98,353,11,75,191,141
409,205000,15,9,13,0,12,9,14,14.8611,353,0.0,0,0,0,0,0,0,0,0,-202654609,-402631912,101,353,11,75,191,135
410,205500,15,9,14,0,12,9,14,65.6176,170,0.0,0,0,0,0,0,0,0,0,-202654609,-402631950,101,170,11,75,194,232
411,206000,15,9,14,0,12,9,15,15.2616,170,0.0,0,0,0,0,0,0,0,0,-202654609,-402631950,103,170,11,75,198,225
412,206500,15,9,15,0,12,9,15,65.4845,275,0.0,0,0,0,0,0,0,0,0,-202654609,-402632026,103,275,11,75,189,97
413,207000,15,9,15,0,12,9,16,14.9327,275,0.0,0,0,0,0,0,0,0,0,-202654609,-402632026,103,275,11,75,191,88
414,207500,15,9,16,0,12,9,16,64.4538,359,0.0,0,0,0,0,0,0,0,0,-202654628,-402632102,103,359,11,75,189,153
415,208000,15,9,16,0,12,9,17,15.6105,359,0.0,0,0,0,0,0,0,0,0,-202654628,-402632102,103,359,11,75,194,144
416,208500,15,9,17,0,12,9,17,65.0791,451,0.0,0,0,0,0,0,0,0,0,-202654666,-402632217,103,451,11,75,192,166
417,209000,15,9,17,0,12,9,18,14.7888,451,0.0,0,0,0,0,0,0,0,0,-202654666,-402632217,101,451,11,75,185,155
418,209500,15,9,18,0,12,9,18,64.1694,405,0.0,0,0,0,0,0,0,0,0,-202654685,-402632293,101,405,11,75,188,216
419,210000,15,9,18,0,12,9,19,15.4326,405,0.0,0,0,0,0,0,0,0,0,-202654685,-402632293,103,405,11,75,189,209
420,210500,15,9,19,0,12,9,19,64.6232,368,0.0,0,0,0,0,0,0,0,0,-202654724,-402632408,103,368,11,75,191,228
421,211000,15,9,19,0,12,9,20,15.658,368,0.0,0,0,0,0,0,0,0,0,-202654724,-402632408,108,368,11,75,193,224
422,211500,15,9,20,0,12,9,20,65.2354,327,0.0,0,0,0,0,0,0,0,0,-202654724,-402632484,108,327,11,75,191,57
423,212000,15,9,20,0,12,9,21,15.0216,327,0.0,0,0,0,0,0,0,0,0,-202654724,-402632484,108,327,11,75,194,48
424,212500,15,9,21,0,12,9,21,64.4479,407,0.0,0,0,0,0,0,0,0,0,-202654743,-402632598,108,407,11,75,194,67
425,213000,15,9,21,0,12,9,22,15.4629,407,0.0,0,0,0,0,0,0,0,0,-202654743,-402632598,106,407,11,75,199,56
426,213500,15,9,22,0,12,9,22,64.8579,388,0.0,0,0,0,0,0,0,0,0,-202654781,-402632675,106,388,11,75,195,150
427,214000,15,9,22,0,12,9,23,14.6029,388,0.0,0,0,0,0,0,0,0,0,-202654781,-402632675,106,388,11,75,199,141
428,214500,15,9,23,0,12,9,23,65.6675,409,0.0,0,0,0,0,0,0,0,0,-202654819,-402632789,106,409,11,75,197,22
429,215000,15,9,23,0,12,9,24,15.4061,409,0.0,0,0,0,0,0,0,0,0,-202654819,-402632789,106,409,11,75,197,13
430,215500,15,9,24,0,12,9,24,65.0103,392,0.0,0,0,0,0,0,0,0,0,-202654838,-402632904,106,392,11,75,193,93
431,216000,15,9,24,0,12,9,25,14.4718,392,0.0,0,0,0,0,0,0,0,0,-202654838,-402632904,105,392,11,75,197,83
432,216500,15,9,25,0,12,9,25,65.5445,425,0.0,0,0,0,0,0,0,0,0,-202654895,-402632980,105,425,11,75,192,7
433,217000,15,9,25,0,12,9,26,15.6621,425,0.0,0,0,0,0,0,0,0,0,-202654895,-402632980,103,425,11,75,188,252
434,217500,15,9,26,0,12,9,26,65.0364,468,0.0,0,0,0,0,0,0,0,0,-202654953,-402633094,103,468,11,75,184,158
435,218000,15,9,26,0,12,9,27,14.6624,468,0.0,0,0,0,0,0,0,0,0,-202654953,-402633094,101,468,11,75,193,147
436,218500,15,9,27,0,12,9,27,64.3377,438,0.0,0,0,0,0,0,0,0,0,-202654953,-402633209,101,438,11,75,191,220
437,219000,15,9,27,0,12,9,28,15.413,438,0.0,0,0,0,0,0,0,0,0,-202654953,-402633209,101,438,11,75,191,211
438,219500,15,9,28,0,12,9,28,64.599,453,0.0,0,0,0,0,0,0,0,0,-202654933,-402633323,101,453,11,75,189,138
439,220000,15,9,28,0,12,9,29,15.6745,453,0.0,0,0,0,0,0,0,0,0,-202654933,-402633323,100,453,11,75,186,128
440,220500,15,9,29,0,12,9,29,65.3207,507,0.0,0,0,0,0,0,0,0,0,-202654895,-402633438,100,507,11,75,182,151
441,221000,15,9,29,0,12,9,30,14.8854,507,0.0,0,0,0,0,0,0,0,0,-202654895,-402633438,98,507,11,75,176,140
442,221500,15,9,30,0,12,9,30,64.6862,503,0.0,0,0,0,0,0,0,0,0,-202654838,-402633590,98,503,11,75,174,28
443,222000,15,9,30,0,12,9,31,15.6251,503,0.0,0,0,0,0,0,0,0,0,-202654838,-402633590,96,503,11,75,181,17
444,222500,15,9,31,0,12,9,31,65.27,533,0.0,0,0,0,0,0,0,0,0,-202654781,-402633705,96,533,11,75,177,13
445,223000,15,9,31,0,12,9,32,14.7671,533,0.0,0,0,0,0,0,0,0,0,-202654781,-402633705,95,533,11,75,183,3
446,223500,15,9,32,0,12,9,32,64.4559,507,0.0,0,0,0,0,0,0,0,0,-202654705,-402633819,95,507,11,75,170,159
447,224000,15,9,32,0,12,9,33,15.5087,507,0.0,0,0,0,0,0,0,0,0,-202654705,-402633819,95,507,11,75,174,150
448,224500,15,9,33,0,12,9,33,65.4224,481,0.0,0,0,0,0,0,0,0,0,-202654628,-402633934,95,481,11,75,173,51
449,225000,15,9,33,0,12,9,34,15.0691,481,0.0,0,0,0,0,0,0,0,0,-202654628,-402633934,96,481,11,75,162,43
450,225500,15,9,34,0,12,9,34,64.6065,407,0.0,0,0,0,0,0,0,0,0,-202654552,-402634010,96,407,11,75,185,142
451,226000,15,9,34,0,12,9,35,14.6066,407,0.0,0,0,0,0,0,0,0,0,-202654552,-402634010,101,407,11,75,187,138
452,226500,15,9,35,0,12,9,35,65.6043,459,0.0,0,0,0,0,0,0,0,0,-202654438,-402634010,101,459,11,75,187,93
453,227000,15,9,35,0,12,9,36,14.9308,459,0.0,0,0,0,0,0,0,0,0,-202654438,-402634010,101,459,11,75,187,84
454,227500,15,9,36,0,12,9,36,64.3969,338,0.0,0,0,0,0,0,0,0,0,-202654342,-402634010,101,338,11,75,192,186
455,228000,15,9,36,0,12,9,37,15.3382,338,0.0,0,0,0,0,0,0,0,0,-202654342,-402634010,103,338,11,75,190,179
456,228500,15,9,37,0,12,9,37,65.0532,342,0.0,0,0,0,0,0,0,0,0,-202654285,-402633934,103,342,11,75,189,57
457,229000,15,9,37,0,12,9,38,15.3674,342,0.0,0,0,0,0,0,0,0,0,-202654285,-402633934,100,342,11,75,187,45
458,229500,15,9,38,0,12,9,38,64.9084,431,0.0,0,0,0,0,0,0,0,0,-202654209,-402633857,100,431,11,75,191,112
459,230000,15,9,38,0,12,9,39,14.444,431,0.0,0,0,0,0,0,0,0,0,-202654209,-402633857,98,431,11,75,194,101
460,230500,15,9,39,0,12,9,39,65.6916,514,0.0,0,0,0,0,0,0,0,0,-202654113,-402633781,98,514,11,75,193,178
461,231000,15,9,39,0,12,9,40,15.3801,514,0.0,0,0,0,0,0,0,0,0,-202654113,-402633781,96,514,11,75,193,167
462,231500,15,9,40,0,12,9,40,64.4947,496,0.0,0,0,0,0,0,0,0,0,-202654018,-402633743,96,496,11,75,191,254
463,232000,15,9,40,0,12,9,41,15.6063,496,0.0,0,0,0,0,0,0,0,0,-202654018,-402633743,96,496,11,75,194,245
464,232500,15,9,41,0,12,9,41,65.4719,540,0.0,0,0,0,0,0,0,0,0,-202653923,-402633628,96,540,11,75,188,27
465,233000,15,9,41,0,12,9,42,15.4716,540,0.0,0,0,0,0,0,0,0,0,-202653923,-402633628,96,540,11,75,187,18
466,233500,15,9,42,0,12,9,42,64.7626,546,0.0,0,0,0,0,0,0,0,0,-202653827,-402633514,96,546,11,75,183,232
467,234000,15,9,42,0,12,9,43,14.5383,546,0.0,0,0,0,0,0,0,0,0,-202653827,-402633514,96,546,11,75,189,223
468,234500,15,9,43,0,12,9,43,65.6938,540,0.0,0,0,0,0,0,0,0,0,-202653732,-402633438,96,540,11,75,185,119
469,235000,15,9,43,0,12,9,44,15.2941,540,0.0,0,0,0,0,0,0,0,0,-202653732,-402633438,95,540,11,75,174,108
470,235500,15,9,44,0,12,9,44,65.1607,535,0.0,0,0,0,0,0,0,0,0,-202653656,-402633323,95,535,11,75,177,26
471,236000,15,9,44,0,12,9,45,15.6174,535,0.0,0,0,0,0,0,0,0,0,-202653656,-402633323,93,535,11,75,174,15
472,236500,15,9,45,0,12,9,45,65.0124,548,0.0,0,0,0,0,0,0,0,0,-202653579,-402633209,93,548,11,75,174,225
473,237000,15,9,45,0,12,9,46,14.6923,548,0.0,0,0,0,0,0,0,0,0,-202653579,-402633209,93,548,11,75,166,216
474,237500,15,9,46,0,12,9,46,64.5794,500,0.0,0,0,0,0,0,0,0,0,-202653503,-402633094,93,500,11,75,185,45
475,238000,15,9,46,0,12,9,47,14.45,500,0.0,0,0,0,0,0,0,0,0,-202653503,-402633094,93,500,10,81,184,41
476,238500,15,9,47,0,12,9,47,65.7194,529,0.0,0,0,0,0,0,0,0,0,-202653427,-402632980,93,529,10,81,181,28
477,239000,15,9,47,0,12,9,48,15.8556,529,0.0,0,0,0,0,0,0,0,0,-202653427,-402632980,95,529,10,81,190,21
478,239500,15,9,48,0,12,9,48,65.4004,542,0.0,0,0,0,0,0,0,0,0,-202653331,-402632865,95,542,10,81,189,251
479,240000,15,9,48,0,12,9,49,15.8464,542,0.0,0,0,0,0,0,0,0,0,-202653331,-402632865,95,542,10,81,188,242
480,240500,15,9,49,0,12,9,49,65.0268,477,0.0,0,0,0,0,0,0,0,0,-202653274,-402632789,95,477,10,81,186,235
483,242000,15,9,50,0,12,9,51,14.8804,414,0.0,0,0,0,0,0,0,0,0,-202653198,-402632675,101,414,11,75,188,19
484,242500,15,9,51,0,12,9,51,65.8277,468,0.0,0,0,0,0,0,0,0,0,-202653141,-402632598,101,468,11,75,184,254
493,247000,15,9,55,0,12,9,56,14.737,414,0.0,0,0,0,0,0,0,0,0,-202652950,-402632217,103,414,11,75,188,131
497,249000,15,9,57,0,12,9,58,15.6532,435,0.0,0,0,0,0,0,0,0,0,-202652873,-402631988,96,435,11,80,191,189
503,252000,15,10,0,0,12,10,1,15.0857,492,0.0,0,0,0,0,0,0,0,0,-202652740,-402631683,88,492,11,75,195,107
507,254000,15,10,2,0,12,10,3,14.7738,485,0.0,0,0,0,0,0,0,0,0,-202652645,-402631416,88,485,11,75,193,168
518,259500,15,10,8,0,12,10,8,64.8732,392,0.0,0,0,0,0,0,0,0,0,-202652397,-402630805,95,392,11,75,192,246
551,276000,15,10,24,0,12,10,25,14.8836,403,0.0,0,0,0,0,0,0,0,0,-202651576,-402629241,100,403,11,75,197,82
570,285500,15,10,34,0,12,10,34,65.2394,516,0.0,0,0,0,0,0,0,0,0,-202652263,-402629013,88,516,11,75,188,187
604,302500,15,10,51,0,12,10,51,66.1015,242,0.0,0,0,0,0,0,0,0,0,-202652988,-402630805,93,242,11,75,194,150
646,323500,15,11,12,0,12,11,12,65.8026,457,0.0,0,0,0,0,0,0,0,0,-202653293,-402630462,98,457,11,75,183,207
729,365000,15,11,53,0,12,11,54,14.751,324,0.0,0,0,0,0,0,0,0,0,-202652206,-402625541,108,324,11,75,198,153
732,366500,15,11,55,0,12,11,55,65.2285,322,0.0,0,0,0,0,0,0,0,0,-202652206,-402625389,111,322,11,75,190,24
733,367000,15,11,55,0,12,11,56,15.3283,322,0.0,0,0,0,0,0,0,0,0,-202652206,-402625389,113,322,11,75,182,17
736,368500,15,11,57,0,12,11,57,66.0413,362,0.0,0,0,0,0,0,0,0,0,-202652168,-402625198,115,362,11,75,184,48
737,369000,15,11,57,0,12,11,58,15.9879,362,0.0,0,0,0,0,0,0,0,0,-202652168,-402625198,118,362,11,75,191,42
738,369500,15,11,58,0,12,11,58,65.4952,370,0.0,0,0,0,0,0,0,0,0,-202652168,-402625122,118,370,11,75,174,126
739,370000,15,11,58,0,12,11,59,14.8208,370,0.0,0,0,0,0,0,0,0,0,-202652168,-402625122,120,370,11,75,183,119
740,370500,15,11,59,0,12,11,59,66.1103,325,0.0,0,0,0,0,0,0,0,0,-202652168,-402625045,120,325,11,75,192,98
741,371000,15,11,59,0,12,12,0,15.8339,325,0.0,0,0,0,0,0,0,0,0,-202652168,-402625045,123,325,11,75,196,92
742,371500,15,12,0,0,12,12,0,65.3353,400,0.0,0,0,0,0,0,0,0,0,-202652149,-402624931,123,400,11,75,198,54
743,372000,15,12,0,0,12,12,1,16.3594,400,0.0,0,0,0,0,0,0,0,0,-202652149,-402624931,123,400,11,75,204,45
744,372500,15,12,1,0,12,12,1,66.3372,394,0.0,0,0,0,0,0,0,0,0,-202652149,-402624816,123,394,11,75,211,140
745,373000,15,12,1,0,12,12,2,16.3227,394,0.0,0,0,0,0,0,0,0,0,-202652149,-402624816,123,394,11,75,208,131
746,373500,15,12,2,0,12,12,2,65.8008,548,0.0,0,0,0,0,0,0,0,0,-202652225,-402624740,123,548,11,75,205,176
747,374000,15,12,2,0,12,12,3,15.2548,548,0.0,0,0,0,0,0,0,0,0,-202652225,-402624740,123,548,11,75,205,167
748,374500,15,12,3,0,12,12,3,66.2595,429,0.0,0,0,0,0,0,0,0,0,-202652320,-402624664,123,429,11,75,205,156
749,375000,15,12,3,0,12,12,4,15.9236,429,0.0,0,0,0,0,0,0,0,0,-202652320,-402624664,123,429,11,75,207,147
750,375500,15,12,4,0,12,12,4,65.6435,374,0.0,0,0,0,0,0,0,0,0,-202652397,-402624588,123,374,11,75,205,28
751,376000,15,12,4,0,12,12,5,14.9925,374,0.0,0,0,0,0,0,0,0,0,-202652397,-402624588,125,374,11,75,206,21
752,376500,15,12,5,0,12,12,5,66.2527,405,0.0,0,0,0,0,0,0,0,0,-202652492,-402624588,125,405,11,75,207,235
753,377000,15,12,5,0,12,12,6,16.3033,405,0.0,0,0,0,0,0,0,0,0,-202652492,-402624588,128,405,11,75,205,229
754,377500,15,12,6,0,12,12,6,65.4718,461,0.0,0,0,0,0,0,0,0,0,-202652606,-402624588,128,461,11,75,206,219
755,378000,15,12,6,0,12,12,7,15.1508,461,0.0,0,0,0,0,0,0,0,0,-202652606,-402624588,131,461,11,75,204,213
756,378500,15,12,7,0,12,12,7,64.8952,411,0.0,0,0,0,0,0,0,0,0,-202652702,-402624664,131,411,11,75,206,188
757,379000,15,12,7,0,12,12,8,15.5596,411,0.0,0,0,0,0,0,0,0,0,-202652702,-402624664,136,411,11,75,205,184
758,379500,15,12,8,0,12,12,8,65.5408,116,0.0,0,0,0,0,0,0,0,0,-202652740,-402624702,136,116,11,75,206,20
759,380000,15,12,8,0,12,12,9,15.9284,116,0.0,0,0,0,0,0,0,0,0,-202652740,-402624702,138,116,11,75,207,13
760,380500,15,12,9,0,12,12,9,65.4685,14,0.0,0,0,0,0,0,0,0,0,-202652759,-402624702,138,14,11,75,207,38
761,381000,15,12,9,0,12,12,10,15.0015,14,0.0,0,0,0,0,0,0,0,0,-202652759,-402624702,135,14,11,75,207,26
762,381500,15,12,10,0,12,12,10,66.2118,7,0.0,0,0,0,0,0,0,0,0,-202652759,-402624702,135,7,11,75,207,4
