PACKAGE,ELAPSED_TIME,HOUR_GPS,MIN_GPS,SEC_GPS,CENT_GPS,HOUR_PC,MIN_PC,SEC_PC,CENT_PC,VEL_RODA,ROTACAO,TEMP,FLUIDO,AX,AY,AZ,ROLL,PITCH,HEADING,LAT,LON,ALT,VEL_GPS,SAT,HDOP,RSSI,CHECKSUM
0,1000,14,14,5,0,11,14,2,72.5337,0,0.0,0,0,0,0,0,0,0,0,0,0,0,0,0,15,222,29
1,2000,14,14,6,0,11,14,3,71.5962,0,0.0,0,0,0,0,0,0,0,0,0,0,0,0,0,15,236,11
2,3000,14,14,7,50,11,14,4,71.1386,0,0.0,0,0,0,0,0,0,0,0,0,0,0,0,5,171,238,204
3,4000,14,14,8,0,11,14,5,72.4093,664,0.0,0,0,0,0,0,0,0,0,-202653999,-402626762,136,664,9,117,239,4
4,5000,14,14,9,0,11,14,6,72.2215,51,0.0,0,0,0,0,0,0,0,0,-202653846,-402626724,145,51,9,89,238,209
5,6000,14,14,10,0,11,14,7,72.6607,66,0.0,0,0,0,0,0,0,0,0,-202653846,-402626800,230,66,9,89,237,230
6,7000,14,14,11,0,11,14,8,72.0511,196,0.0,0,0,0,0,0,0,0,0,-202653827,-402626800,272,196,9,89,237,22
7,8000,14,14,12,0,11,14,9,72.5875,266,0.0,0,0,0,0,0,0,0,0,-202653808,-402626800,272,266,9,89,237,165
8,9000,14,14,13,0,11,14,10,71.9856,248,0.0,0,0,0,0,0,0,0,0,-202653770,-402626838,267,248,9,89,235,103
9,10000,14,14,14,0,11,14,11,72.6311,211,0.0,0,0,0,0,0,0,0,0,-202653770,-402626876,277,211,9,89,236,239
10,11000,14,14,15,0,11,14,12,72.1537,288,0.0,0,0,0,0,0,0,0,0,-202653789,-402626838,291,288,8,106,235,169
11,12000,14,14,16,0,11,14,13,72.8012,137,0.0,0,0,0,0,0,0,0,0,-202653732,-402626876,303,137,9,92,235,121
12,13000,14,14,17,0,11,14,14,72.077,135,0.0,0,0,0,0,0,0,0,0,-202653636,-402626838,302,135,9,92,236,233
13,14000,14,14,18,0,11,14,15,71.4284,125,0.0,0,0,0,0,0,0,0,0,-202653617,-402626876,308,125,9,106,236,196
14,15000,14,14,19,0,11,14,16,72.6147,98,0.0,0,0,0,0,0,0,0,0,-202653579,-402626876,302,98,9,106,236,156
15,16000,14,14,20,0,11,14,17,72.6799,90,0.0,0,0,0,0,0,0,0,0,-202653598,-402626953,313,90,9,94,237,25
16,17000,14,14,21,0,11,14,18,72.0654,79,0.0,0,0,0,0,0,0,0,0,-202653541,-402626914,302,79,9,89,237,65
17,18000,14,14,22,0,11,14,19,71.537,22,0.0,0,0,0,0,0,0,0,0,-202653522,-402626914,286,22,9,89,238,192
18,19000,14,14,23,0,11,14,20,71.8404,20,0.0,0,0,0,0,0,0,0,0,-202653503,-402626876,277,20,9,89,238,218
19,20000,14,14,24,0,11,14,21,72.1864,62,0.0,0,0,0,0,0,0,0,0,-202653465,-402626876,270,62,9,89,237,59
20,21000,14,14,25,0,11,14,22,71.5441,25,0.0,0,0,0,0,0,0,0,0,-202653465,-402626838,278,25,9,89,234,13
21,22000,14,14,26,0,11,14,23,71.6557,55,0.0,0,0,0,0,0,0,0,0,-202653465,-402626800,282,55,9,89,234,97
22,23000,14,14,27,0,11,14,24,72.0772,31,0.0,0,0,0,0,0,0,0,0,-202653484,-402626762,283,31,9,89,222,51
23,24000,14,14,28,0,11,14,25,72.7913,55,0.0,0,0,0,0,0,0,0,0,-202653484,-402626686,282,55,9,89,239,156
24,25000,14,14,29,0,11,14,26,72.5885,25,0.0,0,0,0,0,0,0,0,0,-202653522,-402626647,275,25,9,89,239,72
25,26000,14,14,30,0,11,14,27,72.5947,1,0.0,0,0,0,0,0,0,0,0,-202653522,-402626647,275,1,9,89,239,6
26,27000,14,14,31,0,11,14,28,72.0265,5,0.0,0,0,0,0,0,0,0,0,-202653522,-402626609,271,5,9,89,239,30
27,28000,14,14,32,0,11,14,29,72.0155,9,0.0,0,0,0,0,0,0,0,0,-202653541,-402626609,271,9,9,89,240,1
28,29000,14,14,33,0,11,14,30,72.4682,196,0.0,0,0,0,0,0,0,0,0,-202653522,-402626533,287,196,9,89,239,213
29,30000,14,14,34,0,11,14,31,71.6739,22,0.0,0,0,0,0,0,0,0,0,-202653522,-402626495,285,22,10,87,238,138
30,31000,14,14,35,0,11,14,32,72.0673,11,0.0,0,0,0,0,0,0,0,0,-202653522,-402626457,282,11,9,87,239,132
31,32000,14,14,36,0,11,14,33,71.5008,42,0.0,0,0,0,0,0,0,0,0,-202653522,-402626457,272,42,9,87,239,166
32,33000,14,14,37,0,11,14,34,71.7241,20,0.0,0,0,0,0,0,0,0,0,-202653522,-402626457,272,20,9,87,238,103
33,34000,14,14,38,0,11,14,35,72.4371,5,0.0,0,0,0,0,0,0,0,0,-202653503,-402626419,262,5,9,87,237,102
34,35000,14,14,39,0,11,14,36,72.2167,9,0.0,0,0,0,0,0,0,0,0,-202653484,-402626380,266,9,10,87,238,155
35,36000,14,14,40,0,11,14,37,71.3845,0,0.0,0,0,0,0,0,0,0,0,-202653465,-402626380,262,0,10,84,240,131
36,37000,14,14,41,0,11,14,38,71.7569,64,0.0,0,0,0,0,0,0,0,0,-202653446,-402626342,262,64,10,84,235,42
37,38000,14,14,42,0,11,14,39,71.6978,18,0.0,0,0,0,0,0,0,0,0,-202653446,-402626342,261,18,10,84,235,187
38,39000,14,14,43,0,11,14,40,72.4567,7,0.0,0,0,0,0,0,0,0,0,-202653446,-402626380,265,7,10,84,234,113
39,40000,14,14,44,0,11,14,41,72.1339,31,0.0,0,0,0,0,0,0,0,0,-202653446,-402626380,267,31,10,84,235,145
40,41000,14,14,45,0,11,14,42,71.7275,16,0.0,0,0,0,0,0,0,0,0,-202653465,-402626419,255,16,9,87,233,28
41,42000,14,14,46,0,11,14,43,71.9113,5,0.0,0,0,0,0,0,0,0,0,-202653446,-402626419,257,5,9,87,234,10
42,43000,14,14,47,0,11,14,44,72.5297,1,0.0,0,0,0,0,0,0,0,0,-202653446,-402626419,258,1,9,87,236,240
43,44000,14,14,48,0,11,14,45,71.4693,3,0.0,0,0,0,0,0,0,0,0,-202653446,-402626457,262,3,9,87,230,192
44,45000,14,14,49,0,11,14,46,72.2113,22,0.0,0,0,0,0,0,0,0,0,-202653388,-402626457,257,22,10,84,236,8
45,46000,14,14,50,0,11,14,47,72.6532,16,0.0,0,0,0,0,0,0,0,0,-202653331,-402626495,258,16,10,84,230,254
46,47000,14,14,51,0,11,14,48,71.6248,5,0.0,0,0,0,0,0,0,0,0,-202653312,-402626571,261,5,10,84,233,159
47,48000,14,14,52,0,11,14,49,72.2681,61,0.0,0,0,0,0,0,0,0,0,-202653350,-402626609,267,61,10,84,232,183
48,49000,14,14,53,0,11,14,50,72.7821,33,0.0,0,0,0,0,0,0,0,0,-202653388,-402626609,265,33,10,84,235,69
49,50000,14,14,54,0,11,14,51,72.0139,40,0.0,0,0,0,0,0,0,0,0,-202653427,-402626647,263,40,10,84,236,242
50,51000,14,14,55,0,11,14,52,71.342,3,0.0,0,0,0,0,0,0,0,0,-202653446,-402626647,267,3,10,84,236,134
51,52000,14,14,56,0,11,14,53,71.5895,7,0.0,0,0,0,0,0,0,0,0,-202653484,-402626686,277,7,10,84,233,57
52,53000,14,14,57,0,11,14,54,72.7428,16,0.0,0,0,0,0,0,0,0,0,-202653522,-402626724,277,16,10,84,237,237
53,54000,14,14,58,0,11,14,55,71.3897,11,0.0,0,0,0,0,0,0,0,0,-202653560,-402626724,283,11,10,84,236,176
54,55000,14,14,59,0,11,14,56,72.0855,46,0.0,0,0,0,0,0,0,0,0,-202653598,-402626762,293,46,10,84,222,162
55,56000,14,15,0,0,11,14,57,71.4086,3,0.0,0,0,0,0,0,0,0,0,-202653617,-402626762,297,3,10,84,234,240
56,57000,14,15,1,0,11,14,58,72.5137,50,0.0,0,0,0,0,0,0,0,0,-202653636,-402626762,300,50,10,84,234,44
57,58000,14,15,2,0,11,14,59,72.013,25,0.0,0,0,0,0,0,0,0,0,-202653656,-402626800,298,25,10,84,234,172
58,59000,14,15,3,0,11,15,0,72.6218,7,0.0,0,0,0,0,0,0,0,0,-202653656,-402626800,303,7,10,84,236,123
59,60000,14,15,4,0,11,15,1,71.9668,90,0.0,0,0,0,0,0,0,0,0,-202653675,-402626838,298,90,10,84,231,208
60,61000,14,15,5,0,11,15,2,72.7568,16,0.0,0,0,0,0,0,0,0,0,-202653694,-402626876,296,16,10,84,230,239
61,62000,14,15,6,0,11,15,3,72.2405,114,0.0,0,0,0,0,0,0,0,0,-202653675,-402626876,296,114,10,84,238,180
62,63000,14,15,7,0,11,15,4,72.6959,53,0.0,0,0,0,0,0,0,0,0,-202653694,-402626838,293,53,10,84,235,56
63,64000,14,15,8,0,11,15,5,72.3741,38,0.0,0,0,0,0,0,0,0,0,-202653732,-402626838,292,38,10,84,221,224
64,65000,14,15,9,0,11,15,6,71.6489,153,0.0,0,0,0,0,0,0,0,0,-202653789,-402626838,297,153,10,96,220,139
65,66000,14,15,10,0,11,15,7,72.8099,92,0.0,0,0,0,0,0,0,0,0,-202653808,-402626800,282,92,10,84,230,249
66,67000,14,15,11,0,11,15,8,71.7033,5,0.0,0,0,0,0,0,0,0,0,-202653827,-402626724,267,5,10,84,228,99
67,68000,14,15,12,0,11,15,9,72.7013,50,0.0,0,0,0,0,0,0,0,0,-202653789,-402626647,256,50,10,84,228,19
68,69000,14,15,13,0,11,15,10,71.8423,55,0.0,0,0,0,0,0,0,0,0,-202653751,-402626609,243,55,10,84,227,73
69,70000,14,15,14,0,11,15,11,71.6835,150,0.0,0,0,0,0,0,0,0,0,-202653732,-402626609,231,150,10,84,220,252
70,71000,14,15,15,0,11,15,12,71.4867,59,0.0,0,0,0,0,0,0,0,0,-202653751,-402626647,227,59,10,84,230,247
71,72000,14,15,16,0,11,15,13,72.1138,46,0.0,0,0,0,0,0,0,0,0,-202653751,-402626647,227,46,10,84,223,203
72,73000,14,15,17,0,11,15,14,72.7914,25,0.0,0,0,0,0,0,0,0,0,-202653770,-402626647,228,25,10,84,232,125
73,74000,14,15,18,0,11,15,15,72.9155,75,0.0,0,0,0,0,0,0,0,0,-202653789,-402626609,227,75,10,84,224,225
74,75000,14,15,19,0,11,15,16,71.9607,33,0.0,0,0,0,0,0,0,0,0,-202653789,-402626609,223,33,10,84,235,118
75,76000,14,15,20,0,11,15,17,72.4312,127,0.0,0,0,0,0,0,0,0,0,-202653808,-402626609,220,127,10,84,232,10
76,77000,14,15,21,0,11,15,18,71.7154,251,0.0,0,0,0,0,0,0,0,0,-202653865,-402626609,222,251,10,84,224,185
77,78000,14,15,22,0,11,15,19,72.8822,227,0.0,0,0,0,0,0,0,0,0,-202653923,-402626571,222,227,10,84,222,99
78,79000,14,15,23,0,11,15,20,72.3557,262,0.0,0,0,0,0,0,0,0,0,-202653961,-402626495,222,262,10,84,226,191
79,80000,14,15,24,0,11,15,21,72.791,277,0.0,0,0,0,0,0,0,0,0,-202653961,-402626419,221,277,10,84,221,22
80,81000,14,15,25,0,11,15,22,71.9198,264,0.0,0,0,0,0,0,0,0,0,-202653942,-402626380,220,264,10,84,208,36
81,82000,14,15,26,0,11,15,23,72.9094,409,0.0,0,0,0,0,0,0,0,0,-202653923,-402626266,217,409,10,84,211,183
82,83000,14,15,27,0,11,15,24,71.9412,392,0.0,0,0,0,0,0,0,0,0,-202653884,-402626152,213,392,10,84,202,24
83,84000,14,15,28,0,11,15,25,72.9329,451,0.0,0,0,0,0,0,0,0,0,-202653846,-402626075,211,451,10,84,197,237
84,85000,14,15,29,0,11,15,26,72.8368,492,0.0,0,0,0,0,0,0,0,0,-202653808,-402625961,210,492,10,84,207,197
85,86000,14,15,30,0,11,15,27,72.7524,405,0.0,0,0,0,0,0,0,0,0,-202653770,-402625846,206,405,10,84,205,153
86,87000,14,15,31,0,11,15,28,71.8448,331,0.0,0,0,0,0,0,0,0,0,-202653751,-402625770,200,331,10,84,203,77
87,88000,14,15,32,0,11,15,29,72.2708,385,0.0,0,0,0,0,0,0,0,0,-202653751,-402625694,197,385,10,84,200,240
88,89000,14,15,33,0,11,15,30,71.911,387,0.0,0,0,0,0,0,0,0,0,-202653732,-402625617,197,387,10,84,205,66
89,90000,14,15,34,0,11,15,31,72.5274,388,0.0,0,0,0,0,0,0,0,0,-202653770,-402625541,198,388,10,84,206,89
90,91000,14,15,35,0,11,15,32,71.6486,468,0.0,0,0,0,0,0,0,0,0,-202653751,-402625427,198,468,10,84,190,109
91,92000,14,15,36,0,11,15,33,71.7181,422,0.0,0,0,0,0,0,0,0,0,-202653789,-402625312,198,422,10,84,201,76
92,93000,14,15,37,0,11,15,34,72.1837,827,0.0,0,0,0,0,0,0,0,0,-202653942,-402625312,190,827,10,84,188,199
93,94000,14,15,38,0,11,15,35,72.1782,261,0.0,0,0,0,0,0,0,0,0,-202653980,-402625274,183,261,10,84,191,62
94,95000,14,15,39,0,11,15,36,72.6648,664,0.0,0,0,0,0,0,0,0,0,-202653999,-402625389,172,664,10,84,197,194
95,96000,14,15,40,0,11,15,37,73.0327,211,0.0,0,0,0,0,0,0,0,0,-202653942,-402625350,161,211,10,84,187,120
96,97000,14,15,41,0,11,15,38,72.7455,231,0.0,0,0,0,0,0,0,0,0,-202653942,-402625350,150,231,10,84,193,130
97,98000,14,15,42,0,11,15,39,72.9333,603,0.0,0,0,0,0,0,0,0,0,-202654037,-402625427,140,603,10,84,192,165
98,99000,14,15,43,0,11,15,40,72.2515,359,0.0,0,0,0,0,0,0,0,0,-202654075,-402625427,121,359,10,91,185,119
99,100000,14,15,44,0,11,15,41,71.4875,111,0.0,0,0,0,0,0,0,0,0,-202653961,-402625389,111,111,10,89,194,255
100,101000,14,15,45,0,11,15,42,72.8987,116,0.0,0,0,0,0,0,0,0,0,-202653827,-402625236,108,116,10,89,190,21
101,102000,14,15,46,0,11,15,43,71.8952,261,0.0,0,0,0,0,0,0,0,0,-202653656,-402625045,93,261,10,89,185,131
102,103000,14,15,47,0,11,15,44,73.0622,477,0.0,0,0,0,0,0,0,0,0,-202653503,-402624778,81,477,10,84,182,181
103,104000,14,15,48,0,11,15,45,72.6984,488,0.0,0,0,0,0,0,0,0,0,-202653369,-402624511,88,488,10,84,179,84
104,105000,14,15,49,0,11,15,46,71.785,446,0.0,0,0,0,0,0,0,0,0,-202653274,-402624359,101,446,10,84,185,242
105,106000,14,15,50,0,11,15,47,72.9573,420,0.0,0,0,0,0,0,0,0,0,-202653217,-402624206,98,420,10,84,189,124
106,107000,14,15,51,0,11,15,48,72.2317,440,0.0,0,0,0,0,0,0,0,0,-202653141,-402624053,101,440,10,84,178,122
107,108000,14,15,52,0,11,15,49,71.6366,479,0.0,0,0,0,0,0,0,0,0,-202653083,-402623863,105,479,10,84,182,179
108,109000,14,15,53,0,11,15,50,72.5205,390,0.0,0,0,0,0,0,0,0,0,-202653045,-402623748,108,390,10,84,175,139
109,110000,14,15,54,0,11,15,51,71.8712,177,0.0,0,0,0,0,0,0,0,0,-202653045,-402623672,113,177,10,84,174,31
110,111000,14,15,55,0,11,15,52,72.3684,138,0.0,0,0,0,0,0,0,0,0,-202653083,-402623634,128,138,10,84,178,206
111,112000,14,15,56,0,11,15,53,71.9317,253,0.0,0,0,0,0,0,0,0,0,-202653064,-402623672,126,253,10,84,181,141
112,113000,14,15,57,0,11,15,54,72.0123,401,0.0,0,0,0,0,0,0,0,0,-202652969,-402623672,126,401,10,84,183,4
113,114000,14,15,58,0,11,15,55,72.8319,405,0.0,0,0,0,0,0,0,0,0,-202652873,-402623710,126,405,9,89,171,57
114,115000,14,15,59,0,11,15,56,72.3019,540,0.0,0,0,0,0,0,0,0,0,-202652759,-402623710,143,540,9,89,182,186
115,116000,14,16,0,0,11,15,57,71.5803,479,0.0,0,0,0,0,0,0,0,0,-202652626,-402623596,155,479,9,89,178,245
116,117000,14,16,1,0,11,15,58,71.868,470,0.0,0,0,0,0,0,0,0,0,-202652492,-402623558,153,470,10,89,179,124
117,118000,14,16,2,0,11,15,59,71.8974,162,0.0,0,0,0,0,0,0,0,0,-202652435,-402623558,158,162,10,89,174,61
118,119000,14,16,3,0,11,16,0,71.9255,214,0.0,0,0,0,0,0,0,0,0,-202652397,-402623558,151,214,10,89,170,179
119,120000,14,16,4,0,11,16,1,72.4694,575,0.0,0,0,0,0,0,0,0,0,-202652263,-402623634,148,575,10,84,173,169
120,121000,14,16,5,0,11,16,2,72.7986,448,0.0,0,0,0,0,0,0,0,0,-202652130,-402623634,141,448,10,84,175,22
121,122000,14,16,6,0,11,16,3,73.1907,525,0.0,0,0,0,0,0,0,0,0,-202651996,-402623672,111,525,9,90,183,231
122,123000,14,16,7,0,11,16,4,72.8274,424,0.0,0,0,0,0,0,0,0,0,-202651882,-402623634,90,424,9,90,174,141
123,124000,14,16,8,0,11,16,5,71.9449,529,0.0,0,0,0,0,0,0,0,0,-202651729,-402623634,81,529,10,84,181,218
124,125000,14,16,9,0,11,16,6,72.7988,440,0.0,0,0,0,0,0,0,0,0,-202651615,-402623672,78,440,10,84,175,94
125,126000,14,16,10,0,11,16,7,72.7028,420,0.0,0,0,0,0,0,0,0,0,-202651500,-402623710,78,420,10,84,182,113
126,127000,14,16,11,0,11,16,8,71.9584,422,0.0,0,0,0,0,0,0,0,0,-202651424,-402623786,81,422,10,84,183,101
127,128000,14,16,12,0,11,16,9,73.0678,416,0.0,0,0,0,0,0,0,0,0,-202651348,-402623825,91,416,10,84,186,119
128,129000,14,16,13,0,11,16,10,71.8444,483,0.0,0,0,0,0,0,0,0,0,-202651271,-402623901,103,483,10,84,186,247
129,130000,14,16,14,0,11,16,11,72.73,531,0.0,0,0,0,0,0,0,0,0,-202651195,-402623977,111,531,10,84,182,79
130,131000,14,16,15,0,11,16,12,71.6431,557,0.0,0,0,0,0,0,0,0,0,-202651081,-402624053,113,557,10,84,191,153
131,132000,14,16,16,0,11,16,13,72.6673,433,0.0,0,0,0,0,0,0,0,0,-202651023,-402624130,116,433,10,84,179,126
132,133000,14,16,17,0,11,16,14,72.3013,409,0.0,0,0,0,0,0,0,0,0,-202650966,-402624206,121,409,10,84,188,46
133,134000,14,16,18,0,11,16,15,73.1812,564,0.0,0,0,0,0,0,0,0,0,-202650871,-402624282,126,564,10,84,188,108
134,135000,14,16,19,0,11,16,16,71.7337,412,0.0,0,0,0,0,0,0,0,0,-202650852,-402624359,140,412,10,84,191,252
135,136000,14,16,20,0,11,16,17,73.0761,407,0.0,0,0,0,0,0,0,0,0,-202650852,-402624435,153,407,10,84,186,161
136,137000,14,16,21,0,11,16,18,72.2819,414,0.0,0,0,0,0,0,0,0,0,-202650852,-402624473,170,414,10,84,189,136
137,138000,14,16,22,0,11,16,19,72.3995,485,0.0,0,0,0,0,0,0,0,0,-202650890,-402624588,177,485,10,84,189,112
138,139000,14,16,23,0,11,16,20,73.1925,488,0.0,0,0,0,0,0,0,0,0,-202650928,-402624702,178,488,10,83,186,203
139,140000,14,16,24,0,11,16,21,72.0681,481,0.0,0,0,0,0,0,0,0,0,-202651004,-402624778,185,481,10,83,176,25
140,141000,14,16,25,0,11,16,22,71.6628,501,0.0,0,0,0,0,0,0,0,0,-202651081,-402624893,183,501,10,83,171,109
141,142000,14,16,26,0,11,16,23,72.4122,487,0.0,0,0,0,0,0,0,0,0,-202651157,-402625007,185,487,10,83,184,130
142,143000,14,16,27,0,11,16,24,72.991,461,0.0,0,0,0,0,0,0,0,0,-202651233,-402625083,187,461,10,83,183,165
143,144000,14,16,28,0,11,16,25,71.6559,505,0.0,0,0,0,0,0,0,0,0,-202651309,-402625198,191,505,10,83,186,48
144,145000,14,16,29,0,11,16,26,72.2139,505,0.0,0,0,0,0,0,0,0,0,-202651367,-402625312,191,505,10,83,182,113
145,146000,14,16,30,0,11,16,27,72.883,503,0.0,0,0,0,0,0,0,0,0,-202651443,-402625427,192,503,10,83,195,156
146,147000,14,16,31,0,11,16,28,72.2686,518,0.0,0,0,0,0,0,0,0,0,-202651500,-402625541,193,518,10,83,196,255
147,148000,14,16,32,0,11,16,29,73.0443,492,0.0,0,0,0,0,0,0,0,0,-202651557,-402625656,195,492,10,83,197,13
148,149000,14,16,33,0,11,16,30,71.8909,520,0.0,0,0,0,0,0,0,0,0,-202651615,-402625808,195,520,10,83,201,98
149,150000,14,16,34,0,11,16,31,72.864,524,0.0,0,0,0,0,0,0,0,0,-202651653,-402625923,196,524,10,83,203,190
150,151000,14,16,35,0,11,16,32,71.9737,509,0.0,0,0,0,0,0,0,0,0,-202651710,-402626075,198,509,10,83,199,188
151,152000,14,16,36,0,11,16,33,71.7738,492,0.0,0,0,0,0,0,0,0,0,-202651748,-402626190,198,492,10,83,203,239
152,153000,14,16,37,0,11,16,34,72.2866,511,0.0,0,0,0,0,0,0,0,0,-202651748,-402626304,197,511,10,83,195,144
153,154000,14,16,38,0,11,16,35,72.8383,492,0.0,0,0,0,0,0,0,0,0,-202651767,-402626457,197,492,10,83,204,171
154,155000,14,16,39,0,11,16,36,71.7309,485,0.0,0,0,0,0,0,0,0,0,-202651767,-402626571,196,485,10,83,194,23
155,156000,14,16,40,0,11,16,37,71.8129,494,0.0,0,0,0,0,0,0,0,0,-202651767,-402626686,197,494,10,83,191,165
156,157000,14,16,41,0,11,16,38,72.1057,481,0.0,0,0,0,0,0,0,0,0,-202651786,-402626838,197,481,10,83,197,205
157,158000,14,16,42,0,11,16,39,72.7449,481,0.0,0,0,0,0,0,0,0,0,-202651805,-402626953,195,481,10,88,201,56
158,159000,14,16,43,0,11,16,40,73.3077,461,0.0,0,0,0,0,0,0,0,0,-202651844,-402627067,193,461,10,88,197,99
159,160000,14,16,44,0,11,16,41,72.3711,396,0.0,0,0,0,0,0,0,0,0,-202651882,-402627182,192,396,10,88,200,52
160,161000,14,16,45,0,11,16,42,71.9331,370,0.0,0,0,0,0,0,0,0,0,-202651958,-402627220,192,370,10,95,190,129
161,162000,14,16,46,0,11,16,43,72.4882,387,0.0,0,0,0,0,0,0,0,0,-202652072,-402627220,196,387,10,88,187,28
162,163000,14,16,47,0,11,16,44,71.7935,414,0.0,0,0,0,0,0,0,0,0,-202652168,-402627182,196,414,10,88,198,5
163,164000,14,16,48,0,11,16,45,73.0175,387,0.0,0,0,0,0,0,0,0,0,-202652225,-402627105,197,387,10,88,188,210
164,165000,14,16,49,0,11,16,46,73.0482,437,0.0,0,0,0,0,0,0,0,0,-202652263,-402626991,195,437,10,95,202,118
165,166000,14,16,50,0,11,16,47,72.4661,368,0.0,0,0,0,0,0,0,0,0,-202652301,-402626876,200,368,10,83,200,32
166,167000,14,16,51,0,11,16,48,71.8663,387,0.0,0,0,0,0,0,0,0,0,-202652378,-402626800,196,387,10,83,206,48
167,168000,14,16,52,0,11,16,49,72.3291,409,0.0,0,0,0,0,0,0,0,0,-202652416,-402626686,197,409,10,83,205,151
168,169000,14,16,53,0,11,16,50,72.8165,511,0.0,0,0,0,0,0,0,0,0,-202652492,-402626533,192,511,10,83,201,153
169,170000,14,16,54,0,11,16,51,72.036,353,0.0,0,0,0,0,0,0,0,0,-202652492,-402626419,195,353,10,83,205,192
170,171000,14,16,55,0,11,16,52,73.1356,375,0.0,0,0,0,0,0,0,0,0,-202652454,-402626304,192,375,10,83,208,112
171,172000,14,16,56,0,11,16,53,73.1679,396,0.0,0,0,0,0,0,0,0,0,-202652435,-402626190,192,396,10,83,214,13
172,173000,14,16,57,0,11,16,54,73.3651,401,0.0,0,0,0,0,0,0,0,0,-202652435,-402626075,192,401,10,83,202,120
173,174000,14,16,58,0,11,16,55,73.2857,331,0.0,0,0,0,0,0,0,0,0,-202652416,-402625999,192,331,10,83,204,59
174,175000,14,16,59,0,11,16,56,72.6277,394,0.0,0,0,0,0,0,0,0,0,-202652397,-402625923,195,394,10,83,206,9
175,176000,14,17,0,0,11,16,57,73.2112,325,0.0,0,0,0,0,0,0,0,0,-202652359,-402625808,193,325,10,83,200,201
176,177000,14,17,1,0,11,16,58,72.3997,338,0.0,0,0,0,0,0,0,0,0,-202652359,-402625732,192,338,10,83,204,29
177,178000,14,17,2,0,11,16,59,72.1381,355,0.0,0,0,0,0,0,0,0,0,-202652320,-402625656,193,355,10,83,201,161
178,179000,14,17,3,0,11,17,0,72.4747,357,0.0,0,0,0,0,0,0,0,0,-202652301,-402625541,193,357,10,83,191,25
179,180000,14,17,4,0,11,17,1,72.3039,283,0.0,0,0,0,0,0,0,0,0,-202652301,-402625465,195,283,10,83,189,194
180,181000,14,17,5,0,11,17,2,72.0753,320,0.0,0,0,0,0,0,0,0,0,-202652282,-402625389,197,320,10,83,191,91
181,182000,14,17,6,0,11,17,3,72.8502,329,0.0,0,0,0,0,0,0,0,0,-202652263,-402625312,201,329,10,83,187,190
182,183000,14,17,7,0,11,17,4,72.103,348,0.0,0,0,0,0,0,0,0,0,-202652244,-402625198,202,348,10,83,193,89
183,184000,14,17,8,0,11,17,5,73.1306,316,0.0,0,0,0,0,0,0,0,0,-202652244,-402625122,201,316,10,83,196,82
184,185000,14,17,9,0,11,17,6,72.0134,364,0.0,0,0,0,0,0,0,0,0,-202652225,-402625007,202,364,10,83,204,40
185,186000,14,17,10,0,11,17,7,72.8273,344,0.0,0,0,0,0,0,0,0,0,-202652206,-402624931,202,344,10,83,188,77
186,187000,14,17,11,0,11,17,8,73.2856,387,0.0,0,0,0,0,0,0,0,0,-202652206,-402624855,206,387,10,83,200,225
187,188000,14,17,12,0,11,17,9,72.0519,448,0.0,0,0,0,0,0,0,0,0,-202652263,-402624778,210,448,10,83,208,97
188,189000,14,17,13,0,11,17,10,73.0395,424,0.0,0,0,0,0,0,0,0,0,-202652359,-402624702,212,424,10,83,207,14
189,190000,14,17,14,0,11,17,11,71.8774,414,0.0,0,0,0,0,0,0,0,0,-202652454,-402624664,216,414,10,83,207,178
190,191000,14,17,15,0,11,17,12,72.3287,396,0.0,0,0,0,0,0,0,0,0,-202652549,-402624702,227,396,10,83,208,2
191,192000,14,17,16,0,11,17,13,72.5684,398,0.0,0,0,0,0,0,0,0,0,-202652606,-402624778,233,398,10,83,208,116
192,193000,14,17,17,0,11,17,14,72.0214,307,0.0,0,0,0,0,0,0,0,0,-202652664,-402624816,228,307,10,83,208,70
193,194000,14,17,18,0,11,17,15,72.8402,390,0.0,0,0,0,0,0,0,0,0,-202652702,-402624931,227,390,10,83,205,63
194,195000,14,17,19,0,11,17,16,72.0166,396,0.0,0,0,0,0,0,0,0,0,-202652759,-402625007,222,396,10,83,204,175
195,196000,14,17,20,0,11,17,17,72.371,366,0.0,0,0,0,0,0,0,0,0,-202652816,-402625083,222,366,10,83,201,219
196,197000,14,17,21,0,11,17,18,73.2575,401,0.0,0,0,0,0,0,0,0,0,-202652873,-402625160,222,401,10,83,198,138
197,198000,14,17,22,0,11,17,19,73.4334,381,0.0,0,0,0,0,0,0,0,0,-202652931,-402625274,221,381,10,83,203,162
198,199000,14,17,23,0,11,17,20,73.2408,403,0.0,0,0,0,0,0,0,0,0,-202652950,-402625350,217,403,10,83,207,88
199,200000,14,17,24,0,11,17,21,72.7794,379,0.0,0,0,0,0,0,0,0,0,-202653007,-402625465,216,379,10,83,199,105
200,201000,14,17,25,0,11,17,22,72.5336,375,0.0,0,0,0,0,0,0,0,0,-202653026,-402625541,217,375,10,83,205,240
201,202000,14,17,26,0,11,17,23,72.124,374,0.0,0,0,0,0,0,0,0,0,-202653064,-402625656,217,374,10,83,207,67
202,203000,14,17,27,0,11,17,24,72.7333,394,0.0,0,0,0,0,0,0,0,0,-202653083,-402625732,212,394,10,83,207,244
203,204000,14,17,28,0,11,17,25,73.2909,396,0.0,0,0,0,0,0,0,0,0,-202653102,-402625846,212,396,10,83,201,96
204,205000,14,17,29,0,11,17,26,72.5058,385,0.0,0,0,0,0,0,0,0,0,-202653121,-402625923,207,385,10,83,213,211
205,206000,14,17,30,0,11,17,27,73.3628,359,0.0,0,0,0,0,0,0,0,0,-202653141,-402625999,202,359,10,83,208,40
206,207000,14,17,31,0,11,17,28,72.4046,433,0.0,0,0,0,0,0,0,0,0,-202653198,-402626075,200,433,10,83,216,33
207,208000,14,17,32,0,11,17,29,71.8542,451,0.0,0,0,0,0,0,0,0,0,-202653217,-402626190,196,451,10,83,210,169
208,209000,14,17,33,0,11,17,30,71.9947,450,0.0,0,0,0,0,0,0,0,0,-202653236,-402626304,192,450,10,83,212,12
209,210000,14,17,34,0,11,17,31,72.6279,474,0.0,0,0,0,0,0,0,0,0,-202653274,-402626419,192,474,10,83,211,144
210,211000,14,17,35,0,11,17,32,73.0227,459,0.0,0,0,0,0,0,0,0,0,-202653312,-402626533,188,459,10,83,210,196
211,212000,14,17,36,0,11,17,33,72.1503,455,0.0,0,0,0,0,0,0,0,0,-202653350,-402626647,186,455,10,83,216,15
212,213000,14,17,37,0,11,17,34,72.5455,374,0.0,0,0,0,0,0,0,0,0,-202653388,-402626762,187,374,10,83,208,195
213,214000,14,17,38,0,11,17,35,73.2185,303,0.0,0,0,0,0,0,0,0,0,-202653427,-402626838,187,303,10,83,201,174
214,215000,14,17,39,0,11,17,36,72.0134,255,0.0,0,0,0,0,0,0,0,0,-202653446,-402626876,190,255,10,83,213,3
215,216000,14,17,40,0,11,17,37,72.8748,255,0.0,0,0,0,0,0,0,0,0,-202653465,-402626953,191,255,10,83,217,146
216,217000,14,17,41,0,11,17,38,73.393,442,0.0,0,0,0,0,0,0,0,0,-202653484,-402627067,192,442,10,83,203,116
217,218000,14,17,42,0,11,17,39,72.1551,420,0.0,0,0,0,0,0,0,0,0,-202653503,-402627182,193,420,10,83,213,176
218,219000,14,17,43,0,11,17,40,73.1455,305,0.0,0,0,0,0,0,0,0,0,-202653522,-402627296,195,305,10,83,201,53
219,220000,14,17,44,0,11,17,41,73.4547,375,0.0,0,0,0,0,0,0,0,0,-202653541,-402627372,197,375,10,83,202,81
220,221000,14,17,45,0,11,17,42,73.1452,429,0.0,0,0,0,0,0,0,0,0,-202653560,-402627487,196,429,10,83,208,36
221,222000,14,17,46,0,11,17,43,72.7312,433,0.0,0,0,0,0,0,0,0,0,-202653579,-402627601,192,433,10,83,208,144
222,223000,14,17,47,0,11,17,44,72.3132,372,0.0,0,0,0,0,0,0,0,0,-202653598,-402627716,192,372,10,83,204,126
223,224000,14,17,48,0,11,17,45,72.8597,374,0.0,0,0,0,0,0,0,0,0,-202653617,-402627830,191,374,10,83,207,234
224,225000,14,17,49,0,11,17,46,72.0392,414,0.0,0,0,0,0,0,0,0,0,-202653636,-402627906,191,414,10,83,206,199
225,226000,14,17,50,0,11,17,47,72.4144,461,0.0,0,0,0,0,0,0,0,0,-202653675,-402628021,191,461,10,83,201,121
226,227000,14,17,51,0,11,17,48,73.3853,461,0.0,0,0,0,0,0,0,0,0,-202653694,-402628173,192,461,10,83,199,188
227,228000,14,17,52,0,11,17,49,73.1462,474,0.0,0,0,0,0,0,0,0,0,-202653694,-402628288,195,474,10,83,195,84
228,229000,14,17,53,0,11,17,50,72.0556,464,0.0,0,0,0,0,0,0,0,0,-202653713,-402628440,195,464,10,83,196,129
229,230000,14,17,54,0,11,17,51,72.6115,457,0.0,0,0,0,0,0,0,0,0,-202653732,-402628555,197,457,10,83,194,221
230,231000,14,17,55,0,11,17,52,72.0814,444,0.0,0,0,0,0,0,0,0,0,-202653770,-402628669,197,444,10,83,194,24
231,232000,14,17,56,0,11,17,53,73.1625,470,0.0,0,0,0,0,0,0,0,0,-202653789,-402628784,197,470,10,83,195,180
232,233000,14,17,57,0,11,17,54,72.2541,487,0.0,0,0,0,0,0,0,0,0,-202653808,-402628936,197,487,10,88,194,29
233,234000,14,17,58,0,11,17,55,71.9731,496,0.0,0,0,0,0,0,0,0,0,-202653846,-402629051,197,496,10,83,196,127
234,235000,14,17,59,0,11,17,56,73.0593,474,0.0,0,0,0,0,0,0,0,0,-202653865,-402629165,197,474,10,83,196,186
235,236000,14,18,0,0,11,17,57,72.091,496,0.0,0,0,0,0,0,0,0,0,-202653903,-402629318,198,496,10,83,192,219
236,237000,14,18,1,0,11,17,58,72.6761,487,0.0,0,0,0,0,0,0,0,0,-202653942,-402629432,200,487,10,83,195,31
237,238000,14,18,2,0,11,17,59,73.3659,359,0.0,0,0,0,0,0,0,0,0,-202653961,-402629547,202,359,10,83,192,136
238,239000,14,18,3,0,11,18,0,73.1966,294,0.0,0,0,0,0,0,0,0,0,-202653980,-402629623,203,294,10,83,198,150
239,240000,14,18,4,0,11,18,1,73.2833,235,0.0,0,0,0,0,0,0,0,0,-202653980,-402629699,207,235,10,83,205,195
240,241000,14,18,5,0,11,18,2,72.5675,179,0.0,0,0,0,0,0,0,0,0,-202653999,-402629737,211,179,10,83,200,12
241,242000,14,18,6,0,11,18,3,73.3456,350,0.0,0,0,0,0,0,0,0,0,-202654018,-402629814,212,350,10,83,188,243
242,243000,14,18,7,0,11,18,4,72.8251,470,0.0,0,0,0,0,0,0,0,0,-202654037,-402629928,212,470,10,83,197,75
243,244000,14,18,8,0,11,18,5,73.3064,505,0.0,0,0,0,0,0,0,0,0,-202654075,-402630043,212,505,10,83,194,230
244,245000,14,18,9,0,11,18,6,73.3955,403,0.0,0,0,0,0,0,0,0,0,-202654094,-402630195,216,403,10,83,197,96
245,246000,14,18,10,0,11,18,7,73.0863,379,0.0,0,0,0,0,0,0,0,0,-202654113,-402630271,215,379,10,83,202,189
246,247000,14,18,11,0,11,18,8,72.5929,416,0.0,0,0,0,0,0,0,0,0,-202654151,-402630386,212,416,10,83,201,89
247,248000,14,18,12,0,11,18,9,72.6901,422,0.0,0,0,0,0,0,0,0,0,-202654170,-402630500,211,422,10,83,196,204
248,249000,14,18,13,0,11,18,10,72.1095,429,0.0,0,0,0,0,0,0,0,0,-202654209,-402630577,208,429,10,83,194,80
249,250000,14,18,14,0,11,18,11,73.0702,494,0.0,0,0,0,0,0,0,0,0,-202654247,-402630729,207,494,10,83,192,0
250,251000,14,18,15,0,11,18,12,72.5605,520,0.0,0,0,0,0,0,0,0,0,-202654285,-402630844,207,520,10,83,192,139
251,252000,14,18,16,0,11,18,13,72.9826,527,0.0,0,0,0,0,0,0,0,0,-202654304,-402630996,207,527,10,83,188,219
252,253000,14,18,17,0,11,18,14,72.5488,492,0.0,0,0,0,0,0,0,0,0,-202654342,-402631111,207,492,10,83,187,232
253,254000,14,18,18,0,11,18,15,73.0775,505,0.0,0,0,0,0,0,0,0,0,-202654380,-402631225,207,505,10,83,192,87
254,255000,14,18,19,0,11,18,16,72.1724,518,0.0,0,0,0,0,0,0,0,0,-202654438,-402631378,208,518,10,83,195,143
255,256000,14,18,20,0,11,18,17,72.7695,511,0.0,0,0,0,0,0,0,0,0,-202654476,-402631492,208,511,10,83,195,211
256,257000,14,18,21,0,11,18,18,73.3847,511,0.0,0,0,0,0,0,0,0,0,-202654495,-402631607,207,511,10,83,195,58
257,258000,14,18,22,0,11,18,19,72.2887,529,0.0,0,0,0,0,0,0,0,0,-202654533,-402631759,208,529,10,83,194,144
258,259000,14,18,23,0,11,18,20,72.9324,431,0.0,0,0,0,0,0,0,0,0,-202654552,-402631874,210,431,10,83,195,52
259,260000,14,18,24,0,11,18,21,73.0918,268,0.0,0,0,0,0,0,0,0,0,-202654571,-402631950,212,268,10,83,201,126
260,261000,14,18,25,0,11,18,22,73.5824,198,0.0,0,0,0,0,0,0,0,0,-202654590,-402631988,213,198,10,83,193,166
261,262000,14,18,26,0,11,18,23,73.4529,303,0.0,0,0,0,0,0,0,0,0,-202654609,-402632064,216,303,10,83,198,12
262,263000,14,18,27,0,11,18,24,72.7562,346,0.0,0,0,0,0,0,0,0,0,-202654628,-402632141,216,346,10,83,195,241
263,264000,14,18,28,0,11,18,25,73.5771,479,0.0,0,0,0,0,0,0,0,0,-202654666,-402632255,217,479,10,83,193,81
264,265000,14,18,29,0,11,18,26,72.7613,300,0.0,0,0,0,0,0,0,0,0,-202654685,-402632369,220,300,10,83,189,87
265,266000,14,18,30,0,11,18,27,73.0056,287,0.0,0,0,0,0,0,0,0,0,-202654685,-402632408,221,287,10,83,190,5
266,267000,14,18,31,0,11,18,28,73.2701,450,0.0,0,0,0,0,0,0,0,0,-202654705,-402632522,218,450,10,83,191,174
267,268000,14,18,32,0,11,18,29,73.4384,500,0.0,0,0,0,0,0,0,0,0,-202654724,-402632637,217,500,10,83,195,120
268,269000,14,18,33,0,11,18,30,72.8504,392,0.0,0,0,0,0,0,0,0,0,-202654762,-402632751,217,392,10,83,196,245
269,270000,14,18,34,0,11,18,31,73.5798,340,0.0,0,0,0,0,0,0,0,0,-202654781,-402632827,215,340,10,83,191,26
270,271000,14,18,35,0,11,18,32,72.9476,374,0.0,0,0,0,0,0,0,0,0,-202654819,-402632942,213,374,10,83,189,177
271,272000,14,18,36,0,11,18,33,73.6354,403,0.0,0,0,0,0,0,0,0,0,-202654857,-402633018,212,403,10,83,186,101
272,273000,14,18,37,0,11,18,34,73.2296,429,0.0,0,0,0,0,0,0,0,0,-202654895,-402633132,208,429,10,83,190,235
273,274000,14,18,38,0,11,18,35,72.4271,450,0.0,0,0,0,0,0,0,0,0,-202654914,-402633247,208,450,10,83,185,124
274,275000,14,18,39,0,11,18,36,72.7128,494,0.0,0,0,0,0,0,0,0,0,-202654914,-402633361,207,494,10,83,175,79
275,276000,14,18,37,0,11,18,37,72.2864,451,0.0,0,0,0,0,0,0,0,0,-202654876,-402633476,206,451,10,83,178,149
276,277000,14,18,38,0,11,18,38,73.6744,485,0.0,0,0,0,0,0,0,0,0,-202654838,-402633628,205,485,10,83,184,84
277,278000,14,18,39,0,11,18,39,73.4691,546,0.0,0,0,0,0,0,0,0,0,-202654781,-402633743,203,546,10,83,180,128
278,279000,14,18,40,0,11,18,40,72.5285,572,0.0,0,0,0,0,0,0,0,0,-202654685,-402633895,203,572,10,83,173,107
279,280000,14,18,41,0,11,18,41,73.7032,498,0.0,0,0,0,0,0,0,0,0,-202654628,-402634010,207,498,10,83,184,140
280,281000,14,18,42,0,11,18,42,72.7815,427,0.0,0,0,0,0,0,0,0,0,-202654533,-402634086,208,427,10,83,190,0
281,282000,14,18,43,0,11,18,43,72.7619,418,0.0,0,0,0,0,0,0,0,0,-202654418,-402634086,210,418,10,83,192,82
282,283000,14,18,44,0,11,18,44,72.9781,375,0.0,0,0,0,0,0,0,0,0,-202654323,-402634048,201,375,10,83,188,102
283,284000,14,18,45,0,11,18,45,73.6606,540,0.0,0,0,0,0,0,0,0,0,-202654228,-402633972,192,540,10,83,192,67
284,285000,14,18,46,0,11,18,46,72.3354,529,0.0,0,0,0,0,0,0,0,0,-202654113,-402633895,186,529,10,83,191,214
285,286000,14,18,47,0,11,18,47,73.5149,501,0.0,0,0,0,0,0,0,0,0,-202653999,-402633819,181,501,10,83,190,67
286,287000,14,18,48,0,11,18,48,73.6245,531,0.0,0,0,0,0,0,0,0,0,-202653903,-402633743,176,531,10,83,186,23
287,288000,14,18,49,0,11,18,49,72.2266,572,0.0,0,0,0,0,0,0,0,0,-202653808,-402633628,167,572,10,83,189,33
288,289000,14,18,50,0,11,18,50,72.3456,538,0.0,0,0,0,0,0,0,0,0,-202653713,-402633552,170,538,10,83,186,120
289,290000,14,18,51,0,11,18,51,73.3434,514,0.0,0,0,0,0,0,0,0,0,-202653617,-402633438,168,514,10,83,185,8
290,291000,14,18,52,0,11,18,52,73.4874,500,0.0,0,0,0,0,0,0,0,0,-202653522,-402633361,168,500,10,83,184,132
291,292000,14,18,53,0,11,18,53,72.4323,475,0.0,0,0,0,0,0,0,0,0,-202653446,-402633247,167,475,10,89,178,3
292,293000,14,18,54,0,11,18,54,72.8688,479,0.0,0,0,0,0,0,0,0,0,-202653350,-402633171,166,479,10,83,183,160
293,294000,14,18,55,0,11,18,55,73.2337,488,0.0,0,0,0,0,0,0,0,0,-202653274,-402633056,166,488,10,98,185,110
294,295000,14,18,56,0,11,18,56,72.5214,448,0.0,0,0,0,0,0,0,0,0,-202653198,-402632980,167,448,10,89,176,156
295,296000,14,18,57,0,11,18,57,72.5011,183,0.0,0,0,0,0,0,0,0,0,-202653160,-402632942,168,183,10,83,189,191
296,297000,14,18,58,0,11,18,58,73.7668,272,0.0,0,0,0,0,0,0,0,0,-202653102,-402632865,168,272,10,83,196,232
297,298000,14,18,59,0,11,18,59,72.9292,338,0.0,0,0,0,0,0,0,0,0,-202653045,-402632827,170,338,10,83,201,187
298,299000,14,19,0,0,11,19,0,73.623,418,0.0,0,0,0,0,0,0,0,0,-202652988,-402632713,170,418,10,83,196,184
299,300000,14,19,1,0,11,19,1,72.6486,351,0.0,0,0,0,0,0,0,0,0,-202652950,-402632637,172,351,10,83,191,149
300,301000,14,19,2,0,11,19,2,73.3202,351,0.0,0,0,0,0,0,0,0,0,-202652912,-402632560,171,351,10,83,194,246
301,302000,14,19,3,0,11,19,3,72.9601,444,0.0,0,0,0,0,0,0,0,0,-202652873,-402632446,167,444,10,83,196,52
302,303000,14,19,4,0,11,19,4,73.474,420,0.0,0,0,0,0,0,0,0,0,-202652816,-402632331,162,420,10,83,197,153
303,304000,14,19,5,0,11,19,5,73.3856,464,0.0,0,0,0,0,0,0,0,0,-202652740,-402632217,158,464,10,111,196,181
304,305000,14,19,6,0,11,19,6,73.4881,494,0.0,0,0,0,0,0,0,0,0,-202652702,-402632102,153,494,10,88,196,93
305,306000,14,19,7,0,11,19,7,72.5033,450,0.0,0,0,0,0,0,0,0,0,-202652664,-402631988,146,450,10,83,190,128
306,307000,14,19,8,0,11,19,8,73.5318,463,0.0,0,0,0,0,0,0,0,0,-202652606,-402631874,141,463,10,83,191,48
307,308000,14,19,9,0,11,19,9,72.2899,653,0.0,0,0,0,0,0,0,0,0,-202652568,-402631721,126,653,10,83,188,76
308,309000,14,19,10,0,11,19,10,73.1967,531,0.0,0,0,0,0,0,0,0,0,-202652511,-402631607,128,531,10,83,195,244
309,310000,14,19,11,0,11,19,11,73.2773,513,0.0,0,0,0,0,0,0,0,0,-202652454,-402631454,125,513,10,83,194,140
310,311000,14,19,12,0,11,19,12,73.004,583,0.0,0,0,0,0,0,0,0,0,-202652397,-402631340,118,583,10,83,183,172
311,312000,14,19,13,0,11,19,13,73.013,542,0.0,0,0,0,0,0,0,0,0,-202652359,-402631187,115,542,10,83,196,4
312,313000,14,19,14,0,11,19,14,73.7035,440,0.0,0,0,0,0,0,0,0,0,-202652301,-402631111,126,440,10,83,190,182
313,314000,14,19,15,0,11,19,15,72.5153,503,0.0,0,0,0,0,0,0,0,0,-202652263,-402630996,128,503,10,83,195,189
314,315000,14,19,16,0,11,19,16,73.2593,416,0.0,0,0,0,0,0,0,0,0,-202652206,-402630882,128,416,10,83,200,169
315,316000,14,19,17,0,11,19,17,72.3099,344,0.0,0,0,0,0,0,0,0,0,-202652168,-402630805,128,344,10,83,202,122
316,317000,14,19,18,0,11,19,18,73.5332,318,0.0,0,0,0,0,0,0,0,0,-202652111,-402630729,125,318,10,83,198,183
317,318000,14,19,19,0,11,19,19,72.5297,490,0.0,0,0,0,0,0,0,0,0,-202652072,-402630615,125,490,10,83,198,151
318,319000,14,19,20,0,11,19,20,73.1998,661,0.0,0,0,0,0,0,0,0,0,-202652015,-402630462,121,661,10,83,196,171
319,320000,14,19,21,0,11,19,21,73.8015,566,0.0,0,0,0,0,0,0,0,0,-202651977,-402630310,120,566,10,83,178,153
320,321000,14,19,22,0,11,19,22,73.8848,483,0.0,0,0,0,0,0,0,0,0,-202651920,-402630195,118,483,10,83,193,136
321,322000,14,19,23,0,11,19,23,73.2824,357,0.0,0,0,0,0,0,0,0,0,-202651882,-402630081,120,357,10,83,193,22
322,323000,14,19,24,0,11,19,24,72.5932,362,0.0,0,0,0,0,0,0,0,0,-202651844,-402630004,118,362,10,83,192,127
323,324000,14,19,25,0,11,19,25,73.652,331,0.0,0,0,0,0,0,0,0,0,-202651805,-402629928,121,331,10,83,188,165
324,325000,14,19,26,0,11,19,26,73.006,290,0.0,0,0,0,0,0,0,0,0,-202651767,-402629852,121,290,10,83,198,180
325,326000,14,19,27,0,11,19,27,73.7991,324,0.0,0,0,0,0,0,0,0,0,-202651729,-402629776,116,324,10,83,193,83
326,327000,14,19,28,0,11,19,28,73.2702,594,0.0,0,0,0,0,0,0,0,0,-202651634,-402629699,111,594,10,83,189,7
327,328000,14,19,29,0,11,19,29,72.284,509,0.0,0,0,0,0,0,0,0,0,-202651557,-402629585,108,509,10,83,189,7
328,329000,14,19,30,0,11,19,30,72.5715,425,0.0,0,0,0,0,0,0,0,0,-202651500,-402629470,108,425,10,83,186,249
329,330000,14,19,31,0,11,19,31,73.2628,463,0.0,0,0,0,0,0,0,0,0,-202651500,-402629356,103,463,10,83,190,161
330,331000,14,19,32,0,11,19,32,73.6753,483,0.0,0,0,0,0,0,0,0,0,-202651500,-402629203,93,483,10,83,192,69
331,332000,14,19,33,0,11,19,33,73.5502,544,0.0,0,0,0,0,0,0,0,0,-202651519,-402629089,91,544,10,83,188,13
332,333000,14,19,34,0,11,19,34,73.3024,401,0.0,0,0,0,0,0,0,0,0,-202651519,-402628974,103,401,10,83,191,90
333,334000,14,19,35,0,11,19,35,73.7742,418,0.0,0,0,0,0,0,0,0,0,-202651538,-402628860,118,418,10,83,182,217
334,335000,14,19,36,0,11,19,36,72.3599,474,0.0,0,0,0,0,0,0,0,0,-202651596,-402628746,123,474,10,83,190,116
335,336000,14,19,37,0,11,19,37,72.9959,520,0.0,0,0,0,0,0,0,0,0,-202651729,-402628707,125,520,10,83,181,99
336,337000,14,19,38,0,11,19,38,73.6744,516,0.0,0,0,0,0,0,0,0,0,-202651863,-402628707,121,516,10,83,184,191
337,338000,14,19,39,0,11,19,39,73.7864,551,0.0,0,0,0,0,0,0,0,0,-202651996,-402628746,116,551,10,83,191,65
338,339000,14,19,40,0,11,19,40,73.2341,492,0.0,0,0,0,0,0,0,0,0,-202652091,-402628822,111,492,10,83,186,7
339,340000,14,19,41,0,11,19,41,72.9195,511,0.0,0,0,0,0,0,0,0,0,-202652187,-402628936,108,511,10,83,194,68
340,341000,14,19,42,0,11,19,42,73.9324,522,0.0,0,0,0,0,0,0,0,0,-202652263,-402629013,106,522,10,83,191,175
341,342000,14,19,43,0,11,19,43,73.0297,509,0.0,0,0,0,0,0,0,0,0,-202652339,-402629127,105,509,10,83,193,192
342,343000,14,19,44,0,11,19,44,73.3582,550,0.0,0,0,0,0,0,0,0,0,-202652416,-402629241,101,550,10,83,198,63
343,344000,14,19,45,0,11,19,45,72.7065,496,0.0,0,0,0,0,0,0,0,0,-202652473,-402629356,101,496,10,83,188,18
344,345000,14,19,46,0,11,19,46,73.4169,487,0.0,0,0,0,0,0,0,0,0,-202652530,-402629470,101,487,10,83,200,66
345,346000,14,19,47,0,11,19,47,73.7179,287,0.0,0,0,0,0,0,0,0,0,-202652568,-402629547,100,287,10,83,194,44
346,347000,14,19,48,0,11,19,48,73.3619,409,0.0,0,0,0,0,0,0,0,0,-202652587,-402629661,98,409,10,83,202,134
347,348000,14,19,49,0,11,19,49,73.3345,461,0.0,0,0,0,0,0,0,0,0,-202652626,-402629776,96,461,10,83,204,64
348,349000,14,19,50,0,11,19,50,72.681,464,0.0,0,0,0,0,0,0,0,0,-202652645,-402629890,93,464,10,83,194,171
349,350000,14,19,51,0,11,19,51,73.6465,520,0.0,0,0,0,0,0,0,0,0,-202652702,-402630004,91,520,10,83,192,93
350,351000,14,19,52,0,11,19,52,72.9339,546,0.0,0,0,0,0,0,0,0,0,-202652740,-402630119,90,546,10,83,197,229
351,352000,14,19,53,0,11,19,53,73.1814,498,0.0,0,0,0,0,0,0,0,0,-202652759,-402630271,88,498,10,83,195,195
352,353000,14,19,54,0,11,19,54,73.8727,488,0.0,0,0,0,0,0,0,0,0,-202652797,-402630386,86,488,10,83,199,1
353,354000,14,19,55,0,11,19,55,72.7136,518,0.0,0,0,0,0,0,0,0,0,-202652835,-402630500,86,518,10,83,199,148
354,355000,14,19,56,0,11,19,56,73.2278,475,0.0,0,0,0,0,0,0,0,0,-202652873,-402630653,86,475,10,83,201,107
355,356000,14,19,57,0,11,19,57,73.9142,392,0.0,0,0,0,0,0,0,0,0,-202652912,-402630729,86,392,10,83,199,63
356,357000,14,19,58,0,11,19,58,73.2405,335,0.0,0,0,0,0,0,0,0,0,-202652950,-402630844,90,335,10,83,198,37
357,358000,14,19,59,0,11,19,59,74.0133,518,0.0,0,0,0,0,0,0,0,0,-202652988,-402630958,86,518,10,83,197,230
358,359000,14,20,0,0,11,20,0,73.1356,538,0.0,0,0,0,0,0,0,0,0,-202653026,-402631072,86,538,10,83,197,41
359,360000,14,20,1,0,11,20,1,73.9843,468,0.0,0,0,0,0,0,0,0,0,-202653045,-402631187,83,468,10,83,196,255
360,361000,14,20,2,0,11,20,2,73.9288,501,0.0,0,0,0,0,0,0,0,0,-202653064,-402631340,81,501,10,83,202,129
361,362000,14,20,3,0,11,20,3,72.4685,485,0.0,0,0,0,0,0,0,0,0,-202653121,-402631454,79,485,10,83,201,161
362,363000,14,20,4,0,11,20,4,72.6327,451,0.0,0,0,0,0,0,0,0,0,-202653198,-402631530,75,451,10,83,199,172
363,364000,14,20,5,0,11,20,5,73.1803,466,0.0,0,0,0,0,0,0,0,0,-202653312,-402631530,74,466,10,83,193,69
364,365000,14,20,6,0,11,20,6,73.6104,446,0.0,0,0,0,0,0,0,0,0,-202653408,-402631492,71,446,10,83,189,206
365,366000,14,20,7,0,11,20,7,72.687,468,0.0,0,0,0,0,0,0,0,0,-202653484,-402631378,71,468,10,83,194,14
366,367000,14,20,8,0,11,20,8,73.5503,374,0.0,0,0,0,0,0,0,0,0,-202653522,-402631301,70,374,10,83,187,102
367,368000,14,20,9,0,11,20,9,72.7036,401,0.0,0,0,0,0,0,0,0,0,-202653503,-402631187,71,401,10,83,188,16
368,369000,14,20,10,0,11,20,10,73.705,518,0.0,0,0,0,0,0,0,0,0,-202653446,-402631072,70,518,10,83,189,150
369,370000,14,20,11,0,11,20,11,74.133,511,0.0,0,0,0,0,0,0,0,0,-202653388,-402630958,70,511,10,83,196,33
370,371000,14,20,12,0,11,20,12,73.583,474,0.0,0,0,0,0,0,0,0,0,-202653331,-402630844,70,474,10,83,205,113
371,372000,14,20,13,0,11,20,13,73.4311,431,0.0,0,0,0,0,0,0,0,0,-202653293,-402630729,71,431,10,83,203,163
372,373000,14,20,14,0,11,20,14,73.7305,418,0.0,0,0,0,0,0,0,0,0,-202653255,-402630615,70,418,10,83,205,15
373,374000,14,20,15,0,11,20,15,73.1834,550,0.0,0,0,0,0,0,0,0,0,-202653217,-402630500,70,550,10,83,203,159
374,375000,14,20,16,0,11,20,16,73.9368,514,0.0,0,0,0,0,0,0,0,0,-202653179,-402630348,70,514,10,83,202,5
375,376000,14,20,17,0,11,20,17,72.8677,335,0.0,0,0,0,0,0,0,0,0,-202653141,-402630271,70,335,10,83,199,254
376,377000,14,20,18,0,11,20,18,74.0073,590,0.0,0,0,0,0,0,0,0,0,-202653121,-402630119,68,590,10,83,203,151
377,378000,14,20,19,0,11,20,19,72.7789,511,0.0,0,0,0,0,0,0,0,0,-202653102,-402630004,68,511,10,83,195,107
378,379000,14,20,20,0,11,20,20,73.1453,420,0.0,0,0,0,0,0,0,0,0,-202653083,-402629890,71,420,10,83,200,43
379,380000,14,20,21,0,11,20,21,73.0303,420,0.0,0,0,0,0,0,0,0,0,-202653064,-402629776,70,420,10,83,204,158
380,381000,14,20,22,0,11,20,22,73.8464,618,0.0,0,0,0,0,0,0,0,0,-202653026,-402629623,70,618,10,83,203,218
381,382000,14,20,23,0,11,20,23,73.6907,431,0.0,0,0,0,0,0,0,0,0,-202653007,-402629508,71,431,10,83,200,215
382,383000,14,20,24,0,11,20,24,74.0449,424,0.0,0,0,0,0,0,0,0,0,-202652988,-402629394,70,424,10,83,204,59
383,384000,14,20,25,0,11,20,25,73.0628,575,0.0,0,0,0,0,0,0,0,0,-202652969,-402629280,70,575,10,83,192,223
384,385000,14,20,26,0,11,20,26,73.702,527,0.0,0,0,0,0,0,0,0,0,-202652950,-402629127,69,527,10,83,204,23
385,386000,14,20,27,0,11,20,27,74.1344,513,0.0,0,0,0,0,0,0,0,0,-202652912,-402629013,70,513,10,83,206,132
386,387000,14,20,28,0,11,20,28,73.0604,437,0.0,0,0,0,0,0,0,0,0,-202652893,-402628898,69,437,10,83,208,93
387,388000,14,20,29,0,11,20,29,73.4802,507,0.0,0,0,0,0,0,0,0,0,-202652854,-402628746,65,507,10,83,210,147
388,389000,14,20,30,0,11,20,30,73.8348,559,0.0,0,0,0,0,0,0,0,0,-202652816,-402628631,64,559,10,83,199,131
389,390000,14,20,31,0,11,20,31,72.6487,516,0.0,0,0,0,0,0,0,0,0,-202652759,-402628517,64,516,10,83,207,199
390,391000,14,20,32,0,11,20,32,73.8325,492,0.0,0,0,0,0,0,0,0,0,-202652702,-402628364,63,492,10,83,209,84
391,392000,14,20,33,0,11,20,33,73.8665,513,0.0,0,0,0,0,0,0,0,0,-202652664,-402628250,63,513,10,83,207,8
392,393000,14,20,34,0,11,20,34,72.7345,518,0.0,0,0,0,0,0,0,0,0,-202652606,-402628135,64,518,10,83,194,174
393,394000,14,20,35,0,11,20,35,73.9823,492,0.0,0,0,0,0,0,0,0,0,-202652549,-402628021,63,492,10,83,206,18
394,395000,14,20,36,0,11,20,36,73.9276,513,0.0,0,0,0,0,0,0,0,0,-202652492,-402627906,61,513,10,83,206,213
395,396000,14,20,37,0,11,20,37,73.5412,513,0.0,0,0,0,0,0,0,0,0,-202652435,-402627792,60,513,10,83,206,110
396,397000,14,20,38,0,11,20,38,72.9534,550,0.0,0,0,0,0,0,0,0,0,-202652378,-402627639,59,550,10,83,202,120
397,398000,14,20,39,0,11,20,39,72.9301,494,0.0,0,0,0,0,0,0,0,0,-202652339,-402627525,56,494,10,83,204,139
398,399000,14,20,40,0,11,20,40,73.2637,516,0.0,0,0,0,0,0,0,0,0,-202652301,-402627410,55,516,10,83,203,63
399,400000,14,20,41,0,11,20,41,73.6505,524,0.0,0,0,0,0,0,0,0,0,-202652282,-402627258,51,524,10,83,211,229
400,401000,14,20,42,0,11,20,42,72.7565,637,0.0,0,0,0,0,0,0,0,0,-202652301,-402627105,37,637,10,83,209,45
401,402000,14,20,43,0,11,20,43,73.5128,440,0.0,0,0,0,0,0,0,0,0,-202652282,-402626991,40,440,10,83,207,24
402,403000,14,20,44,0,11,20,44,74.0208,466,0.0,0,0,0,0,0,0,0,0,-202652244,-402626876,40,466,10,83,206,211
403,404000,14,20,45,0,11,20,45,74.0143,503,0.0,0,0,0,0,0,0,0,0,-202652225,-402626724,37,503,10,83,211,180
404,405000,14,20,46,0,11,20,46,74.0489,548,0.0,0,0,0,0,0,0,0,0,-202652206,-402626609,37,548,10,83,202,132
405,406000,14,20,47,0,11,20,47,73.5128,479,0.0,0,0,0,0,0,0,0,0,-202652206,-402626495,44,479,10,83,206,95
406,407000,14,20,48,0,11,20,48,73.2635,412,0.0,0,0,0,0,0,0,0,0,-202652187,-402626380,49,412,10,83,210,82
407,408000,14,20,49,0,11,20,49,72.742,407,0.0,0,0,0,0,0,0,0,0,-202652187,-402626266,55,407,10,83,212,175
408,409000,14,20,50,0,11,20,50,73.1204,440,0.0,0,0,0,0,0,0,0,0,-202652168,-402626152,54,440,10,83,213,99
409,410000,14,20,51,0,11,20,51,73.9793,342,0.0,0,0,0,0,0,0,0,0,-202652149,-402626075,55,342,10,83,204,239
410,411000,14,20,52,0,11,20,52,73.5992,375,0.0,0,0,0,0,0,0,0,0,-202652149,-402625961,60,375,10,83,207,151
411,412000,14,20,53,0,11,20,53,72.6374,372,0.0,0,0,0,0,0,0,0,0,-202652130,-402625885,61,372,10,83,204,223
412,413000,14,20,54,0,11,20,54,73.7731,375,0.0,0,0,0,0,0,0,0,0,-202652111,-402625770,63,375,10,83,203,92
413,414000,14,20,55,0,11,20,55,74.1313,331,0.0,0,0,0,0,0,0,0,0,-202652111,-402625694,65,331,10,83,202,64
414,415000,14,20,56,0,11,20,56,74.0876,296,0.0,0,0,0,0,0,0,0,0,-202652111,-402625617,66,296,10,83,189,54
415,416000,14,20,57,0,11,20,57,73.0999,361,0.0,0,0,0,0,0,0,0,0,-202652111,-402625503,69,361,10,83,183,28
416,417000,14,20,58,0,11,20,58,73.6917,361,0.0,0,0,0,0,0,0,0,0,-202652091,-402625427,70,361,10,83,186,106
417,418000,14,20,59,0,11,20,59,73.3504,359,0.0,0,0,0,0,0,0,0,0,-202652091,-402625350,71,359,10,83,193,162
418,419000,14,21,0,0,11,21,0,73.7152,431,0.0,0,0,0,0,0,0,0,0,-202652072,-402625236,74,431,10,83,183,110
419,420000,14,21,1,0,11,21,1,72.6815,459,0.0,0,0,0,0,0,0,0,0,-202652053,-402625122,75,459,10,83,187,26
420,421000,14,21,2,0,11,21,2,73.4467,257,0.0,0,0,0,0,0,0,0,0,-202652053,-402625045,75,257,10,83,188,193
421,422000,14,21,3,0,11,21,3,72.9365,424,0.0,0,0,0,0,0,0,0,0,-202652091,-402624969,83,424,10,83,204,44
422,423000,14,21,4,0,11,21,4,74.275,553,0.0,0,0,0,0,0,0,0,0,-202652187,-402624855,86,553,10,83,197,50
423,424000,14,21,5,0,11,21,5,74.1195,450,0.0,0,0,0,0,0,0,0,0,-202652282,-402624816,86,450,10,83,204,24
424,425000,14,21,6,0,11,21,6,72.9713,461,0.0,0,0,0,0,0,0,0,0,-202652397,-402624778,83,461,10,83,206,204
425,426000,14,21,7,0,11,21,7,73.4849,444,0.0,0,0,0,0,0,0,0,0,-202652492,-402624740,80,444,10,83,211,92
426,427000,14,21,8,0,11,21,8,74.1949,444,0.0,0,0,0,0,0,0,0,0,-202652587,-402624740,70,444,10,83,205,224
427,428000,14,21,9,0,11,21,9,74.1728,620,0.0,0,0,0,0,0,0,0,0,-202652683,-402624816,58,620,10,83,205,118
428,429000,14,21,10,0,11,21,10,72.98,400,0.0,0,0,0,0,0,0,0,0,-202652759,-402624893,50,400,10,83,203,9
429,430000,14,21,11,0,11,21,11,73.3636,170,0.0,0,0,0,0,0,0,0,0,-202652778,-402624931,46,170,10,83,204,236
430,431000,14,21,12,0,11,21,12,73.8074,50,0.0,0,0,0,0,0,0,0,0,-202652778,-402624931,43,50,10,83,204,231
431,432000,14,21,13,0,11,21,13,72.7443,1,0.0,0,0,0,0,0,0,0,0,-202652797,-402624931,45,1,10,83,204,98
432,433000,14,21,14,0,11,21,14,73.3729,14,0.0,0,0,0,0,0,0,0,0,-202652797,-402624893,48,14,10,83,205,147
433,434000,14,21,15,0,11,21,15,74.0912,29,0.0,0,0,0,0,0,0,0,0,-202652778,-402624855,50,29,10,83,208,218
