PACKAGE,ELAPSED_TIME,HOUR_GPS,MIN_GPS,SEC_GPS,CENT_GPS,HOUR_PC,MIN_PC,SEC_PC,CENT_PC,VEL_RODA,ROTACAO,TEMP,FLUIDO,AX,AY,AZ,ROLL,PITCH,HEADING,LAT,LON,ALT,VEL_GPS,SAT,HDOP,RSSI,CHECKSUM
0,500,14,48,50,60,11,48,51,29.4551,0,0.0,0,0,0,0,0,0,0,0,0,0,0,0,0,15,237,178
1,1000,14,48,51,0,11,48,51,78.33,0,0.0,0,0,0,0,0,0,0,0,0,0,0,0,0,15,238,110
2,1500,14,48,52,0,11,48,52,28.9353,0,0.0,0,0,0,0,0,0,0,0,0,0,0,0,0,15,238,102
3,2000,14,48,52,0,11,48,52,78.6382,0,0.0,0,0,0,0,0,0,0,0,0,0,0,0,0,15,237,93
4,2500,14,48,53,0,11,48,53,29.8454,0,0.0,0,0,0,0,0,0,0,0,0,0,0,0,0,15,237,85
5,3000,14,48,53,0,11,48,53,78.4504,0,0.0,0,0,0,0,0,0,0,0,0,0,0,0,0,15,238,76
6,3500,14,48,53,0,11,48,54,29.5599,0,0.0,0,0,0,0,0,0,0,0,0,0,0,0,0,15,238,67
7,4000,14,48,54,0,11,48,54,79.3597,0,0.0,0,0,0,0,0,0,0,0,0,0,0,0,6,15,238,65
8,4500,14,48,54,0,11,48,55,29.1455,0,0.0,0,0,0,0,0,0,0,0,0,0,0,0,6,15,237,56
9,5000,14,48,55,0,11,48,55,79.0341,0,0.0,0,0,0,0,0,0,0,0,0,0,0,0,8,242,238,21
10,5500,14,48,56,0,11,48,56,29.6269,0,0.0,0,0,0,0,0,0,0,0,0,0,0,0,8,242,238,13
11,6000,14,48,56,0,11,48,56,79.8819,0,0.0,0,0,0,0,0,0,0,0,0,0,0,0,0,15,238,25
12,6500,14,48,57,0,11,48,57,29.7258,0,0.0,0,0,0,0,0,0,0,0,0,0,0,0,0,15,236,17
13,7000,14,48,57,0,11,48,57,79.3209,0,0.0,0,0,0,0,0,0,0,0,0,0,0,0,0,15,236,8
14,7500,14,48,57,0,11,48,58,29.0842,0,0.0,0,0,0,0,0,0,0,0,0,0,0,0,0,15,236,255
15,8000,14,48,58,0,11,48,58,78.7339,177,0.0,0,0,0,0,0,0,0,0,-202653732,-402626991,90,177,8,108,236,48
16,8500,14,48,59,0,11,48,59,28.3215,137,0.0,0,0,0,0,0,0,0,0,-202653694,-402626991,90,137,8,108,240,255
17,9000,14,48,59,0,11,48,59,78.3266,137,0.0,0,0,0,0,0,0,0,0,-202653694,-402626991,93,137,7,108,240,248
18,9500,14,49,0,0,11,49,0,29.3802,140,0.0,0,0,0,0,0,0,0,0,-202653732,-402626953,93,140,7,108,246,186
19,10000,14,49,0,0,11,49,0,79.6464,140,0.0,0,0,0,0,0,0,0,0,-202653732,-402626953,100,140,7,108,240,184
20,10500,14,49,1,0,11,49,1,28.7423,164,0.0,0,0,0,0,0,0,0,0,-202653751,-402626953,100,164,7,108,240,205
21,11000,14,49,1,0,11,49,1,78.2907,164,0.0,0,0,0,0,0,0,0,0,-202653751,-402626953,113,164,9,108,237,210
22,11500,14,49,1,0,11,49,2,29.5275,164,0.0,0,0,0,0,0,0,0,0,-202653751,-402626953,113,164,9,108,234,201
23,12000,14,49,2,0,11,49,2,79.3287,229,0.0,0,0,0,0,0,0,0,0,-202653751,-402626953,128,229,10,108,242,83
24,12500,14,49,2,0,11,49,3,29.1646,229,0.0,0,0,0,0,0,0,0,0,-202653751,-402626953,128,229,10,108,242,74
25,13000,14,49,3,0,11,49,3,78.6939,311,0.0,0,0,0,0,0,0,0,0,-202653808,-402626914,151,311,10,91,241,220
26,13500,14,49,3,0,11,49,4,28.699,311,0.0,0,0,0,0,0,0,0,0,-202653808,-402626914,151,311,10,91,242,211
27,14000,14,49,4,0,11,49,4,78.5503,277,0.0,0,0,0,0,0,0,0,0,-202653827,-402626914,143,277,9,91,241,107
28,14500,14,49,4,0,11,49,5,29.8306,277,0.0,0,0,0,0,0,0,0,0,-202653827,-402626914,143,277,9,91,242,98
29,15000,14,49,5,0,11,49,5,78.6042,355,0.0,0,0,0,0,0,0,0,0,-202653865,-402626914,151,355,9,91,242,216
30,15500,14,49,6,0,11,49,6,29.7699,316,0.0,0,0,0,0,0,0,0,0,-202653903,-402626914,151,316,9,91,244,92
31,16000,14,49,6,0,11,49,6,79.3762,316,0.0,0,0,0,0,0,0,0,0,-202653903,-402626914,151,316,9,91,239,83
32,16500,14,49,6,0,11,49,7,29.0401,316,0.0,0,0,0,0,0,0,0,0,-202653903,-402626914,151,316,9,91,237,74
33,17000,14,49,7,0,11,49,7,79.7704,109,0.0,0,0,0,0,0,0,0,0,-202653923,-402626876,150,109,9,91,233,179
34,17500,14,49,8,0,11,49,8,28.5019,79,0.0,0,0,0,0,0,0,0,0,-202653942,-402626876,150,79,9,91,233,92
35,18000,14,49,8,0,11,49,8,79.6859,79,0.0,0,0,0,0,0,0,0,0,-202653942,-402626876,153,79,9,91,233,86
36,18500,14,49,9,0,11,49,9,29.6855,27,0.0,0,0,0,0,0,0,0,0,-202653961,-402626838,153,27,9,91,229,248
37,19000,14,49,9,0,11,49,9,79.3963,27,0.0,0,0,0,0,0,0,0,0,-202653961,-402626838,156,27,9,91,234,242
38,19500,14,49,9,0,11,49,10,29.4371,27,0.0,0,0,0,0,0,0,0,0,-202653961,-402626838,156,27,9,91,225,233
39,20000,14,49,10,0,11,49,10,79.2184,127,0.0,0,0,0,0,0,0,0,0,-202654018,-402626838,162,127,10,80,234,108
40,20500,14,49,11,0,11,49,11,29.253,79,0.0,0,0,0,0,0,0,0,0,-202654037,-402626800,162,79,10,80,226,24
41,21000,14,49,11,0,11,49,11,78.8822,79,0.0,0,0,0,0,0,0,0,0,-202654037,-402626800,153,79,10,80,231,6
42,21500,14,49,11,0,11,49,12,29.4712,79,0.0,0,0,0,0,0,0,0,0,-202654037,-402626800,153,79,10,80,230,252
43,22000,14,49,12,0,11,49,12,79.3909,92,0.0,0,0,0,0,0,0,0,0,-202654018,-402626762,146,92,10,80,231,64
44,22500,14,49,13,0,11,49,13,29.4967,72,0.0,0,0,0,0,0,0,0,0,-202653999,-402626762,146,72,10,80,228,35
45,23000,14,49,13,0,11,49,13,79.1065,72,0.0,0,0,0,0,0,0,0,0,-202653999,-402626762,133,72,10,80,230,13
46,23500,14,49,14,0,11,49,14,28.8967,38,0.0,0,0,0,0,0,0,0,0,-202653980,-402626762,133,38,10,80,230,212
47,24000,14,49,14,0,11,49,14,78.7573,38,0.0,0,0,0,0,0,0,0,0,-202653980,-402626762,121,38,10,80,232,191
48,24500,14,49,15,0,11,49,15,28.5585,18,0.0,0,0,0,0,0,0,0,0,-202653961,-402626800,121,18,10,80,234,124
49,25000,14,49,15,0,11,49,15,79.5412,18,0.0,0,0,0,0,0,0,0,0,-202653961,-402626800,116,18,10,80,229,110
50,25500,14,49,16,0,11,49,16,29.3327,90,0.0,0,0,0,0,0,0,0,0,-202653942,-402626800,116,90,10,80,226,10
51,26000,14,49,16,0,11,49,16,79.2601,90,0.0,0,0,0,0,0,0,0,0,-202653942,-402626800,110,90,10,80,231,251
52,26500,14,49,17,0,11,49,17,29.7294,37,0.0,0,0,0,0,0,0,0,0,-202653903,-402626838,110,37,10,80,224,137
53,27000,14,49,17,0,11,49,17,78.7082,37,0.0,0,0,0,0,0,0,0,0,-202653903,-402626838,111,37,10,80,225,129
54,27500,14,49,18,0,11,49,18,28.7346,16,0.0,0,0,0,0,0,0,0,0,-202653903,-402626838,111,16,10,80,222,79
55,28000,14,49,18,0,11,49,18,79.9182,16,0.0,0,0,0,0,0,0,0,0,-202653903,-402626838,116,16,10,80,226,75
56,28500,14,49,19,0,11,49,19,29.5354,31,0.0,0,0,0,0,0,0,0,0,-202653923,-402626800,116,31,10,80,223,116
57,29000,14,49,19,0,11,49,19,79.3737,31,0.0,0,0,0,0,0,0,0,0,-202653923,-402626800,113,31,10,80,223,104
58,29500,14,49,20,0,11,49,20,28.9617,103,0.0,0,0,0,0,0,0,0,0,-202653942,-402626800,113,103,10,80,215,221
59,30000,14,49,20,0,11,49,20,79.8017,103,0.0,0,0,0,0,0,0,0,0,-202653942,-402626800,111,103,10,80,215,210
60,30500,14,49,21,0,11,49,21,29.3456,55,0.0,0,0,0,0,0,0,0,0,-202653942,-402626762,111,55,10,80,221,144
61,31000,14,49,21,0,11,49,21,78.8116,55,0.0,0,0,0,0,0,0,0,0,-202653942,-402626762,111,55,10,80,225,135
62,31500,14,49,22,0,11,49,22,28.7291,44,0.0,0,0,0,0,0,0,0,0,-202653923,-402626762,111,44,10,80,230,124
63,32000,14,49,22,0,11,49,22,78.463,44,0.0,0,0,0,0,0,0,0,0,-202653923,-402626762,110,44,10,80,232,114
64,32500,14,49,23,0,11,49,23,29.611,211,0.0,0,0,0,0,0,0,0,0,-202653884,-402626762,110,211,10,80,230,222
65,33000,14,49,23,0,11,49,23,79.3871,211,0.0,0,0,0,0,0,0,0,0,-202653884,-402626762,113,211,10,80,231,216
66,33500,14,49,24,0,11,49,24,28.9601,387,0.0,0,0,0,0,0,0,0,0,-202653846,-402626876,113,387,10,80,229,229
67,34000,14,49,24,0,11,49,24,79.9116,387,0.0,0,0,0,0,0,0,0,0,-202653846,-402626876,118,387,10,80,226,225
68,34500,14,49,25,0,11,49,25,29.8752,324,0.0,0,0,0,0,0,0,0,0,-202653808,-402626953,118,324,10,80,232,52
69,35000,14,49,25,0,11,49,25,79.6095,324,0.0,0,0,0,0,0,0,0,0,-202653808,-402626953,126,324,10,80,232,51
70,35500,14,49,26,0,11,49,26,29.6278,90,0.0,0,0,0,0,0,0,0,0,-202653827,-402626953,126,90,10,80,234,66
71,36000,14,49,26,0,11,49,26,78.7461,90,0.0,0,0,0,0,0,0,0,0,-202653827,-402626953,128,90,10,80,229,59
72,36500,14,49,27,0,11,49,27,28.4703,55,0.0,0,0,0,0,0,0,0,0,-202653846,-402626991,128,55,10,80,232,180
73,37000,14,49,27,0,11,49,27,78.4548,55,0.0,0,0,0,0,0,0,0,0,-202653846,-402626991,130,55,10,80,233,173
74,37500,14,49,28,0,11,49,28,29.6745,29,0.0,0,0,0,0,0,0,0,0,-202653865,-402626991,130,29,10,80,230,94
75,38000,14,49,28,0,11,49,28,79.346,29,0.0,0,0,0,0,0,0,0,0,-202653865,-402626991,131,29,10,80,230,86
76,38500,14,49,29,0,11,49,29,29.3512,75,0.0,0,0,0,0,0,0,0,0,-202653865,-402626991,131,75,10,80,229,170
77,39000,14,49,29,0,11,49,29,78.4964,75,0.0,0,0,0,0,0,0,0,0,-202653865,-402626991,133,75,10,80,227,163
78,39500,14,49,30,0,11,49,30,28.5015,131,0.0,0,0,0,0,0,0,0,0,-202653865,-402626953,133,131,10,80,230,49
79,40000,14,49,30,0,11,49,30,79.9721,131,0.0,0,0,0,0,0,0,0,0,-202653865,-402626953,133,131,10,80,229,40
80,40500,14,49,31,0,11,49,31,29.5304,175,0.0,0,0,0,0,0,0,0,0,-202653865,-402626914,133,175,10,80,233,159
81,41000,14,49,31,0,11,49,31,79.5357,175,0.0,0,0,0,0,0,0,0,0,-202653865,-402626914,131,175,9,88,227,155
82,41500,14,49,32,0,11,49,32,29.6759,257,0.0,0,0,0,0,0,0,0,0,-202653923,-402626914,131,257,9,88,231,255
83,42000,14,49,32,0,11,49,32,79.1792,257,0.0,0,0,0,0,0,0,0,0,-202653923,-402626914,131,257,9,88,230,246
84,42500,14,49,33,0,11,49,33,29.7233,362,0.0,0,0,0,0,0,0,0,0,-202654018,-402626914,131,362,9,88,225,96
85,43000,14,49,33,0,11,49,33,78.9329,362,0.0,0,0,0,0,0,0,0,0,-202654018,-402626914,131,362,10,88,222,87
86,43500,14,49,34,0,11,49,34,29.0099,298,0.0,0,0,0,0,0,0,0,0,-202654075,-402626876,131,298,10,88,224,188
87,44000,14,49,34,0,11,49,34,78.9592,298,0.0,0,0,0,0,0,0,0,0,-202654075,-402626876,131,298,9,84,227,174
88,44500,14,49,35,0,11,49,35,28.9911,277,0.0,0,0,0,0,0,0,0,0,-202654094,-402626800,131,277,9,84,228,182
89,45000,14,49,35,0,11,49,35,79.9239,277,0.0,0,0,0,0,0,0,0,0,-202654094,-402626800,136,277,10,91,219,186
90,45500,14,49,36,0,11,49,36,30.005,275,0.0,0,0,0,0,0,0,0,0,-202654113,-402626724,136,275,10,91,214,231
91,46000,14,49,36,0,11,49,36,78.716,275,0.0,0,0,0,0,0,0,0,0,-202654113,-402626724,141,275,10,80,209,216
92,46500,14,49,36,0,11,49,37,29.8946,275,0.0,0,0,0,0,0,0,0,0,-202654113,-402626724,141,275,10,80,214,207
93,47000,14,49,37,0,11,49,37,79.7589,496,0.0,0,0,0,0,0,0,0,0,-202654056,-402626609,151,496,10,80,203,55
94,47500,14,49,37,0,11,49,38,29.8662,496,0.0,0,0,0,0,0,0,0,0,-202654056,-402626609,151,496,10,80,211,46
95,48000,14,49,38,0,11,49,38,78.7131,362,0.0,0,0,0,0,0,0,0,0,-202653999,-402626533,156,362,10,80,210,165
96,48500,14,49,38,0,11,49,39,29.8802,362,0.0,0,0,0,0,0,0,0,0,-202653999,-402626533,156,362,10,80,204,156
97,49000,14,49,39,0,11,49,39,79.4689,403,0.0,0,0,0,0,0,0,0,0,-202653961,-402626419,155,403,10,80,206,125
98,49500,14,49,39,0,11,49,40,29.3034,403,0.0,0,0,0,0,0,0,0,0,-202653961,-402626419,155,403,10,80,197,116
99,50000,14,49,40,0,11,49,40,79.0603,400,0.0,0,0,0,0,0,0,0,0,-202653903,-402626304,156,400,10,80,203,22
100,50500,14,49,40,0,11,49,41,28.8858,400,0.0,0,0,0,0,0,0,0,0,-202653903,-402626304,156,400,10,80,203,13
101,51000,14,49,41,0,11,49,41,78.6643,357,0.0,0,0,0,0,0,0,0,0,-202653865,-402626228,156,357,10,80,196,33
102,51500,14,49,42,0,11,49,42,28.4513,370,0.0,0,0,0,0,0,0,0,0,-202653865,-402626113,156,370,10,80,202,166
103,52000,14,49,42,0,11,49,42,80.0195,370,0.0,0,0,0,0,0,0,0,0,-202653865,-402626113,156,370,10,80,201,157
104,52500,14,49,42,0,11,49,43,30.0074,370,0.0,0,0,0,0,0,0,0,0,-202653865,-402626113,156,370,10,80,209,148
105,53000,14,49,43,0,11,49,43,79.0896,374,0.0,0,0,0,0,0,0,0,0,-202653827,-402625999,156,374,10,80,203,45
106,53500,14,49,44,0,11,49,44,29.0781,372,0.0,0,0,0,0,0,0,0,0,-202653827,-402625885,156,372,10,80,205,146
107,54000,14,49,44,0,11,49,44,79.7003,372,0.0,0,0,0,0,0,0,0,0,-202653827,-402625885,151,372,10,80,199,132
108,54500,14,49,45,0,11,49,45,29.9411,329,0.0,0,0,0,0,0,0,0,0,-202653808,-402625808,151,329,10,80,201,134
109,55000,14,49,45,0,11,49,45,79.4726,329,0.0,0,0,0,0,0,0,0,0,-202653808,-402625808,150,329,10,87,198,131
110,55500,14,49,45,0,11,49,46,29.014,329,0.0,0,0,0,0,0,0,0,0,-202653808,-402625808,150,329,10,87,185,122
111,56000,14,49,46,0,11,49,46,78.7057,416,0.0,0,0,0,0,0,0,0,0,-202653770,-402625656,146,416,10,80,201,212
112,56500,14,49,46,0,11,49,47,29.9456,416,0.0,0,0,0,0,0,0,0,0,-202653770,-402625656,146,416,10,80,203,203
113,57000,14,49,47,0,11,49,47,79.7734,418,0.0,0,0,0,0,0,0,0,0,-202653751,-402625541,141,418,10,80,207,72
114,57500,14,49,47,0,11,49,48,29.8012,418,0.0,0,0,0,0,0,0,0,0,-202653751,-402625541,141,418,10,80,205,63
115,58000,14,49,48,0,11,49,48,79.5915,411,0.0,0,0,0,0,0,0,0,0,-202653732,-402625465,138,411,10,80,203,134
116,58500,14,49,48,0,11,49,49,29.034,411,0.0,0,0,0,0,0,0,0,0,-202653732,-402625465,138,411,10,80,198,125
117,59000,14,49,49,0,11,49,49,78.7127,453,0.0,0,0,0,0,0,0,0,0,-202653694,-402625350,136,453,10,80,191,97
118,59500,14,49,49,0,11,49,50,29.7385,453,0.0,0,0,0,0,0,0,0,0,-202653694,-402625350,136,453,10,80,190,88
119,60000,14,49,50,0,11,49,50,79.5341,431,0.0,0,0,0,0,0,0,0,0,-202653636,-402625198,128,431,10,80,195,239
120,60500,14,49,50,0,11,49,51,29.2455,431,0.0,0,0,0,0,0,0,0,0,-202653636,-402625198,128,431,10,80,194,230
121,61000,14,49,51,0,11,49,51,79.9823,494,0.0,0,0,0,0,0,0,0,0,-202653617,-402625083,126,494,10,80,186,224
122,61500,14,49,52,0,11,49,52,28.695,337,0.0,0,0,0,0,0,0,0,0,-202653541,-402625045,126,337,10,80,187,16
123,62000,14,49,52,0,11,49,52,79.8825,337,0.0,0,0,0,0,0,0,0,0,-202653541,-402625045,130,337,10,80,198,11
124,62500,14,49,53,0,11,49,53,29.4058,350,0.0,0,0,0,0,0,0,0,0,-202653503,-402624969,130,350,10,80,194,144
125,63000,14,49,53,0,11,49,53,79.0119,350,0.0,0,0,0,0,0,0,0,0,-202653503,-402624969,126,350,10,80,191,131
126,63500,14,49,54,0,11,49,54,30.112,379,0.0,0,0,0,0,0,0,0,0,-202653465,-402624855,126,379,10,80,192,77
127,64000,14,49,54,0,11,49,54,80.0596,379,0.0,0,0,0,0,0,0,0,0,-202653465,-402624855,118,379,10,80,185,60
128,64500,14,49,55,0,11,49,55,30.0091,255,0.0,0,0,0,0,0,0,0,0,-202653446,-402624778,118,255,10,80,189,153
129,65000,14,49,55,0,11,49,55,79.6207,255,0.0,0,0,0,0,0,0,0,0,-202653446,-402624778,111,255,10,80,188,137
130,65500,14,49,56,0,11,49,56,29.6907,311,0.0,0,0,0,0,0,0,0,0,-202653427,-402624702,111,311,10,80,189,84
131,66000,14,49,56,0,11,49,56,79.1231,311,0.0,0,0,0,0,0,0,0,0,-202653427,-402624702,101,311,10,87,181,73
132,66500,14,49,57,0,11,49,57,29.1802,385,0.0,0,0,0,0,0,0,0,0,-202653388,-402624626,101,385,10,87,168,72
133,67000,14,49,57,0,11,49,57,78.9378,385,0.0,0,0,0,0,0,0,0,0,-202653388,-402624626,98,385,10,80,186,53
134,67500,14,49,57,0,11,49,58,29.5474,385,0.0,0,0,0,0,0,0,0,0,-202653388,-402624626,98,385,10,80,191,44
135,68000,14,49,58,0,11,49,58,79.2024,650,0.0,0,0,0,0,0,0,0,0,-202653312,-402624473,101,650,10,80,186,33
136,68500,14,49,58,0,11,49,59,29.1847,650,0.0,0,0,0,0,0,0,0,0,-202653312,-402624473,101,650,10,80,188,24
137,69000,14,49,59,0,11,49,59,78.7811,466,0.0,0,0,0,0,0,0,0,0,-202653255,-402624359,110,466,10,80,185,82
138,69500,14,49,59,0,11,50,0,29.8725,466,0.0,0,0,0,0,0,0,0,0,-202653255,-402624359,110,466,10,80,185,73
139,70000,14,50,0,0,11,50,0,79.3495,337,0.0,0,0,0,0,0,0,0,0,-202653217,-402624244,101,337,10,80,185,149
140,70500,14,50,0,0,11,50,1,29.6387,337,0.0,0,0,0,0,0,0,0,0,-202653217,-402624244,101,337,10,80,187,140
141,71000,14,50,1,0,11,50,1,79.2173,438,0.0,0,0,0,0,0,0,0,0,-202653179,-402624130,93,438,10,80,178,223
142,71500,14,50,1,0,11,50,2,28.8577,438,0.0,0,0,0,0,0,0,0,0,-202653179,-402624130,93,438,10,80,186,214
143,72000,14,50,2,0,11,50,2,80.1093,455,0.0,0,0,0,0,0,0,0,0,-202653141,-402623977,86,455,10,80,179,169
144,72500,14,50,2,0,11,50,3,29.9649,455,0.0,0,0,0,0,0,0,0,0,-202653141,-402623977,86,455,10,80,176,160
145,73000,14,50,3,0,11,50,3,79.6292,466,0.0,0,0,0,0,0,0,0,0,-202653102,-402623863,86,466,10,80,182,71
146,73500,14,50,3,0,11,50,4,29.3475,466,0.0,0,0,0,0,0,0,0,0,-202653102,-402623863,86,466,10,80,163,62
147,74000,14,50,4,0,11,50,4,78.9946,383,0.0,0,0,0,0,0,0,0,0,-202653083,-402623710,83,383,10,80,170,58
148,74500,14,50,4,0,11,50,5,28.7514,383,0.0,0,0,0,0,0,0,0,0,-202653083,-402623710,83,383,10,80,177,49
149,75000,14,50,5,0,11,50,5,79.6394,501,0.0,0,0,0,0,0,0,0,0,-202653045,-402623596,81,501,10,80,178,170
150,75500,14,50,5,0,11,50,6,29.5967,501,0.0,0,0,0,0,0,0,0,0,-202653045,-402623596,81,501,10,80,180,161
151,76000,14,50,6,0,11,50,6,79.3462,388,0.0,0,0,0,0,0,0,0,0,-202652969,-402623481,74,388,10,80,179,112
152,76500,14,50,6,0,11,50,7,28.8866,388,0.0,0,0,0,0,0,0,0,0,-202652969,-402623481,74,388,10,80,179,103
153,77000,14,50,7,0,11,50,7,80.1043,466,0.0,0,0,0,0,0,0,0,0,-202652873,-402623405,65,466,10,80,178,159
154,77500,14,50,7,0,11,50,8,28.5102,466,0.0,0,0,0,0,0,0,0,0,-202652873,-402623405,65,466,10,80,181,150
155,78000,14,50,8,0,11,50,8,79.612,405,0.0,0,0,0,0,0,0,0,0,-202652778,-402623405,61,405,10,80,179,111
156,78500,14,50,8,0,11,50,9,29.4711,405,0.0,0,0,0,0,0,0,0,0,-202652778,-402623405,61,405,10,80,172,102
157,79000,14,50,9,0,11,50,9,79.1308,431,0.0,0,0,0,0,0,0,0,0,-202652664,-402623405,63,431,10,80,179,7
158,79500,14,50,9,0,11,50,10,30.0895,431,0.0,0,0,0,0,0,0,0,0,-202652664,-402623405,63,431,10,80,179,254
159,80000,14,50,10,0,11,50,10,78.9905,483,0.0,0,0,0,0,0,0,0,0,-202652568,-402623443,64,483,10,80,171,153
160,80500,14,50,10,0,11,50,11,30.0704,483,0.0,0,0,0,0,0,0,0,0,-202652568,-402623443,64,483,10,80,177,144
161,81000,14,50,11,0,11,50,11,79.696,535,0.0,0,0,0,0,0,0,0,0,-202652473,-402623481,61,535,10,80,175,40
162,81500,14,50,11,0,11,50,12,29.1799,535,0.0,0,0,0,0,0,0,0,0,-202652473,-402623481,61,535,10,80,180,31
163,82000,14,50,12,0,11,50,12,79.5653,537,0.0,0,0,0,0,0,0,0,0,-202652359,-402623558,58,537,10,80,181,61
164,82500,14,50,12,0,11,50,13,28.609,537,0.0,0,0,0,0,0,0,0,0,-202652359,-402623558,58,537,10,80,175,52
165,83000,14,50,13,0,11,50,13,80.0119,509,0.0,0,0,0,0,0,0,0,0,-202652244,-402623558,53,509,10,80,174,96
166,83500,14,50,14,0,11,50,14,29.6894,316,0.0,0,0,0,0,0,0,0,0,-202652263,-402623596,53,316,10,80,169,157
167,84000,14,50,14,0,11,50,14,79.4341,316,0.0,0,0,0,0,0,0,0,0,-202652263,-402623596,35,316,10,80,178,130
168,84500,14,50,15,0,11,50,15,29.1405,190,0.0,0,0,0,0,0,0,0,0,-202652301,-402623634,35,190,10,80,175,48
169,85000,14,50,15,0,11,50,15,79.0488,190,0.0,0,0,0,0,0,0,0,0,-202652301,-402623634,29,190,10,80,173,33
170,85500,14,50,16,0,11,50,16,30.0863,144,0.0,0,0,0,0,0,0,0,0,-202652282,-402623634,29,144,10,80,174,207
171,86000,14,50,16,0,11,50,16,78.7112,144,0.0,0,0,0,0,0,0,0,0,-202652282,-402623634,30,144,10,80,176,199
172,86500,14,50,17,0,11,50,17,29.9872,287,0.0,0,0,0,0,0,0,0,0,-202652206,-402623634,30,287,10,80,170,43
173,87000,14,50,17,0,11,50,17,78.9191,287,0.0,0,0,0,0,0,0,0,0,-202652206,-402623634,29,287,10,80,166,33
174,87500,14,50,17,0,11,50,18,29.149,287,0.0,0,0,0,0,0,0,0,0,-202652206,-402623634,29,287,10,80,182,24
175,88000,14,50,18,0,11,50,18,80.1289,364,0.0,0,0,0,0,0,0,0,0,-202652111,-402623634,29,364,10,80,173,10
176,88500,14,50,18,0,11,50,19,28.7173,364,0.0,0,0,0,0,0,0,0,0,-202652111,-402623634,29,364,10,80,168,1
177,89000,14,50,19,0,11,50,19,80.039,400,0.0,0,0,0,0,0,0,0,0,-202651996,-402623672,27,400,10,80,167,140
178,89500,14,50,19,0,11,50,20,30.0083,400,0.0,0,0,0,0,0,0,0,0,-202651996,-402623672,27,400,10,80,175,131
179,90000,14,50,20,0,11,50,20,80.156,414,0.0,0,0,0,0,0,0,0,0,-202651882,-402623710,34,414,10,80,179,235
180,90500,14,50,20,0,11,50,21,29.9371,414,0.0,0,0,0,0,0,0,0,0,-202651882,-402623710,34,414,10,80,175,226
181,91000,14,50,21,0,11,50,21,78.6614,438,0.0,0,0,0,0,0,0,0,0,-202651767,-402623786,37,438,10,80,172,51
182,91500,14,50,21,0,11,50,22,28.7932,438,0.0,0,0,0,0,0,0,0,0,-202651767,-402623786,37,438,10,80,173,42
183,92000,14,50,22,0,11,50,22,79.4905,390,0.0,0,0,0,0,0,0,0,0,-202651672,-402623863,43,390,10,80,178,218
184,92500,14,50,22,0,11,50,23,29.2685,390,0.0,0,0,0,0,0,0,0,0,-202651672,-402623863,43,390,10,80,185,209
185,93000,14,50,23,0,11,50,23,78.8708,379,0.0,0,0,0,0,0,0,0,0,-202651596,-402623901,51,379,10,80,184,226
186,93500,14,50,23,0,11,50,24,30.1149,379,0.0,0,0,0,0,0,0,0,0,-202651596,-402623901,51,379,10,80,189,217
187,94000,14,50,24,0,11,50,24,79.8157,388,0.0,0,0,0,0,0,0,0,0,-202651500,-402623977,54,388,10,80,182,250
188,94500,14,50,24,0,11,50,25,29.6875,388,0.0,0,0,0,0,0,0,0,0,-202651500,-402623977,54,388,10,80,184,241
189,95000,14,50,25,0,11,50,25,79.2145,453,0.0,0,0,0,0,0,0,0,0,-202651405,-402624053,55,453,10,80,180,126
190,95500,14,50,25,0,11,50,26,28.9186,453,0.0,0,0,0,0,0,0,0,0,-202651405,-402624053,55,453,10,80,183,117
191,96000,14,50,26,0,11,50,26,79.1576,425,0.0,0,0,0,0,0,0,0,0,-202651309,-402624130,56,425,10,80,179,74
192,96500,14,50,26,0,11,50,27,30.1221,425,0.0,0,0,0,0,0,0,0,0,-202651309,-402624130,56,425,10,80,181,64
193,97000,14,50,27,0,11,50,27,79.7956,450,0.0,0,0,0,0,0,0,0,0,-202651233,-402624206,55,450,10,80,168,105
194,97500,14,50,27,0,11,50,28,29.2742,450,0.0,0,0,0,0,0,0,0,0,-202651233,-402624206,55,450,10,80,177,96
195,98000,14,50,28,0,11,50,28,79.1487,455,0.0,0,0,0,0,0,0,0,0,-202651138,-402624282,56,455,10,80,184,117
196,98500,14,50,28,0,11,50,29,28.8328,455,0.0,0,0,0,0,0,0,0,0,-202651138,-402624282,56,455,10,80,187,108
197,99000,14,50,29,0,11,50,29,79.9008,427,0.0,0,0,0,0,0,0,0,0,-202651042,-402624359,55,427,10,80,189,63
198,99500,14,50,29,0,11,50,30,29.4373,427,0.0,0,0,0,0,0,0,0,0,-202651042,-402624359,55,427,10,80,186,54
199,100000,14,50,30,0,11,50,30,78.9037,401,0.0,0,0,0,0,0,0,0,0,-202651023,-402624473,59,401,10,80,187,159
200,100500,14,50,30,0,11,50,31,29.6027,401,0.0,0,0,0,0,0,0,0,0,-202651023,-402624473,59,401,10,80,190,150
201,101000,14,50,31,0,11,50,31,79.8762,379,0.0,0,0,0,0,0,0,0,0,-202651023,-402624549,61,379,10,80,186,23
202,101500,14,50,31,0,11,50,32,29.6577,379,0.0,0,0,0,0,0,0,0,0,-202651023,-402624549,61,379,10,80,184,14
203,102000,14,50,32,0,11,50,32,79.2455,364,0.0,0,0,0,0,0,0,0,0,-202651042,-402624626,68,364,10,80,179,143
204,102500,14,50,32,0,11,50,33,28.9692,364,0.0,0,0,0,0,0,0,0,0,-202651042,-402624626,68,364,10,80,190,134
205,103000,14,50,33,0,11,50,33,79.9934,427,0.0,0,0,0,0,0,0,0,0,-202651081,-402624702,70,427,10,80,183,139
206,103500,14,50,33,0,11,50,34,29.6013,427,0.0,0,0,0,0,0,0,0,0,-202651081,-402624702,70,427,10,80,191,130
207,104000,14,50,34,0,11,50,34,79.0869,474,0.0,0,0,0,0,0,0,0,0,-202651138,-402624778,68,474,10,80,179,79
208,104500,14,50,34,0,11,50,35,28.8088,474,0.0,0,0,0,0,0,0,0,0,-202651138,-402624778,68,474,10,80,186,70
209,105000,14,50,35,0,11,50,35,80.1869,483,0.0,0,0,0,0,0,0,0,0,-202651214,-402624893,68,483,10,80,186,145
210,105500,14,50,35,0,11,50,36,29.8228,483,0.0,0,0,0,0,0,0,0,0,-202651214,-402624893,68,483,10,80,188,136
211,106000,14,50,36,0,11,50,36,79.3663,457,0.0,0,0,0,0,0,0,0,0,-202651252,-402624969,65,457,9,84,180,218
212,106500,14,50,36,0,11,50,37,30.2511,457,0.0,0,0,0,0,0,0,0,0,-202651252,-402624969,65,457,9,84,181,209
213,107000,14,50,37,0,11,50,37,79.2879,448,0.0,0,0,0,0,0,0,0,0,-202651309,-402625083,65,448,10,80,190,7
214,107500,14,50,37,0,11,50,38,29.3526,448,0.0,0,0,0,0,0,0,0,0,-202651309,-402625083,65,448,10,80,190,254
215,108000,14,50,38,0,11,50,38,80.1894,455,0.0,0,0,0,0,0,0,0,0,-202651386,-402625160,69,455,10,80,184,110
216,108500,14,50,38,0,11,50,39,29.9786,455,0.0,0,0,0,0,0,0,0,0,-202651386,-402625160,69,455,10,80,191,101
217,109000,14,50,39,0,11,50,39,79.8735,459,0.0,0,0,0,0,0,0,0,0,-202651443,-402625236,69,459,10,80,190,223
218,109500,14,50,39,0,11,50,40,29.2979,459,0.0,0,0,0,0,0,0,0,0,-202651443,-402625236,69,459,10,80,170,214
219,110000,14,50,40,0,11,50,40,78.9626,461,0.0,0,0,0,0,0,0,0,0,-202651500,-402625350,69,461,10,84,184,42
220,110500,14,50,40,0,11,50,41,29.8396,461,0.0,0,0,0,0,0,0,0,0,-202651500,-402625350,69,461,10,84,190,33
221,111000,14,50,41,0,11,50,41,79.4429,459,0.0,0,0,0,0,0,0,0,0,-202651557,-402625427,69,459,10,80,187,139
222,111500,14,50,41,0,11,50,42,29.2566,459,0.0,0,0,0,0,0,0,0,0,-202651557,-402625427,69,459,10,80,198,130
223,112000,14,50,42,0,11,50,42,80.0475,446,0.0,0,0,0,0,0,0,0,0,-202651596,-402625541,69,446,10,80,193,198
224,112500,14,50,42,0,11,50,43,29.3631,446,0.0,0,0,0,0,0,0,0,0,-202651596,-402625541,69,446,10,80,195,189
225,113000,14,50,43,0,11,50,43,79.0925,450,0.0,0,0,0,0,0,0,0,0,-202651653,-402625656,69,450,10,80,193,16
226,113500,14,50,43,0,11,50,44,28.9036,450,0.0,0,0,0,0,0,0,0,0,-202651653,-402625656,69,450,10,80,192,7
227,114000,14,50,44,0,11,50,44,80.0278,450,0.0,0,0,0,0,0,0,0,0,-202651691,-402625770,68,450,10,80,191,102
228,114500,14,50,44,0,11,50,45,29.4789,450,0.0,0,0,0,0,0,0,0,0,-202651691,-402625770,68,450,10,80,193,93
229,115000,14,50,45,0,11,50,45,79.5651,416,0.0,0,0,0,0,0,0,0,0,-202651748,-402625885,70,416,9,84,192,105
230,115500,14,50,45,0,11,50,46,29.7437,416,0.0,0,0,0,0,0,0,0,0,-202651748,-402625885,70,416,9,84,192,96
231,116000,14,50,46,0,11,50,46,78.8892,475,0.0,0,0,0,0,0,0,0,0,-202651767,-402625999,71,475,10,84,196,75
232,116500,14,50,46,0,11,50,47,30.1129,475,0.0,0,0,0,0,0,0,0,0,-202651767,-402625999,71,475,10,84,188,66
233,117000,14,50,47,0,11,50,47,79.8199,431,0.0,0,0,0,0,0,0,0,0,-202651805,-402626113,73,431,10,80,188,71
234,117500,14,50,47,0,11,50,48,29.526,431,0.0,0,0,0,0,0,0,0,0,-202651805,-402626113,73,431,10,80,196,61
235,118000,14,50,48,0,11,50,48,79.2583,398,0.0,0,0,0,0,0,0,0,0,-202651824,-402626228,74,398,10,80,190,110
236,118500,14,50,48,0,11,50,49,29.0603,398,0.0,0,0,0,0,0,0,0,0,-202651824,-402626228,74,398,10,80,199,101
237,119000,14,50,49,0,11,50,49,79.6771,451,0.0,0,0,0,0,0,0,0,0,-202651863,-402626304,74,451,10,80,195,84
238,119500,14,50,49,0,11,50,50,29.7879,451,0.0,0,0,0,0,0,0,0,0,-202651863,-402626304,74,451,10,80,197,75
239,120000,14,50,50,0,11,50,50,79.4061,407,0.0,0,0,0,0,0,0,0,0,-202651882,-402626419,75,407,10,80,199,101
240,120500,14,50,50,0,11,50,51,28.9528,407,0.0,0,0,0,0,0,0,0,0,-202651882,-402626419,75,407,10,80,192,92
241,121000,14,50,51,0,11,50,51,78.9811,475,0.0,0,0,0,0,0,0,0,0,-202651863,-402626533,74,475,10,80,192,124
242,121500,14,50,51,0,11,50,52,30.2455,475,0.0,0,0,0,0,0,0,0,0,-202651863,-402626533,74,475,10,80,192,115
243,122000,14,50,52,0,11,50,52,79.9947,455,0.0,0,0,0,0,0,0,0,0,-202651882,-402626647,74,455,10,80,199,189
244,122500,14,50,52,0,11,50,53,29.6994,455,0.0,0,0,0,0,0,0,0,0,-202651882,-402626647,74,455,10,80,197,180
245,123000,14,50,53,0,11,50,53,79.6223,438,0.0,0,0,0,0,0,0,0,0,-202651882,-402626762,75,438,10,80,199,24
246,123500,14,50,53,0,11,50,54,30.1049,438,0.0,0,0,0,0,0,0,0,0,-202651882,-402626762,75,438,10,80,199,15
247,124000,14,50,54,0,11,50,54,79.2466,440,0.0,0,0,0,0,0,0,0,0,-202651901,-402626914,76,440,10,80,202,96
248,124500,14,50,54,0,11,50,55,29.0409,440,0.0,0,0,0,0,0,0,0,0,-202651901,-402626914,76,440,10,80,200,87
249,125000,14,50,55,0,11,50,55,80.0524,431,0.0,0,0,0,0,0,0,0,0,-202651920,-402626991,75,431,10,80,202,219
250,125500,14,50,55,0,11,50,56,29.8093,431,0.0,0,0,0,0,0,0,0,0,-202651920,-402626991,75,431,10,80,197,210
251,126000,14,50,56,0,11,50,56,79.4042,412,0.0,0,0,0,0,0,0,0,0,-202651996,-402627105,75,412,10,80,193,229
252,126500,14,50,56,0,11,50,57,30.2887,412,0.0,0,0,0,0,0,0,0,0,-202651996,-402627105,75,412,10,80,200,220
253,127000,14,50,57,0,11,50,57,79.2072,425,0.0,0,0,0,0,0,0,0,0,-202652091,-402627105,75,425,10,80,201,143
254,127500,14,50,57,0,11,50,58,28.9718,425,0.0,0,0,0,0,0,0,0,0,-202652091,-402627105,75,425,10,80,192,134
255,128000,14,50,58,0,11,50,58,80.1388,364,0.0,0,0,0,0,0,0,0,0,-202652187,-402627105,75,364,10,80,185,163
256,128500,14,50,58,0,11,50,59,30.0866,364,0.0,0,0,0,0,0,0,0,0,-202652187,-402627105,75,364,10,80,198,154
257,129000,14,50,59,0,11,50,59,79.6635,401,0.0,0,0,0,0,0,0,0,0,-202652263,-402627029,75,401,10,80,197,221
258,129500,14,50,59,0,11,51,0,29.2182,401,0.0,0,0,0,0,0,0,0,0,-202652263,-402627029,75,401,10,80,202,212
259,130000,14,51,0,0,11,51,0,80.2569,451,0.0,0,0,0,0,0,0,0,0,-202652320,-402626914,80,451,10,80,199,52
260,130500,14,51,0,0,11,51,1,29.8977,451,0.0,0,0,0,0,0,0,0,0,-202652320,-402626914,80,451,10,80,196,43
261,131000,14,51,1,0,11,51,1,79.444,438,0.0,0,0,0,0,0,0,0,0,-202652378,-402626800,81,438,10,80,194,67
262,131500,14,51,1,0,11,51,2,29.2137,438,0.0,0,0,0,0,0,0,0,0,-202652378,-402626800,81,438,10,80,205,59
263,132000,14,51,2,0,11,51,2,80.2504,425,0.0,0,0,0,0,0,0,0,0,-202652397,-402626686,83,425,10,80,203,122
264,132500,14,51,2,0,11,51,3,30.2444,425,0.0,0,0,0,0,0,0,0,0,-202652397,-402626686,83,425,10,80,192,113
265,133000,14,51,3,0,11,51,3,79.9164,361,0.0,0,0,0,0,0,0,0,0,-202652397,-402626609,83,361,10,80,196,54
266,133500,14,51,3,0,11,51,4,29.2735,361,0.0,0,0,0,0,0,0,0,0,-202652397,-402626609,83,361,10,80,193,45
267,134000,14,51,4,0,11,51,4,79.1288,477,0.0,0,0,0,0,0,0,0,0,-202652397,-402626495,81,477,10,80,197,126
268,134500,14,51,4,0,11,51,5,30.2654,477,0.0,0,0,0,0,0,0,0,0,-202652397,-402626495,81,477,10,80,206,117
269,135000,14,51,5,0,11,51,5,80.1131,333,0.0,0,0,0,0,0,0,0,0,-202652397,-402626380,79,333,10,80,208,190
270,135500,14,51,5,0,11,51,6,29.6125,333,0.0,0,0,0,0,0,0,0,0,-202652397,-402626380,79,333,10,80,210,181
271,136000,14,51,6,0,11,51,6,79.246,353,0.0,0,0,0,0,0,0,0,0,-202652397,-402626266,81,353,10,80,209,74
272,136500,14,51,6,0,11,51,7,28.9621,353,0.0,0,0,0,0,0,0,0,0,-202652397,-402626266,81,353,10,80,208,65
273,137000,14,51,7,0,11,51,7,80.061,335,0.0,0,0,0,0,0,0,0,0,-202652397,-402626190,85,335,10,88,209,109
274,137500,14,51,7,0,11,51,8,30.1093,335,0.0,0,0,0,0,0,0,0,0,-202652397,-402626190,85,335,10,88,212,100
275,138000,14,51,8,0,11,51,8,79.9228,368,0.0,0,0,0,0,0,0,0,0,-202652397,-402626075,83,368,10,80,211,7
276,138500,14,51,8,0,11,51,9,29.7223,368,0.0,0,0,0,0,0,0,0,0,-202652397,-402626075,83,368,10,80,208,254
277,139000,14,51,9,0,11,51,9,79.7219,383,0.0,0,0,0,0,0,0,0,0,-202652397,-402625961,86,383,10,80,201,137
278,139500,14,51,9,0,11,51,10,29.4228,383,0.0,0,0,0,0,0,0,0,0,-202652397,-402625961,86,383,10,80,204,128
279,140000,14,51,10,0,11,51,10,79.1795,390,0.0,0,0,0,0,0,0,0,0,-202652378,-402625885,88,390,10,80,205,231
280,140500,14,51,10,0,11,51,11,28.9385,390,0.0,0,0,0,0,0,0,0,0,-202652378,-402625885,88,390,10,80,202,222
281,141000,14,51,11,0,11,51,11,80.2348,340,0.0,0,0,0,0,0,0,0,0,-202652359,-402625770,91,340,10,80,204,252
282,141500,14,51,11,0,11,51,12,29.8551,340,0.0,0,0,0,0,0,0,0,0,-202652359,-402625770,91,340,10,80,202,243
283,142000,14,51,12,0,11,51,12,80.2397,335,0.0,0,0,0,0,0,0,0,0,-202652359,-402625694,93,335,10,80,203,47
284,142500,14,51,12,0,11,51,13,29.2239,335,0.0,0,0,0,0,0,0,0,0,-202652359,-402625694,93,335,10,80,199,38
285,143000,14,51,13,0,11,51,13,78.9104,285,0.0,0,0,0,0,0,0,0,0,-202652339,-402625617,98,285,10,80,201,32
286,143500,14,51,13,0,11,51,14,29.977,285,0.0,0,0,0,0,0,0,0,0,-202652339,-402625617,98,285,10,80,194,23
287,144000,14,51,14,0,11,51,14,79.8789,305,0.0,0,0,0,0,0,0,0,0,-202652339,-402625541,101,305,10,80,188,134
288,144500,14,51,14,0,11,51,15,30.0023,305,0.0,0,0,0,0,0,0,0,0,-202652339,-402625541,101,305,10,80,188,125
289,145000,14,51,15,0,11,51,15,79.3322,350,0.0,0,0,0,0,0,0,0,0,-202652320,-402625427,103,350,10,80,194,87
290,145500,14,51,15,0,11,51,16,29.1272,350,0.0,0,0,0,0,0,0,0,0,-202652320,-402625427,103,350,10,80,192,78
291,146000,14,51,16,0,11,51,16,80.4077,357,0.0,0,0,0,0,0,0,0,0,-202652320,-402625350,106,357,10,80,194,164
292,146500,14,51,16,0,11,51,17,30.2368,357,0.0,0,0,0,0,0,0,0,0,-202652320,-402625350,106,357,10,80,198,155
293,147000,14,51,17,0,11,51,17,79.9165,388,0.0,0,0,0,0,0,0,0,0,-202652320,-402625236,108,388,10,80,190,70
294,147500,14,51,17,0,11,51,18,29.6872,388,0.0,0,0,0,0,0,0,0,0,-202652320,-402625236,108,388,10,80,197,61
295,148000,14,51,18,0,11,51,18,80.2368,433,0.0,0,0,0,0,0,0,0,0,-202652320,-402625160,110,433,10,80,195,221
296,148500,14,51,18,0,11,51,19,29.3838,433,0.0,0,0,0,0,0,0,0,0,-202652320,-402625160,110,433,10,80,199,212
297,149000,14,51,19,0,11,51,19,80.3751,311,0.0,0,0,0,0,0,0,0,0,-202652301,-402625045,110,311,10,80,196,94
298,149500,14,51,19,0,11,51,20,29.1983,311,0.0,0,0,0,0,0,0,0,0,-202652301,-402625045,110,311,10,80,194,84
299,150000,14,51,20,0,11,51,20,80.1815,316,0.0,0,0,0,0,0,0,0,0,-202652282,-402624969,113,316,10,80,201,185
300,150500,14,51,20,0,11,51,21,29.6935,316,0.0,0,0,0,0,0,0,0,0,-202652282,-402624969,113,316,10,80,197,176
301,151000,14,51,21,0,11,51,21,79.3155,414,0.0,0,0,0,0,0,0,0,0,-202652263,-402624893,116,414,10,80,201,206
302,151500,14,51,21,0,11,51,22,28.977,414,0.0,0,0,0,0,0,0,0,0,-202652263,-402624893,116,414,10,80,206,197
303,152000,14,51,22,0,11,51,22,80.2488,466,0.0,0,0,0,0,0,0,0,0,-202652263,-402624778,111,466,10,80,200,147
304,152500,14,51,22,0,11,51,23,29.8708,466,0.0,0,0,0,0,0,0,0,0,-202652263,-402624778,111,466,10,80,194,138
305,153000,14,51,23,0,11,51,23,79.9074,416,0.0,0,0,0,0,0,0,0,0,-202652320,-402624702,113,416,10,80,197,52
306,153500,14,51,23,0,11,51,24,29.7346,416,0.0,0,0,0,0,0,0,0,0,-202652320,-402624702,113,416,10,80,195,43
307,154000,14,51,24,0,11,51,24,79.3964,427,0.0,0,0,0,0,0,0,0,0,-202652416,-402624626,115,427,10,80,203,39
308,154500,14,51,24,0,11,51,25,30.304,427,0.0,0,0,0,0,0,0,0,0,-202652416,-402624626,115,427,10,80,203,30
309,155000,14,51,25,0,11,51,25,80.1347,411,0.0,0,0,0,0,0,0,0,0,-202652511,-402624626,111,411,10,80,202,146
310,155500,14,51,25,0,11,51,26,29.468,411,0.0,0,0,0,0,0,0,0,0,-202652511,-402624626,111,411,10,80,201,137
311,156000,14,51,26,0,11,51,26,79.6481,450,0.0,0,0,0,0,0,0,0,0,-202652606,-402624626,110,450,10,84,204,115
312,156500,14,51,26,0,11,51,27,28.8947,450,0.0,0,0,0,0,0,0,0,0,-202652606,-402624626,110,450,10,84,205,106
313,157000,14,51,27,0,11,51,27,80.0605,385,0.0,0,0,0,0,0,0,0,0,-202652702,-402624664,111,385,10,84,205,90
314,157500,14,51,28,0,11,51,28,29.7336,238,0.0,0,0,0,0,0,0,0,0,-202652740,-402624740,111,238,10,84,207,184
315,158000,14,51,28,0,11,51,28,79.3311,238,0.0,0,0,0,0,0,0,0,0,-202652740,-402624740,110,238,10,80,203,170
316,158500,14,51,28,0,11,51,29,28.9297,238,0.0,0,0,0,0,0,0,0,0,-202652740,-402624740,110,238,10,80,200,161
317,159000,14,51,29,0,11,51,29,80.4013,318,0.0,0,0,0,0,0,0,0,0,-202652778,-402624778,106,318,10,80,201,234
318,159500,14,51,29,0,11,51,30,30.1398,318,0.0,0,0,0,0,0,0,0,0,-202652778,-402624778,106,318,10,80,197,225
319,160000,14,51,30,0,11,51,30,79.5054,381,0.0,0,0,0,0,0,0,0,0,-202652797,-402624893,101,381,10,80,198,204
320,160500,14,51,30,0,11,51,31,30.4264,381,0.0,0,0,0,0,0,0,0,0,-202652797,-402624893,101,381,10,80,205,194
321,161000,14,51,31,0,11,51,31,80.4509,429,0.0,0,0,0,0,0,0,0,0,-202652835,-402625007,100,429,10,80,204,129
322,161500,14,51,31,0,11,51,32,30.0021,429,0.0,0,0,0,0,0,0,0,0,-202652835,-402625007,100,429,10,80,202,120
323,162000,14,51,32,0,11,51,32,79.7339,446,0.0,0,0,0,0,0,0,0,0,-202652854,-402625122,100,446,10,80,200,11
324,162500,14,51,32,0,11,51,33,29.7333,446,0.0,0,0,0,0,0,0,0,0,-202652854,-402625122,100,446,10,80,202,2
325,163000,14,51,33,0,11,51,33,79.0177,459,0.0,0,0,0,0,0,0,0,0,-202652893,-402625236,96,459,10,80,189,119
326,163500,14,51,33,0,11,51,34,29.5202,459,0.0,0,0,0,0,0,0,0,0,-202652893,-402625236,96,459,10,80,187,110
327,164000,14,51,34,0,11,51,34,79.5204,498,0.0,0,0,0,0,0,0,0,0,-202652912,-402625350,93,498,10,80,199,43
328,164500,14,51,34,0,11,51,35,30.3765,498,0.0,0,0,0,0,0,0,0,0,-202652912,-402625350,93,498,10,80,199,34
329,165000,14,51,35,0,11,51,35,80.0934,424,0.0,0,0,0,0,0,0,0,0,-202652950,-402625465,93,424,10,80,208,236
330,165500,14,51,35,0,11,51,36,29.825,424,0.0,0,0,0,0,0,0,0,0,-202652950,-402625465,93,424,10,80,205,227
331,166000,14,51,36,0,11,51,36,79.5223,424,0.0,0,0,0,0,0,0,0,0,-202652969,-402625541,90,424,10,80,210,120
332,166500,14,51,36,0,11,51,37,29.2253,424,0.0,0,0,0,0,0,0,0,0,-202652969,-402625541,90,424,10,80,201,111
333,167000,14,51,37,0,11,51,37,80.4051,448,0.0,0,0,0,0,0,0,0,0,-202653007,-402625656,86,448,10,80,203,250
334,167500,14,51,37,0,11,51,38,30.4627,448,0.0,0,0,0,0,0,0,0,0,-202653007,-402625656,86,448,10,80,210,241
335,168000,14,51,38,0,11,51,38,79.7169,468,0.0,0,0,0,0,0,0,0,0,-202653064,-402625770,83,468,10,80,210,99
336,168500,14,51,38,0,11,51,39,29.4298,468,0.0,0,0,0,0,0,0,0,0,-202653064,-402625770,83,468,10,80,201,90
337,169000,14,51,39,0,11,51,39,79.9273,987,0.0,0,0,0,0,0,0,0,0,-202653026,-402625999,68,987,10,80,203,149
338,169500,14,51,39,0,11,51,40,29.1096,987,0.0,0,0,0,0,0,0,0,0,-202653026,-402625999,68,987,10,80,210,140
339,170000,14,51,40,0,11,51,40,79.545,492,0.0,0,0,0,0,0,0,0,0,-202653045,-402626152,68,492,10,80,211,245
340,170500,14,51,40,0,11,51,41,30.4702,492,0.0,0,0,0,0,0,0,0,0,-202653045,-402626152,68,492,10,80,201,236
341,171000,14,51,41,0,11,51,41,79.9318,483,0.0,0,0,0,0,0,0,0,0,-202653102,-402626266,69,483,10,80,208,39
342,171500,14,51,41,0,11,51,42,29.4169,483,0.0,0,0,0,0,0,0,0,0,-202653102,-402626266,69,483,10,80,213,30
343,172000,14,51,42,0,11,51,42,79.0873,557,0.0,0,0,0,0,0,0,0,0,-202653141,-402626419,69,557,10,80,211,235
344,172500,14,51,42,0,11,51,43,29.8605,557,0.0,0,0,0,0,0,0,0,0,-202653141,-402626419,69,557,10,80,213,226
345,173000,14,51,43,0,11,51,43,79.6363,507,0.0,0,0,0,0,0,0,0,0,-202653198,-402626533,70,507,10,80,213,201
346,173500,14,51,43,0,11,51,44,29.1883,507,0.0,0,0,0,0,0,0,0,0,-202653198,-402626533,70,507,10,80,206,192
347,174000,14,51,44,0,11,51,44,79.173,487,0.0,0,0,0,0,0,0,0,0,-202653236,-402626647,71,487,10,80,210,248
348,174500,14,51,44,0,11,51,45,30.5288,487,0.0,0,0,0,0,0,0,0,0,-202653236,-402626647,71,487,10,80,208,239
349,175000,14,51,45,0,11,51,45,80.2212,483,0.0,0,0,0,0,0,0,0,0,-202653274,-402626762,74,483,10,80,202,73
350,175500,14,51,45,0,11,51,46,29.935,483,0.0,0,0,0,0,0,0,0,0,-202653274,-402626762,74,483,10,80,213,64
351,176000,14,51,46,0,11,51,46,79.9356,498,0.0,0,0,0,0,0,0,0,0,-202653312,-402626914,74,498,10,80,213,151
352,176500,14,51,46,0,11,51,47,29.3415,498,0.0,0,0,0,0,0,0,0,0,-202653312,-402626914,74,498,10,80,215,142
353,177000,14,51,47,0,11,51,47,79.7793,424,0.0,0,0,0,0,0,0,0,0,-202653331,-402627029,75,424,10,80,214,109
354,177500,14,51,47,0,11,51,48,29.4114,424,0.0,0,0,0,0,0,0,0,0,-202653331,-402627029,75,424,10,80,215,100
355,178000,14,51,48,0,11,51,48,80.4186,251,0.0,0,0,0,0,0,0,0,0,-202653350,-402627105,79,251,10,80,217,164
356,178500,14,51,48,0,11,51,49,30.4236,251,0.0,0,0,0,0,0,0,0,0,-202653350,-402627105,79,251,10,80,213,155
357,179000,14,51,49,0,11,51,49,80.3402,283,0.0,0,0,0,0,0,0,0,0,-202653350,-402627143,86,283,10,80,212,182
358,179500,14,51,49,0,11,51,50,29.9811,283,0.0,0,0,0,0,0,0,0,0,-202653350,-402627143,86,283,10,80,212,173
359,180000,14,51,50,0,11,51,50,79.7127,355,0.0,0,0,0,0,0,0,0,0,-202653369,-402627258,88,355,10,80,211,177
360,180500,14,51,50,0,11,51,51,29.4257,355,0.0,0,0,0,0,0,0,0,0,-202653369,-402627258,88,355,10,80,205,168
361,181000,14,51,51,0,11,51,51,80.2534,409,0.0,0,0,0,0,0,0,0,0,-202653408,-402627334,90,409,10,80,208,154
362,181500,14,51,51,0,11,51,52,29.3568,409,0.0,0,0,0,0,0,0,0,0,-202653408,-402627334,90,409,10,80,196,144
363,182000,14,51,52,0,11,51,52,80.0099,333,0.0,0,0,0,0,0,0,0,0,-202653427,-402627449,96,333,10,80,208,112
364,182500,14,51,52,0,11,51,53,29.5328,333,0.0,0,0,0,0,0,0,0,0,-202653427,-402627449,96,333,10,80,206,103
365,183000,14,51,53,0,11,51,53,79.5324,401,0.0,0,0,0,0,0,0,0,0,-202653465,-402627525,98,401,10,80,206,118
366,183500,14,51,53,0,11,51,54,29.2921,401,0.0,0,0,0,0,0,0,0,0,-202653465,-402627525,98,401,10,80,203,109
367,184000,14,51,54,0,11,51,54,80.118,418,0.0,0,0,0,0,0,0,0,0,-202653503,-402627639,96,418,10,80,198,236
368,184500,14,51,54,0,11,51,55,30.1394,418,0.0,0,0,0,0,0,0,0,0,-202653503,-402627639,96,418,10,80,206,227
369,185000,14,51,55,0,11,51,55,80.1388,438,0.0,0,0,0,0,0,0,0,0,-202653522,-402627754,95,438,10,80,206,124
370,185500,14,51,55,0,11,51,56,29.2225,438,0.0,0,0,0,0,0,0,0,0,-202653522,-402627754,95,438,10,80,205,115
371,186000,14,51,56,0,11,51,56,79.0041,451,0.0,0,0,0,0,0,0,0,0,-202653560,-402627830,93,451,10,80,200,17
372,186500,14,51,56,0,11,51,57,30.3252,451,0.0,0,0,0,0,0,0,0,0,-202653560,-402627830,93,451,10,80,197,8
373,187000,14,51,57,0,11,51,57,80.3242,468,0.0,0,0,0,0,0,0,0,0,-202653598,-402627944,91,468,10,80,198,135
374,187500,14,51,57,0,11,51,58,29.7691,468,0.0,0,0,0,0,0,0,0,0,-202653598,-402627944,91,468,10,80,197,126
375,188000,14,51,58,0,11,51,58,79.5533,492,0.0,0,0,0,0,0,0,0,0,-202653636,-402628097,90,492,10,80,197,229
376,188500,14,51,58,0,11,51,59,29.7406,492,0.0,0,0,0,0,0,0,0,0,-202653636,-402628097,90,492,10,80,199,220
377,189000,14,51,59,0,11,51,59,79.3058,572,0.0,0,0,0,0,0,0,0,0,-202653675,-402628211,88,572,10,80,202,219
378,189500,14,51,59,0,11,52,0,29.1455,572,0.0,0,0,0,0,0,0,0,0,-202653675,-402628211,88,572,10,80,202,210
379,190000,14,52,0,0,11,52,0,80.4303,555,0.0,0,0,0,0,0,0,0,0,-202653694,-402628364,90,555,10,80,203,194
380,190500,14,52,0,0,11,52,1,30.0276,555,0.0,0,0,0,0,0,0,0,0,-202653694,-402628364,90,555,10,80,201,185
381,191000,14,52,1,0,11,52,1,80.5757,513,0.0,0,0,0,0,0,0,0,0,-202653732,-402628517,91,513,10,80,201,158
382,191500,14,52,1,0,11,52,2,29.6797,513,0.0,0,0,0,0,0,0,0,0,-202653732,-402628517,91,513,10,80,197,149
383,192000,14,52,2,0,11,52,2,79.0855,470,0.0,0,0,0,0,0,0,0,0,-202653751,-402628631,90,470,10,80,198,174
384,192500,14,52,2,0,11,52,3,30.2921,470,0.0,0,0,0,0,0,0,0,0,-202653751,-402628631,90,470,10,80,196,164
385,193000,14,52,3,0,11,52,3,80.494,396,0.0,0,0,0,0,0,0,0,0,-202653770,-402628746,91,396,10,80,197,131
386,193500,14,52,3,0,11,52,4,29.8378,396,0.0,0,0,0,0,0,0,0,0,-202653770,-402628746,91,396,10,80,200,122
387,194000,14,52,4,0,11,52,4,79.3506,459,0.0,0,0,0,0,0,0,0,0,-202653770,-402628860,88,459,10,80,207,123
388,194500,14,52,4,0,11,52,5,30.4387,459,0.0,0,0,0,0,0,0,0,0,-202653770,-402628860,88,459,10,80,205,114
389,195000,14,52,5,0,11,52,5,80.3607,503,0.0,0,0,0,0,0,0,0,0,-202653808,-402628974,85,503,10,80,206,38
390,195500,14,52,5,0,11,52,6,29.7675,503,0.0,0,0,0,0,0,0,0,0,-202653808,-402628974,85,503,10,80,205,29
391,196000,14,52,6,0,11,52,6,79.8445,529,0.0,0,0,0,0,0,0,0,0,-202653827,-402629089,83,529,10,80,205,195
392,196500,14,52,6,0,11,52,7,29.8441,529,0.0,0,0,0,0,0,0,0,0,-202653827,-402629089,83,529,10,80,205,186
393,197000,14,52,7,0,11,52,7,80.3009,514,0.0,0,0,0,0,0,0,0,0,-202653865,-402629203,81,514,10,80,205,250
394,197500,14,52,7,0,11,52,8,30.1221,514,0.0,0,0,0,0,0,0,0,0,-202653865,-402629203,81,514,10,80,205,241
395,198000,14,52,8,0,11,52,8,79.2622,496,0.0,0,0,0,0,0,0,0,0,-202653903,-402629356,81,496,10,80,203,4
396,198500,14,52,8,0,11,52,9,29.2466,496,0.0,0,0,0,0,0,0,0,0,-202653903,-402629356,81,496,10,80,197,251
397,199000,14,52,9,0,11,52,9,80.4731,516,0.0,0,0,0,0,0,0,0,0,-202653961,-402629470,80,516,10,80,204,110
398,199500,14,52,9,0,11,52,10,30.212,516,0.0,0,0,0,0,0,0,0,0,-202653961,-402629470,80,516,10,80,198,101
399,200000,14,52,10,0,11,52,10,80.5511,355,0.0,0,0,0,0,0,0,0,0,-202653980,-402629547,80,355,10,80,198,185
400,200500,14,52,10,0,11,52,11,30.5736,355,0.0,0,0,0,0,0,0,0,0,-202653980,-402629547,80,355,10,80,197,176
401,201000,14,52,11,0,11,52,11,80.5741,350,0.0,0,0,0,0,0,0,0,0,-202654018,-402629661,81,350,10,80,196,6
402,201500,14,52,11,0,11,52,12,29.8822,350,0.0,0,0,0,0,0,0,0,0,-202654018,-402629661,81,350,10,80,203,253
403,202000,14,52,12,0,11,52,12,79.5339,231,0.0,0,0,0,0,0,0,0,0,-202654018,-402629699,88,231,10,80,195,230
404,202500,14,52,12,0,11,52,13,29.6252,231,0.0,0,0,0,0,0,0,0,0,-202654018,-402629699,88,231,10,80,200,221
405,203000,14,52,13,0,11,52,13,80.6123,311,0.0,0,0,0,0,0,0,0,0,-202653999,-402629776,91,311,10,80,198,63
406,203500,14,52,13,0,11,52,14,30.4445,311,0.0,0,0,0,0,0,0,0,0,-202653999,-402629776,91,311,10,80,194,54
407,204000,14,52,14,0,11,52,14,79.9334,511,0.0,0,0,0,0,0,0,0,0,-202654018,-402629890,90,511,10,80,197,55
408,204500,14,52,14,0,11,52,15,29.9335,511,0.0,0,0,0,0,0,0,0,0,-202654018,-402629890,90,511,10,80,197,46
409,205000,14,52,15,0,11,52,15,79.5861,531,0.0,0,0,0,0,0,0,0,0,-202654037,-402630043,91,531,10,80,188,165
410,205500,14,52,15,0,11,52,16,30.4633,531,0.0,0,0,0,0,0,0,0,0,-202654037,-402630043,91,531,10,80,195,156
411,206000,14,52,16,0,11,52,16,80.0707,422,0.0,0,0,0,0,0,0,0,0,-202654094,-402630119,96,422,10,80,196,56
412,206500,14,52,16,0,11,52,17,29.7918,422,0.0,0,0,0,0,0,0,0,0,-202654094,-402630119,96,422,10,80,193,47
413,207000,14,52,17,0,11,52,17,79.5991,422,0.0,0,0,0,0,0,0,0,0,-202654113,-402630233,98,422,10,80,200,163
414,207500,14,52,17,0,11,52,18,30.5366,422,0.0,0,0,0,0,0,0,0,0,-202654113,-402630233,98,422,10,80,196,154
415,208000,14,52,18,0,11,52,18,80.3651,472,0.0,0,0,0,0,0,0,0,0,-202654170,-402630348,96,472,10,80,187,72
416,208500,14,52,18,0,11,52,19,30.2375,472,0.0,0,0,0,0,0,0,0,0,-202654170,-402630348,96,472,10,80,190,63
417,209000,14,52,19,0,11,52,19,79.9133,494,0.0,0,0,0,0,0,0,0,0,-202654209,-402630462,93,494,10,80,185,197
418,209500,14,52,19,0,11,52,20,29.5633,494,0.0,0,0,0,0,0,0,0,0,-202654209,-402630462,93,494,10,80,189,188
419,210000,14,52,20,0,11,52,20,79.3551,553,0.0,0,0,0,0,0,0,0,0,-202654247,-402630615,93,553,10,80,189,109
420,210500,14,52,20,0,11,52,21,29.718,553,0.0,0,0,0,0,0,0,0,0,-202654247,-402630615,93,553,10,80,189,100
421,211000,14,52,21,0,11,52,21,79.8654,550,0.0,0,0,0,0,0,0,0,0,-202654304,-402630729,93,550,10,80,189,170
422,211500,14,52,21,0,11,52,22,29.6592,550,0.0,0,0,0,0,0,0,0,0,-202654304,-402630729,93,550,10,80,188,161
423,212000,14,52,22,0,11,52,22,80.066,581,0.0,0,0,0,0,0,0,0,0,-202654361,-402630882,91,581,10,80,187,3
424,212500,14,52,22,0,11,52,23,29.4701,581,0.0,0,0,0,0,0,0,0,0,-202654361,-402630882,91,581,10,80,190,250
425,213000,14,52,23,0,11,52,23,79.47,537,0.0,0,0,0,0,0,0,0,0,-202654418,-402630996,93,537,10,80,187,240
426,213500,14,52,23,0,11,52,24,30.3389,537,0.0,0,0,0,0,0,0,0,0,-202654418,-402630996,93,537,10,80,192,230
427,214000,14,52,24,0,11,52,24,79.3636,555,0.0,0,0,0,0,0,0,0,0,-202654457,-402631149,93,555,10,80,188,66
428,214500,14,52,24,0,11,52,25,29.8347,555,0.0,0,0,0,0,0,0,0,0,-202654457,-402631149,93,555,10,80,193,57
429,215000,14,52,25,0,11,52,25,79.3651,537,0.0,0,0,0,0,0,0,0,0,-202654495,-402631301,91,537,10,80,193,75
430,215500,14,52,25,0,11,52,26,29.0136,537,0.0,0,0,0,0,0,0,0,0,-202654495,-402631301,91,537,10,80,193,66
431,216000,14,52,26,0,11,52,26,80.0957,574,0.0,0,0,0,0,0,0,0,0,-202654533,-402631416,90,574,10,80,194,234
432,216500,14,52,26,0,11,52,27,30.049,574,0.0,0,0,0,0,0,0,0,0,-202654533,-402631416,90,574,10,80,193,225
433,217000,14,52,27,0,11,52,27,79.4438,529,0.0,0,0,0,0,0,0,0,0,-202654590,-402631568,91,529,10,80,195,174
434,217500,14,52,27,0,11,52,28,29.4035,529,0.0,0,0,0,0,0,0,0,0,-202654590,-402631568,91,529,10,80,196,165
435,218000,14,52,28,0,11,52,28,79.3757,572,0.0,0,0,0,0,0,0,0,0,-202654609,-402631683,91,572,10,80,195,108
436,218500,14,52,28,0,11,52,29,29.058,572,0.0,0,0,0,0,0,0,0,0,-202654609,-402631683,91,572,10,80,194,99
437,219000,14,52,29,0,11,52,29,80.4202,461,0.0,0,0,0,0,0,0,0,0,-202654647,-402631797,96,461,10,80,196,232
438,219500,14,52,29,0,11,52,30,29.9962,461,0.0,0,0,0,0,0,0,0,0,-202654647,-402631797,96,461,10,80,197,223
439,220000,14,52,30,0,11,52,30,79.8814,340,0.0,0,0,0,0,0,0,0,0,-202654666,-402631912,98,340,10,80,195,97
440,220500,14,52,30,0,11,52,31,30.0151,340,0.0,0,0,0,0,0,0,0,0,-202654666,-402631912,98,340,10,80,192,88
441,221000,14,52,31,0,11,52,31,79.7754,312,0.0,0,0,0,0,0,0,0,0,-202654666,-402631988,100,312,10,80,195,205
442,221500,14,52,31,0,11,52,32,29.5871,312,0.0,0,0,0,0,0,0,0,0,-202654666,-402631988,100,312,10,80,192,196
443,222000,14,52,32,0,11,52,32,79.2303,372,0.0,0,0,0,0,0,0,0,0,-202654685,-402632102,100,372,10,80,195,175
444,222500,14,52,32,0,11,52,33,30.4308,372,0.0,0,0,0,0,0,0,0,0,-202654685,-402632102,100,372,10,80,194,166
445,223000,14,52,33,0,11,52,33,80.1601,557,0.0,0,0,0,0,0,0,0,0,-202654705,-402632217,98,557,10,80,194,136
446,223500,14,52,33,0,11,52,34,30.4028,557,0.0,0,0,0,0,0,0,0,0,-202654705,-402632217,98,557,10,80,190,127
447,224000,14,52,34,0,11,52,34,79.4416,305,0.0,0,0,0,0,0,0,0,0,-202654724,-402632293,103,305,10,80,191,34
448,224500,14,52,34,0,11,52,35,29.2106,305,0.0,0,0,0,0,0,0,0,0,-202654724,-402632293,103,305,10,80,192,24
449,225000,14,52,35,0,11,52,35,80.4655,420,0.0,0,0,0,0,0,0,0,0,-202654743,-402632408,103,420,10,80,196,112
450,225500,14,52,35,0,11,52,36,30.713,420,0.0,0,0,0,0,0,0,0,0,-202654743,-402632408,103,420,10,80,195,103
451,226000,14,52,36,0,11,52,36,79.9756,494,0.0,0,0,0,0,0,0,0,0,-202654781,-402632522,101,494,9,84,191,91
452,226500,14,52,36,0,11,52,37,29.4509,494,0.0,0,0,0,0,0,0,0,0,-202654781,-402632522,101,494,9,84,195,82
453,227000,14,52,37,0,11,52,37,80.6871,481,0.0,0,0,0,0,0,0,0,0,-202654819,-402632637,101,481,10,84,195,152
454,227500,14,52,37,0,11,52,38,30.2209,481,0.0,0,0,0,0,0,0,0,0,-202654819,-402632637,101,481,10,84,190,143
455,228000,14,52,38,0,11,52,38,80.2684,431,0.0,0,0,0,0,0,0,0,0,-202654857,-402632751,98,431,10,80,192,131
456,228500,14,52,38,0,11,52,39,29.5355,431,0.0,0,0,0,0,0,0,0,0,-202654857,-402632751,98,431,10,80,193,122
457,229000,14,52,39,0,11,52,39,79.1736,494,0.0,0,0,0,0,0,0,0,0,-202654914,-402632865,98,494,10,80,193,69
458,229500,14,52,39,0,11,52,40,30.3647,494,0.0,0,0,0,0,0,0,0,0,-202654914,-402632865,98,494,10,80,198,60
459,230000,14,52,40,0,11,52,40,80.0346,537,0.0,0,0,0,0,0,0,0,0,-202654991,-402632980,98,537,10,80,194,202
460,230500,14,52,40,0,11,52,41,30.1321,537,0.0,0,0,0,0,0,0,0,0,-202654991,-402632980,98,537,10,80,194,193
461,231000,14,52,41,0,11,52,41,79.7884,518,0.0,0,0,0,0,0,0,0,0,-202654991,-402633132,96,518,10,80,191,249
462,231500,14,52,41,0,11,52,42,29.292,518,0.0,0,0,0,0,0,0,0,0,-202654991,-402633132,96,518,10,80,179,240
463,232000,14,52,42,0,11,52,42,80.5372,475,0.0,0,0,0,0,0,0,0,0,-202654953,-402633247,93,475,10,80,177,64
464,232500,14,52,42,0,11,52,43,30.5768,475,0.0,0,0,0,0,0,0,0,0,-202654953,-402633247,93,475,10,80,177,55
465,233000,14,52,43,0,11,52,43,79.6458,566,0.0,0,0,0,0,0,0,0,0,-202654857,-402633361,90,566,10,80,186,210
466,233500,14,52,43,0,11,52,44,29.9702,566,0.0,0,0,0,0,0,0,0,0,-202654857,-402633361,90,566,10,80,186,201
467,234000,14,52,44,0,11,52,44,79.9267,551,0.0,0,0,0,0,0,0,0,0,-202654781,-402633476,88,551,10,80,187,121
468,234500,14,52,44,0,11,52,45,29.7536,551,0.0,0,0,0,0,0,0,0,0,-202654781,-402633476,88,551,10,80,180,112
469,235000,14,52,45,0,11,52,45,80.3404,570,0.0,0,0,0,0,0,0,0,0,-202654705,-402633590,86,570,10,80,181,102
470,235500,14,52,45,0,11,52,46,30.3982,570,0.0,0,0,0,0,0,0,0,0,-202654705,-402633590,86,570,10,80,183,93
471,236000,14,52,46,0,11,52,46,80.0077,579,0.0,0,0,0,0,0,0,0,0,-202654609,-402633743,86,579,10,80,185,45
472,236500,14,52,46,0,11,52,47,29.6215,579,0.0,0,0,0,0,0,0,0,0,-202654609,-402633743,86,579,10,80,181,36
473,237000,14,52,47,0,11,52,47,79.6216,550,0.0,0,0,0,0,0,0,0,0,-202654552,-402633857,88,550,10,80,189,171
474,237500,14,52,47,0,11,52,48,30.0508,550,0.0,0,0,0,0,0,0,0,0,-202654552,-402633857,88,550,10,80,187,162
475,238000,14,52,48,0,11,52,48,80.4311,516,0.0,0,0,0,0,0,0,0,0,-202654476,-402633972,93,516,10,80,193,52
476,238500,14,52,48,0,11,52,49,30.5378,516,0.0,0,0,0,0,0,0,0,0,-202654476,-402633972,93,516,10,80,196,43
477,239000,14,52,49,0,11,52,49,80.2726,435,0.0,0,0,0,0,0,0,0,0,-202654380,-402634010,96,435,10,80,194,188
478,239500,14,52,49,0,11,52,50,30.0904,435,0.0,0,0,0,0,0,0,0,0,-202654380,-402634010,96,435,10,80,194,179
479,240000,14,52,50,0,11,52,50,80.1174,424,0.0,0,0,0,0,0,0,0,0,-202654266,-402634010,96,424,10,80,192,7
480,240500,14,52,50,0,11,52,51,29.416,424,0.0,0,0,0,0,0,0,0,0,-202654266,-402634010,96,424,10,80,186,254
481,241000,14,52,51,0,11,52,51,80.7059,614,0.0,0,0,0,0,0,0,0,0,-202654151,-402633895,93,614,10,80,183,89
482,241500,14,52,52,0,11,52,52,30.0854,4889,0.0,0,0,0,0,0,0,0,0,-202654113,-402632904,93,4889,10,80,190,226
483,242000,14,52,52,0,11,52,52,80.4868,4889,0.0,0,0,0,0,0,0,0,0,-202654113,-402632904,93,4889,9,134,193,14
484,242500,14,52,53,0,11,52,53,29.2957,3787,0.0,0,0,0,0,0,0,0,0,-202654094,-402631912,93,3787,9,134,194,87
485,243000,14,52,53,0,11,52,53,80.5849,3787,0.0,0,0,0,0,0,0,0,0,-202654094,-402631912,93,3787,7,195,193,137
486,243500,14,52,54,0,11,52,54,30.0764,2235,0.0,0,0,0,0,0,0,0,0,-202654037,-402631492,93,2235,7,195,191,51
487,244000,14,52,54,0,11,52,54,79.7008,2235,0.0,0,0,0,0,0,0,0,0,-202654037,-402631492,91,2235,8,195,189,41
488,244500,14,52,55,0,11,52,55,29.3948,1255,0.0,0,0,0,0,0,0,0,0,-202653980,-402631340,91,1255,8,195,191,67
489,245000,14,52,55,0,11,52,55,79.679,1255,0.0,0,0,0,0,0,0,0,0,-202653980,-402631340,90,1255,8,113,191,231
490,245500,14,52,56,0,11,52,56,30.3431,513,0.0,0,0,0,0,0,0,0,0,-202653923,-402631454,90,513,8,113,184,213
491,246000,14,52,56,0,11,52,56,80.0168,513,0.0,0,0,0,0,0,0,0,0,-202653923,-402631454,88,513,9,106,184,196
492,246500,14,52,56,0,11,52,57,30.4493,513,0.0,0,0,0,0,0,0,0,0,-202653923,-402631454,88,513,9,106,188,187
493,247000,14,52,57,0,11,52,57,79.8311,1703,0.0,0,0,0,0,0,0,0,0,-202653903,-402632026,-11,1703,9,91,190,106
494,247500,14,52,58,0,11,52,58,29.637,646,0.0,0,0,0,0,0,0,0,0,-202653884,-402632522,-11,646,9,91,188,57
495,248000,14,52,58,0,11,52,58,79.4016,646,0.0,0,0,0,0,0,0,0,0,-202653884,-402632522,-66,646,10,109,187,12
496,248500,14,52,59,0,11,52,59,30.7431,468,0.0,0,0,0,0,0,0,0,0,-202653903,-402632827,-66,468,10,109,171,89
497,249000,14,52,59,0,11,52,59,80.5586,468,0.0,0,0,0,0,0,0,0,0,-202653903,-402632827,-50,468,10,109,183,96
498,249500,14,52,59,0,11,53,0,29.9912,468,0.0,0,0,0,0,0,0,0,0,-202653903,-402632827,-50,468,10,109,181,87
499,250000,14,53,0,0,11,53,0,79.479,422,0.0,0,0,0,0,0,0,0,0,-202653865,-402632942,-27,422,10,80,183,101
500,250500,14,53,0,0,11,53,1,29.4788,422,0.0,0,0,0,0,0,0,0,0,-202653865,-402632942,-27,422,10,80,185,92
501,251000,14,53,1,0,11,53,1,80.7491,503,0.0,0,0,0,0,0,0,0,0,-202653770,-402633018,-12,503,10,80,188,23
502,251500,14,53,1,0,11,53,2,29.4886,503,0.0,0,0,0,0,0,0,0,0,-202653770,-402633018,-12,503,10,80,184,14
503,252000,14,53,2,0,11,53,2,80.7759,514,0.0,0,0,0,0,0,0,0,0,-202653656,-402632980,-4,514,10,80,177,191
504,252500,14,53,2,0,11,53,3,30.4681,514,0.0,0,0,0,0,0,0,0,0,-202653656,-402632980,-4,514,10,80,182,182
505,253000,14,53,3,0,11,53,3,80.5356,405,0.0,0,0,0,0,0,0,0,0,-202653560,-402632942,1,405,10,80,179,95
506,253500,14,53,3,0,11,53,4,29.3326,405,0.0,0,0,0,0,0,0,0,0,-202653560,-402632942,1,405,10,80,186,86
507,254000,14,53,4,0,11,53,4,79.907,329,0.0,0,0,0,0,0,0,0,0,-202653484,-402632865,5,329,10,80,192,83
508,254500,14,53,4,0,11,53,5,29.6424,329,0.0,0,0,0,0,0,0,0,0,-202653484,-402632865,5,329,10,80,185,74
509,255000,14,53,5,0,11,53,5,79.4951,429,0.0,0,0,0,0,0,0,0,0,-202653408,-402632789,8,429,10,80,182,166
510,255500,14,53,5,0,11,53,6,30.5865,429,0.0,0,0,0,0,0,0,0,0,-202653408,-402632789,8,429,10,80,184,157
511,256000,14,53,6,0,11,53,6,79.9806,372,0.0,0,0,0,0,0,0,0,0,-202653350,-402632713,12,372,10,80,186,173
512,256500,14,53,6,0,11,53,7,29.8721,372,0.0,0,0,0,0,0,0,0,0,-202653350,-402632713,12,372,10,80,191,164
513,257000,14,53,7,0,11,53,7,80.1604,442,0.0,0,0,0,0,0,0,0,0,-202653293,-402632637,16,442,10,80,185,178
514,257500,14,53,7,0,11,53,8,29.8483,442,0.0,0,0,0,0,0,0,0,0,-202653293,-402632637,16,442,10,80,188,169
515,258000,14,53,8,0,11,53,8,80.7783,459,0.0,0,0,0,0,0,0,0,0,-202653198,-402632522,18,459,10,91,195,162
516,258500,14,53,8,0,11,53,9,30.5205,459,0.0,0,0,0,0,0,0,0,0,-202653198,-402632522,18,459,10,91,191,153
517,259000,14,53,9,0,11,53,9,80.2876,487,0.0,0,0,0,0,0,0,0,0,-202653179,-402632369,15,487,10,91,194,116
518,259500,14,53,9,0,11,53,10,29.989,487,0.0,0,0,0,0,0,0,0,0,-202653179,-402632369,15,487,10,91,189,107
519,260000,14,53,10,0,11,53,10,79.686,485,0.0,0,0,0,0,0,0,0,0,-202653102,-402632255,15,485,10,80,193,19
520,260500,14,53,10,0,11,53,11,30.3741,485,0.0,0,0,0,0,0,0,0,0,-202653102,-402632255,15,485,10,80,190,10
521,261000,14,53,11,0,11,53,11,80.0507,424,0.0,0,0,0,0,0,0,0,0,-202653045,-402632141,13,424,10,80,198,50
522,261500,14,53,11,0,11,53,12,29.6134,424,0.0,0,0,0,0,0,0,0,0,-202653045,-402632141,13,424,10,80,190,41
523,262000,14,53,12,0,11,53,12,79.3103,451,0.0,0,0,0,0,0,0,0,0,-202652969,-402632026,10,451,10,80,191,19
524,262500,14,53,12,0,11,53,13,30.6169,451,0.0,0,0,0,0,0,0,0,0,-202652969,-402632026,10,451,10,80,193,11
525,263000,14,53,13,0,11,53,13,79.8685,546,0.0,0,0,0,0,0,0,0,0,-202652893,-402631912,11,546,10,80,196,132
526,263500,14,53,13,0,11,53,14,30.0224,546,0.0,0,0,0,0,0,0,0,0,-202652893,-402631912,11,546,10,80,190,123
527,264000,14,53,14,0,11,53,14,80.1482,564,0.0,0,0,0,0,0,0,0,0,-202652797,-402631759,10,564,10,80,197,143
528,264500,14,53,14,0,11,53,15,29.6076,564,0.0,0,0,0,0,0,0,0,0,-202652797,-402631759,10,564,10,80,193,134
529,265000,14,53,15,0,11,53,15,79.909,614,0.0,0,0,0,0,0,0,0,0,-202652721,-402631645,13,614,10,80,192,164
530,265500,14,53,15,0,11,53,16,30.5824,614,0.0,0,0,0,0,0,0,0,0,-202652721,-402631645,13,614,10,80,193,155
531,266000,14,53,16,0,11,53,16,80.0569,575,0.0,0,0,0,0,0,0,0,0,-202652626,-402631492,18,575,10,80,197,67
532,266500,14,53,16,0,11,53,17,29.5692,575,0.0,0,0,0,0,0,0,0,0,-202652626,-402631492,18,575,10,80,184,58
533,267000,14,53,17,0,11,53,17,80.6322,540,0.0,0,0,0,0,0,0,0,0,-202652568,-402631378,22,540,10,80,196,156
534,267500,14,53,17,0,11,53,18,30.5563,540,0.0,0,0,0,0,0,0,0,0,-202652568,-402631378,22,540,10,80,201,147
535,268000,14,53,18,0,11,53,18,79.64,533,0.0,0,0,0,0,0,0,0,0,-202652492,-402631225,27,533,10,80,199,103
536,268500,14,53,18,0,11,53,19,30.6297,533,0.0,0,0,0,0,0,0,0,0,-202652492,-402631225,27,533,10,80,201,94
537,269000,14,53,19,0,11,53,19,80.0846,459,0.0,0,0,0,0,0,0,0,0,-202652435,-402631111,32,459,10,80,194,113
538,269500,14,53,19,0,11,53,20,29.5785,459,0.0,0,0,0,0,0,0,0,0,-202652435,-402631111,32,459,10,80,197,104
539,270000,14,53,20,0,11,53,20,79.469,424,0.0,0,0,0,0,0,0,0,0,-202652397,-402630996,32,424,10,80,192,180
540,270500,14,53,20,0,11,53,21,30.7019,424,0.0,0,0,0,0,0,0,0,0,-202652397,-402630996,32,424,10,80,196,171
541,271000,14,53,21,0,11,53,21,80.6712,318,0.0,0,0,0,0,0,0,0,0,-202652359,-402630920,37,318,10,80,198,70
542,271500,14,53,21,0,11,53,22,30.5412,318,0.0,0,0,0,0,0,0,0,0,-202652359,-402630920,37,318,10,80,199,61
543,272000,14,53,22,0,11,53,22,80.8369,342,0.0,0,0,0,0,0,0,0,0,-202652301,-402630844,39,342,10,80,198,238
544,272500,14,53,22,0,11,53,23,29.8889,342,0.0,0,0,0,0,0,0,0,0,-202652301,-402630844,39,342,10,80,195,229
545,273000,14,53,23,0,11,53,23,79.565,342,0.0,0,0,0,0,0,0,0,0,-202652282,-402630767,40,342,10,80,195,62
546,273500,14,53,23,0,11,53,24,30.5756,342,0.0,0,0,0,0,0,0,0,0,-202652282,-402630767,40,342,10,80,193,53
547,274000,14,53,24,0,11,53,24,80.202,455,0.0,0,0,0,0,0,0,0,0,-202652244,-402630653,40,455,10,80,193,168
548,274500,14,53,24,0,11,53,25,30.7656,455,0.0,0,0,0,0,0,0,0,0,-202652244,-402630653,40,455,10,80,195,159
549,275000,14,53,25,0,11,53,25,80.6106,509,0.0,0,0,0,0,0,0,0,0,-202652206,-402630538,43,509,10,80,198,159
550,275500,14,53,25,0,11,53,26,29.4209,509,0.0,0,0,0,0,0,0,0,0,-202652206,-402630538,43,509,10,80,198,150
551,276000,14,53,26,0,11,53,26,80.5162,525,0.0,0,0,0,0,0,0,0,0,-202652168,-402630386,45,525,10,80,198,113
552,276500,14,53,26,0,11,53,27,30.0695,525,0.0,0,0,0,0,0,0,0,0,-202652168,-402630386,45,525,10,80,198,104
553,277000,14,53,27,0,11,53,27,80.3779,511,0.0,0,0,0,0,0,0,0,0,-202652111,-402630271,46,511,10,80,192,240
554,277500,14,53,27,0,11,53,28,29.5144,511,0.0,0,0,0,0,0,0,0,0,-202652111,-402630271,46,511,10,80,191,230
555,278000,14,53,28,0,11,53,28,79.9972,403,0.0,0,0,0,0,0,0,0,0,-202652053,-402630157,51,403,10,80,194,183
556,278500,14,53,28,0,11,53,29,30.1994,403,0.0,0,0,0,0,0,0,0,0,-202652053,-402630157,51,403,10,80,185,174
557,279000,14,53,29,0,11,53,29,80.6148,348,0.0,0,0,0,0,0,0,0,0,-202652015,-402630043,51,348,10,80,190,209
558,279500,14,53,29,0,11,53,30,29.7421,348,0.0,0,0,0,0,0,0,0,0,-202652015,-402630043,51,348,10,80,187,200
559,280000,14,53,30,0,11,53,30,79.7527,307,0.0,0,0,0,0,0,0,0,0,-202651996,-402629966,54,307,10,80,183,209
560,280500,14,53,30,0,11,53,31,30.4778,307,0.0,0,0,0,0,0,0,0,0,-202651996,-402629966,54,307,10,80,191,200
561,281000,14,53,31,0,11,53,31,79.9075,266,0.0,0,0,0,0,0,0,0,0,-202651977,-402629890,51,266,10,80,196,202
562,281500,14,53,31,0,11,53,32,29.6305,266,0.0,0,0,0,0,0,0,0,0,-202651977,-402629890,51,266,10,80,197,193
563,282000,14,53,32,0,11,53,32,80.4641,364,0.0,0,0,0,0,0,0,0,0,-202651901,-402629814,50,364,10,80,196,22
564,282500,14,53,32,0,11,53,33,30.0701,364,0.0,0,0,0,0,0,0,0,0,-202651901,-402629814,50,364,10,80,195,13
565,283000,14,53,33,0,11,53,33,80.5659,416,0.0,0,0,0,0,0,0,0,0,-202651844,-402629737,45,416,10,80,195,238
566,283500,14,53,33,0,11,53,34,30.8452,416,0.0,0,0,0,0,0,0,0,0,-202651844,-402629737,45,416,10,80,193,229
567,284000,14,53,34,0,11,53,34,80.808,535,0.0,0,0,0,0,0,0,0,0,-202651786,-402629623,43,535,10,80,196,120
