PACKAGE,ELAPSED_TIME,HOUR_GPS,MIN_GPS,SEC_GPS,CENT_GPS,HOUR_PC,MIN_PC,SEC_PC,CENT_PC,VEL_RODA,ROTACAO,TEMP,FLUIDO,AX,AY,AZ,ROLL,PITCH,HEADING,LAT,LON,ALT,VEL_GPS,SAT,HDOP,RSSI,CHECKSUM
0,500,20,15,53,30,17,15,54,34.8304,0,0.0,0,0,0,0,0,0,0,0,0,0,0,0,0,15,188,124
1,1000,20,15,54,0,17,15,54,84.8305,0,0.0,0,0,0,0,0,0,0,0,0,0,0,0,0,15,187,86
2,1500,20,15,54,0,17,15,55,34.8311,0,0.0,0,0,0,0,0,0,0,0,0,0,0,0,0,15,193,77
3,2000,20,15,55,0,17,15,55,84.8306,0,0.0,0,0,0,0,0,0,0,0,0,0,0,0,0,15,195,69
4,2500,20,15,55,0,17,15,56,33.775,0,0.0,0,0,0,0,0,0,0,0,0,0,0,0,0,15,174,60
5,3000,20,15,56,0,17,15,56,83.7755,0,0.0,0,0,0,0,0,0,0,0,0,0,0,0,5,21,195,63
6,3500,20,15,56,0,17,15,57,33.7745,0,0.0,0,0,0,0,0,0,0,0,0,0,0,0,5,21,196,54
7,4000,20,15,57,0,17,15,57,83.7743,638,0.0,0,0,0,0,0,0,0,0,-202398090,-402807540,128,638,11,136,194,186
8,4500,20,15,57,0,17,15,58,33.7744,638,0.0,0,0,0,0,0,0,0,0,-202398090,-402807540,128,638,11,136,196,177
9,5000,20,15,58,0,17,15,58,84.3451,2344,0.0,0,0,0,0,0,0,0,0,-202397937,-402806930,165,2344,10,135,182,44
10,5500,20,15,58,0,17,15,59,33.7721,2344,0.0,0,0,0,0,0,0,0,0,-202397937,-402806930,165,2344,10,135,198,35
11,6000,20,15,59,0,17,15,59,83.7724,966,0.0,0,0,0,0,0,0,0,0,-202398014,-402807083,187,966,8,107,191,91
12,6500,20,15,59,0,17,16,0,34.9297,966,0.0,0,0,0,0,0,0,0,0,-202398014,-402807083,187,966,8,107,184,82
13,7000,20,16,0,0,17,16,0,84.9327,433,0.0,0,0,0,0,0,0,0,0,-202398109,-402807350,153,433,8,107,185,84
14,7500,20,16,0,0,17,16,1,35.1045,433,0.0,0,0,0,0,0,0,0,0,-202398109,-402807350,153,433,8,107,190,75
15,8000,20,16,1,0,17,16,1,83.5417,325,0.0,0,0,0,0,0,0,0,0,-202398128,-402807426,158,325,8,107,194,17
16,8500,20,16,1,0,17,16,2,33.4806,325,0.0,0,0,0,0,0,0,0,0,-202398128,-402807426,158,325,8,107,181,8
17,9000,20,16,2,0,17,16,2,85.0432,325,0.0,0,0,0,0,0,0,0,0,-202398014,-402807312,130,325,8,107,177,200
18,9500,20,16,2,0,17,16,3,33.874,325,0.0,0,0,0,0,0,0,0,0,-202398014,-402807312,130,325,8,107,183,191
19,10000,20,16,3,0,17,16,3,83.8717,305,0.0,0,0,0,0,0,0,0,0,-202397994,-402807273,110,305,8,107,189,183
20,10500,20,16,3,0,17,16,4,33.8714,305,0.0,0,0,0,0,0,0,0,0,-202397994,-402807273,110,305,8,107,182,174
21,11000,20,16,4,0,17,16,4,83.8719,122,0.0,0,0,0,0,0,0,0,0,-202397975,-402807235,108,122,9,107,177,109
22,11500,20,16,4,0,17,16,5,33.8715,122,0.0,0,0,0,0,0,0,0,0,-202397975,-402807235,108,122,9,107,175,100
23,12000,20,16,5,0,17,16,5,84.2816,114,0.0,0,0,0,0,0,0,0,0,-202397956,-402807197,103,114,8,107,174,127
24,12500,20,16,5,0,17,16,6,34.281,114,0.0,0,0,0,0,0,0,0,0,-202397956,-402807197,103,114,8,107,176,118
25,13000,20,16,6,0,17,16,6,84.2813,105,0.0,0,0,0,0,0,0,0,0,-202397975,-402807159,96,105,8,107,177,104
26,13500,20,16,6,0,17,16,7,34.2825,105,0.0,0,0,0,0,0,0,0,0,-202397975,-402807159,96,105,8,107,172,95
27,14000,20,16,7,0,17,16,7,83.7972,53,0.0,0,0,0,0,0,0,0,0,-202397975,-402807197,88,53,8,107,177,193
28,14500,20,16,7,0,17,16,8,34.1878,53,0.0,0,0,0,0,0,0,0,0,-202397975,-402807197,88,53,8,107,179,184
29,15000,20,16,8,0,17,16,8,84.1879,16,0.0,0,0,0,0,0,0,0,0,-202397994,-402807197,81,16,10,107,178,78
30,15500,20,16,8,0,17,16,9,34.2353,16,0.0,0,0,0,0,0,0,0,0,-202397994,-402807197,81,16,10,107,174,69
31,16000,20,16,9,0,17,16,9,84.2349,68,0.0,0,0,0,0,0,0,0,0,-202398014,-402807235,73,68,10,107,169,99
32,16500,20,16,9,0,17,16,10,34.0103,68,0.0,0,0,0,0,0,0,0,0,-202398014,-402807235,73,68,10,107,174,90
33,17000,20,16,10,0,17,16,10,84.0102,50,0.0,0,0,0,0,0,0,0,0,-202398014,-402807273,65,50,10,107,175,0
34,17500,20,16,10,0,17,16,11,34.0102,50,0.0,0,0,0,0,0,0,0,0,-202398014,-402807273,65,50,10,107,174,247
35,18000,20,16,11,0,17,16,11,84.0097,3,0.0,0,0,0,0,0,0,0,0,-202398014,-402807273,60,3,10,90,172,123
36,18500,20,16,11,0,17,16,12,34.0102,3,0.0,0,0,0,0,0,0,0,0,-202398014,-402807273,60,3,10,90,165,114
37,19000,20,16,12,0,17,16,12,83.8725,5,0.0,0,0,0,0,0,0,0,0,-202397994,-402807273,58,5,10,90,176,128
38,19500,20,16,12,0,17,16,13,33.8723,5,0.0,0,0,0,0,0,0,0,0,-202397994,-402807273,58,5,10,90,169,119
39,20000,20,16,13,0,17,16,13,83.8725,20,0.0,0,0,0,0,0,0,0,0,-202397975,-402807273,58,20,10,90,179,160
40,20500,20,16,13,0,17,16,14,33.8731,20,0.0,0,0,0,0,0,0,0,0,-202397975,-402807273,58,20,10,90,189,151
41,21000,20,16,14,0,17,16,14,84.3592,66,0.0,0,0,0,0,0,0,0,0,-202397975,-402807235,56,66,10,90,186,15
42,21500,20,16,14,0,17,16,15,34.3593,66,0.0,0,0,0,0,0,0,0,0,-202397975,-402807235,56,66,10,90,185,5
43,22000,20,16,15,0,17,16,15,84.3607,72,0.0,0,0,0,0,0,0,0,0,-202397956,-402807159,64,72,10,78,188,100
44,22500,20,16,15,0,17,16,16,34.3593,72,0.0,0,0,0,0,0,0,0,0,-202397956,-402807159,64,72,10,78,176,91
45,23000,20,16,16,0,17,16,16,84.3605,142,0.0,0,0,0,0,0,0,0,0,-202397975,-402807121,65,142,10,90,185,255
46,23500,20,16,16,0,17,16,17,34.2886,142,0.0,0,0,0,0,0,0,0,0,-202397975,-402807121,65,142,10,90,189,246
47,24000,20,16,17,0,17,16,17,84.2877,212,0.0,0,0,0,0,0,0,0,0,-202398033,-402807121,65,212,10,90,180,64
48,24500,20,16,17,0,17,16,18,34.2879,212,0.0,0,0,0,0,0,0,0,0,-202398033,-402807121,65,212,10,90,177,55
49,25000,20,16,18,0,17,16,18,84.2894,422,0.0,0,0,0,0,0,0,0,0,-202398109,-402807121,63,422,11,90,183,136
50,25500,20,16,18,0,17,16,19,35.0461,422,0.0,0,0,0,0,0,0,0,0,-202398109,-402807121,63,422,11,90,186,127
51,26000,20,16,19,0,17,16,19,84.1429,568,0.0,0,0,0,0,0,0,0,0,-202398242,-402807083,60,568,10,90,193,57
52,26500,20,16,19,0,17,16,20,34.1424,568,0.0,0,0,0,0,0,0,0,0,-202398242,-402807083,60,568,10,90,190,48
53,27000,20,16,20,0,17,16,20,84.1432,707,0.0,0,0,0,0,0,0,0,0,-202398414,-402807083,59,707,11,90,189,146
54,27500,20,16,20,0,17,16,21,34.1424,707,0.0,0,0,0,0,0,0,0,0,-202398414,-402807083,59,707,11,90,185,137
55,28000,20,16,21,0,17,16,21,84.6732,792,0.0,0,0,0,0,0,0,0,0,-202398605,-402807121,53,792,11,90,184,65
56,28500,20,16,21,0,17,16,22,34.673,792,0.0,0,0,0,0,0,0,0,0,-202398605,-402807121,53,792,11,90,174,56
57,29000,20,16,22,0,17,16,22,85.0213,709,0.0,0,0,0,0,0,0,0,0,-202398796,-402807121,50,709,10,90,190,196
58,29500,20,16,22,0,17,16,23,35.0213,709,0.0,0,0,0,0,0,0,0,0,-202398796,-402807121,50,709,10,90,181,187
59,30000,20,16,23,0,17,16,23,85.0212,544,0.0,0,0,0,0,0,0,0,0,-202398929,-402807121,48,544,11,78,188,215
60,30500,20,16,23,0,17,16,24,34.9156,544,0.0,0,0,0,0,0,0,0,0,-202398929,-402807121,48,544,11,78,184,206
61,31000,20,16,24,0,17,16,24,84.9157,479,0.0,0,0,0,0,0,0,0,0,-202399044,-402807083,50,479,11,78,176,246
62,31500,20,16,24,0,17,16,25,34.202,479,0.0,0,0,0,0,0,0,0,0,-202399044,-402807083,50,479,11,78,185,237
63,32000,20,16,25,0,17,16,25,84.2015,546,0.0,0,0,0,0,0,0,0,0,-202399158,-402807044,50,546,11,78,174,34
64,32500,20,16,25,0,17,16,26,33.7604,546,0.0,0,0,0,0,0,0,0,0,-202399158,-402807044,50,546,11,78,180,24
65,33000,20,16,26,0,17,16,26,84.1352,868,0.0,0,0,0,0,0,0,0,0,-202399311,-402806930,53,868,11,78,184,114
66,33500,20,16,26,0,17,16,27,34.135,868,0.0,0,0,0,0,0,0,0,0,-202399311,-402806930,53,868,11,78,180,105
67,34000,20,16,27,0,17,16,27,84.1351,1051,0.0,0,0,0,0,0,0,0,0,-202399559,-402806892,54,1051,11,78,184,255
68,34500,20,16,27,0,17,16,28,34.1366,1051,0.0,0,0,0,0,0,0,0,0,-202399559,-402806892,54,1051,11,78,181,246
69,35000,20,16,28,0,17,16,28,84.194,1124,0.0,0,0,0,0,0,0,0,0,-202399826,-402806816,51,1124,11,78,183,189
70,35500,20,16,28,0,17,16,29,34.2537,1124,0.0,0,0,0,0,0,0,0,0,-202399826,-402806816,51,1124,11,78,180,180
71,36000,20,16,29,0,17,16,29,84.2529,1383,0.0,0,0,0,0,0,0,0,0,-202400131,-402806739,53,1383,11,78,171,210
72,36500,20,16,29,0,17,16,30,34.2528,1383,0.0,0,0,0,0,0,0,0,0,-202400131,-402806739,53,1383,11,78,182,201
73,37000,20,16,30,0,17,16,30,84.2528,1868,0.0,0,0,0,0,0,0,0,0,-202400569,-402806701,54,1868,11,78,169,254
74,37500,20,16,30,0,17,16,31,33.8483,1868,0.0,0,0,0,0,0,0,0,0,-202400569,-402806701,54,1868,11,78,163,245
75,38000,20,16,31,0,17,16,31,83.8482,1833,0.0,0,0,0,0,0,0,0,0,-202401027,-402806663,55,1833,11,78,178,2
76,38500,20,16,31,0,17,16,32,33.8479,1833,0.0,0,0,0,0,0,0,0,0,-202401027,-402806663,55,1833,11,78,180,249
77,39000,20,16,32,0,17,16,32,83.8485,1800,0.0,0,0,0,0,0,0,0,0,-202401466,-402806663,56,1800,11,72,176,242
78,39500,20,16,32,0,17,16,33,33.8245,1800,0.0,0,0,0,0,0,0,0,0,-202401466,-402806663,56,1800,11,72,182,233
79,40000,20,16,33,0,17,16,33,83.8285,2222,0.0,0,0,0,0,0,0,0,0,-202402019,-402806625,60,2222,11,72,177,46
80,40500,20,16,33,0,17,16,34,33.8275,2222,0.0,0,0,0,0,0,0,0,0,-202402019,-402806625,60,2222,11,72,189,37
81,41000,20,16,34,0,17,16,34,83.8285,2761,0.0,0,0,0,0,0,0,0,0,-202402667,-402806625,61,2761,10,78,167,210
82,41500,20,16,34,0,17,16,35,34.3853,2761,0.0,0,0,0,0,0,0,0,0,-202402667,-402806625,61,2761,10,78,178,201
83,42000,20,16,35,0,17,16,35,84.3166,3028,0.0,0,0,0,0,0,0,0,0,-202403430,-402806587,63,3028,11,78,171,4
84,42500,20,16,35,0,17,16,36,34.3166,3028,0.0,0,0,0,0,0,0,0,0,-202403430,-402806587,63,3028,11,78,168,251
85,43000,20,16,36,0,17,16,36,84.3169,3005,0.0,0,0,0,0,0,0,0,0,-202404193,-402806587,65,3005,10,78,165,199
86,43500,20,16,36,0,17,16,37,34.0684,3005,0.0,0,0,0,0,0,0,0,0,-202404193,-402806587,65,3005,10,78,166,190
87,44000,20,16,37,0,17,16,37,85.088,2968,0.0,0,0,0,0,0,0,0,0,-202404937,-402806549,65,2968,10,90,163,179
89,45000,20,16,38,0,17,16,38,84.7932,3209,0.0,0,0,0,0,0,0,0,0,-202405738,-402806472,66,3209,11,90,172,178
90,45500,20,16,38,0,17,16,39,34.7927,3209,0.0,0,0,0,0,0,0,0,0,-202405738,-402806472,66,3209,11,90,172,169
91,46000,20,16,39,0,17,16,39,84.7946,3450,0.0,0,0,0,0,0,0,0,0,-202406578,-402806320,65,3450,9,90,168,207
92,46500,20,16,39,0,17,16,40,34.9176,3450,0.0,0,0,0,0,0,0,0,0,-202406578,-402806320,65,3450,9,90,173,198
93,47000,20,16,40,0,17,16,40,84.9174,3966,0.0,0,0,0,0,0,0,0,0,-202407531,-402806129,61,3966,10,90,174,202
94,47500,20,16,40,0,17,16,41,34.9174,3966,0.0,0,0,0,0,0,0,0,0,-202407531,-402806129,61,3966,10,90,175,193
95,48000,20,16,41,0,17,16,41,84.9171,3831,0.0,0,0,0,0,0,0,0,0,-202408466,-402805862,64,3831,10,90,173,13
96,48500,20,16,41,0,17,16,42,34.9174,3831,0.0,0,0,0,0,0,0,0,0,-202408466,-402805862,64,3831,10,90,167,4
97,49000,20,16,42,0,17,16,42,84.1995,3735,0.0,0,0,0,0,0,0,0,0,-202409381,-402805557,65,3735,10,78,164,205
98,49500,20,16,42,0,17,16,43,34.1991,3735,0.0,0,0,0,0,0,0,0,0,-202409381,-402805557,65,3735,10,78,170,196
99,50000,20,16,43,0,17,16,43,84.2001,3718,0.0,0,0,0,0,0,0,0,0,-202410297,-402805290,70,3718,10,78,173,19
100,50500,20,16,43,0,17,16,44,34.2003,3718,0.0,0,0,0,0,0,0,0,0,-202410297,-402805290,70,3718,10,78,172,10
101,51000,20,16,44,0,17,16,44,85.0065,3689,0.0,0,0,0,0,0,0,0,0,-202411193,-402805023,75,3689,10,78,174,86
102,51500,20,16,44,0,17,16,45,34.6641,3689,0.0,0,0,0,0,0,0,0,0,-202411193,-402805023,75,3689,10,78,180,77
103,52000,20,16,45,0,17,16,45,84.6641,3728,0.0,0,0,0,0,0,0,0,0,-202412109,-402804794,83,3728,10,78,179,233
104,52500,20,16,45,0,17,16,46,34.6645,3728,0.0,0,0,0,0,0,0,0,0,-202412109,-402804794,83,3728,10,78,179,224
105,53000,20,16,46,0,17,16,46,84.6645,3679,0.0,0,0,0,0,0,0,0,0,-202413043,-402804718,86,3679,11,78,174,30
106,53500,20,16,46,0,17,16,47,35.1605,3679,0.0,0,0,0,0,0,0,0,0,-202413043,-402804718,86,3679,11,78,174,20
107,54000,20,16,47,0,17,16,47,85.1607,3718,0.0,0,0,0,0,0,0,0,0,-202413978,-402804794,86,3718,11,78,179,98
108,54500,20,16,47,0,17,16,48,35.1612,3718,0.0,0,0,0,0,0,0,0,0,-202413978,-402804794,86,3718,11,78,188,89
109,55000,20,16,48,0,17,16,48,84.3545,3844,0.0,0,0,0,0,0,0,0,0,-202414894,-402805061,86,3844,10,78,190,170
110,55500,20,16,48,0,17,16,49,34.3527,3844,0.0,0,0,0,0,0,0,0,0,-202414894,-402805061,86,3844,10,78,184,161
111,56000,20,16,49,0,17,16,49,84.4272,4187,0.0,0,0,0,0,0,0,0,0,-202415809,-402805595,86,4187,11,78,185,156
112,56500,20,16,49,0,17,16,50,34.4277,4187,0.0,0,0,0,0,0,0,0,0,-202415809,-402805595,86,4187,11,78,187,147
113,57000,20,16,50,0,17,16,50,84.4279,4504,0.0,0,0,0,0,0,0,0,0,-202416801,-402806167,86,4504,11,78,183,229
114,57500,20,16,50,0,17,16,51,34.4273,4504,0.0,0,0,0,0,0,0,0,0,-202416801,-402806167,86,4504,11,78,184,220
115,58000,20,16,51,0,17,16,51,85.2009,4859,0.0,0,0,0,0,0,0,0,0,-202417869,-402806777,81,4859,11,93,187,18
116,58500,20,16,51,0,17,16,52,33.9443,4859,0.0,0,0,0,0,0,0,0,0,-202417869,-402806777,81,4859,11,93,184,9
117,59000,20,16,52,0,17,16,52,83.9276,5065,0.0,0,0,0,0,0,0,0,0,-202418975,-402807464,78,5065,10,103,184,156
118,59500,20,16,52,0,17,16,53,33.9273,5065,0.0,0,0,0,0,0,0,0,0,-202418975,-402807464,78,5065,10,103,182,147
119,60000,20,16,53,0,17,16,53,85.1377,5041,0.0,0,0,0,0,0,0,0,0,-202420063,-402808151,79,5041,11,78,182,78
120,60500,20,16,53,0,17,16,54,34.271,5041,0.0,0,0,0,0,0,0,0,0,-202420063,-402808151,79,5041,11,78,178,69
121,61000,20,16,54,0,17,16,54,84.271,5163,0.0,0,0,0,0,0,0,0,0,-202421188,-402808837,80,5163,11,72,182,20
122,61500,20,16,54,0,17,16,55,34.5357,5163,0.0,0,0,0,0,0,0,0,0,-202421188,-402808837,80,5163,11,72,182,11
123,62000,20,16,55,0,17,16,55,84.5344,5307,0.0,0,0,0,0,0,0,0,0,-202422313,-402809562,81,5307,11,72,179,227
124,62500,20,16,55,0,17,16,56,34.5348,5307,0.0,0,0,0,0,0,0,0,0,-202422313,-402809562,81,5307,11,72,180,218
125,63000,20,16,56,0,17,16,56,84.2612,5424,0.0,0,0,0,0,0,0,0,0,-202423458,-402810325,83,5424,11,72,179,69
126,63500,20,16,56,0,17,16,57,34.2613,5424,0.0,0,0,0,0,0,0,0,0,-202423458,-402810325,83,5424,11,72,177,60
127,64000,20,16,57,0,17,16,57,84.2612,5559,0.0,0,0,0,0,0,0,0,0,-202424659,-402811050,86,5559,11,72,179,183
128,64500,20,16,57,0,17,16,58,34.2612,5559,0.0,0,0,0,0,0,0,0,0,-202424659,-402811050,86,5559,11,72,178,173
129,65000,20,16,58,0,17,16,58,84.2513,5700,0.0,0,0,0,0,0,0,0,0,-202425880,-402811813,88,5700,11,73,180,252
130,65500,20,16,58,0,17,16,59,34.2109,5700,0.0,0,0,0,0,0,0,0,0,-202425880,-402811813,88,5700,11,73,182,243
131,66000,20,16,59,0,17,16,59,84.2087,5754,0.0,0,0,0,0,0,0,0,0,-202427101,-402812614,88,5754,11,72,181,106
132,66500,20,16,59,0,17,17,0,34.6932,5754,0.0,0,0,0,0,0,0,0,0,-202427101,-402812614,88,5754,11,72,180,97
133,67000,20,17,0,0,17,17,0,84.6934,5843,0.0,0,0,0,0,0,0,0,0,-202428359,-402813415,90,5843,11,72,180,191
134,67500,20,17,0,0,17,17,1,34.6695,5843,0.0,0,0,0,0,0,0,0,0,-202428359,-402813415,90,5843,11,72,181,182
135,68000,20,17,1,0,17,17,1,84.6691,5954,0.0,0,0,0,0,0,0,0,0,-202429618,-402814216,90,5954,11,72,180,121
136,68500,20,17,1,0,17,17,2,34.6696,5954,0.0,0,0,0,0,0,0,0,0,-202429618,-402814216,90,5954,11,72,181,112
137,69000,20,17,2,0,17,17,2,84.6704,6076,0.0,0,0,0,0,0,0,0,0,-202430915,-402815055,88,6076,11,72,181,250
138,69500,20,17,2,0,17,17,3,35.2832,6076,0.0,0,0,0,0,0,0,0,0,-202430915,-402815055,88,6076,11,72,179,241
139,70000,20,17,3,0,17,17,3,84.9451,5991,0.0,0,0,0,0,0,0,0,0,-202432193,-402815895,88,5991,11,72,180,241
140,70500,20,17,3,0,17,17,4,34.9425,5991,0.0,0,0,0,0,0,0,0,0,-202432193,-402815895,88,5991,11,72,180,232
141,71000,20,17,4,0,17,17,4,84.9427,5950,0.0,0,0,0,0,0,0,0,0,-202433471,-402816696,88,5950,11,72,180,103
142,71500,20,17,4,0,17,17,5,34.7595,5950,0.0,0,0,0,0,0,0,0,0,-202433471,-402816696,88,5950,11,72,180,94
143,72000,20,17,5,0,17,17,5,85.149,5952,0.0,0,0,0,0,0,0,0,0,-202434749,-402817535,88,5952,11,72,179,13
144,72500,20,17,5,0,17,17,6,35.1497,5952,0.0,0,0,0,0,0,0,0,0,-202434749,-402817535,88,5952,11,72,181,4
145,73000,20,17,6,0,17,17,6,85.1495,5994,0.0,0,0,0,0,0,0,0,0,-202436027,-402818374,90,5994,11,72,181,4
146,73500,20,17,6,0,17,17,7,35.1492,5994,0.0,0,0,0,0,0,0,0,0,-202436027,-402818374,90,5994,11,72,179,251
147,74000,20,17,7,0,17,17,7,83.7554,6020,0.0,0,0,0,0,0,0,0,0,-202437305,-402819213,90,6020,11,72,178,218
148,74500,20,17,7,0,17,17,8,34.8352,6020,0.0,0,0,0,0,0,0,0,0,-202437305,-402819213,90,6020,11,72,178,209
149,75000,20,17,8,0,17,17,8,84.8337,6039,0.0,0,0,0,0,0,0,0,0,-202438583,-402820053,90,6039,11,72,178,160
150,75500,20,17,8,0,17,17,9,34.8342,6039,0.0,0,0,0,0,0,0,0,0,-202438583,-402820053,90,6039,11,72,179,151
151,76000,20,17,9,0,17,17,9,84.8338,6085,0.0,0,0,0,0,0,0,0,0,-202439861,-402820892,88,6085,11,72,178,155
152,76500,20,17,9,0,17,17,10,35.2743,6085,0.0,0,0,0,0,0,0,0,0,-202439861,-402820892,88,6085,11,72,178,146
153,77000,20,17,10,0,17,17,10,84.0535,6104,0.0,0,0,0,0,0,0,0,0,-202441158,-402821769,86,6104,11,72,177,39
154,77500,20,17,10,0,17,17,11,34.0535,6104,0.0,0,0,0,0,0,0,0,0,-202441158,-402821769,86,6104,11,72,179,30
155,78000,20,17,11,0,17,17,11,84.0538,6156,0.0,0,0,0,0,0,0,0,0,-202442455,-402822608,86,6156,11,72,178,32
156,78500,20,17,11,0,17,17,12,34.0543,6156,0.0,0,0,0,0,0,0,0,0,-202442455,-402822608,86,6156,11,72,178,23
157,79000,20,17,12,0,17,17,12,84.8097,6181,0.0,0,0,0,0,0,0,0,0,-202443771,-402823486,88,6181,11,72,179,168
158,79500,20,17,12,0,17,17,13,34.8101,6181,0.0,0,0,0,0,0,0,0,0,-202443771,-402823486,88,6181,11,72,178,159
159,80000,20,17,13,0,17,17,13,84.81,6193,0.0,0,0,0,0,0,0,0,0,-202445087,-402824363,88,6193,11,72,179,21
160,80500,20,17,13,0,17,17,14,34.7907,6193,0.0,0,0,0,0,0,0,0,0,-202445087,-402824363,88,6193,11,72,177,12
161,81000,20,17,14,0,17,17,14,84.79,6235,0.0,0,0,0,0,0,0,0,0,-202446422,-402825241,86,6235,11,75,175,171
162,81500,20,17,14,0,17,17,15,34.8797,6235,0.0,0,0,0,0,0,0,0,0,-202446422,-402825241,86,6235,11,75,175,162
163,82000,20,17,15,0,17,17,15,84.8797,6215,0.0,0,0,0,0,0,0,0,0,-202447738,-402826080,86,6215,10,75,175,254
164,82500,20,17,15,0,17,17,16,34.88,6215,0.0,0,0,0,0,0,0,0,0,-202447738,-402826080,86,6215,10,75,176,245
165,83000,20,17,16,0,17,17,16,84.8798,6135,0.0,0,0,0,0,0,0,0,0,-202449035,-402826957,85,6135,11,75,174,197
166,83500,20,17,16,0,17,17,17,34.9246,6135,0.0,0,0,0,0,0,0,0,0,-202449035,-402826957,85,6135,11,75,175,188
167,84000,20,17,17,0,17,17,17,85.233,6061,0.0,0,0,0,0,0,0,0,0,-202450332,-402827835,85,6061,11,72,174,149
168,84500,20,17,17,0,17,17,18,35.2336,6061,0.0,0,0,0,0,0,0,0,0,-202450332,-402827835,85,6061,11,72,174,140
169,85000,20,17,18,0,17,17,18,85.234,5991,0.0,0,0,0,0,0,0,0,0,-202451610,-402828674,81,5991,11,72,175,167
170,85500,20,17,18,0,17,17,19,35.2336,5991,0.0,0,0,0,0,0,0,0,0,-202451610,-402828674,81,5991,11,72,173,157
171,86000,20,17,19,0,17,17,19,83.8515,5846,0.0,0,0,0,0,0,0,0,0,-202452869,-402829475,81,5846,11,72,173,93
172,86500,20,17,19,0,17,17,20,33.8511,5846,0.0,0,0,0,0,0,0,0,0,-202452869,-402829475,81,5846,11,72,173,84
173,87000,20,17,20,0,17,17,20,83.8512,5724,0.0,0,0,0,0,0,0,0,0,-202454090,-402830276,80,5724,11,72,173,105
174,87500,20,17,20,0,17,17,21,33.8516,5724,0.0,0,0,0,0,0,0,0,0,-202454090,-402830276,80,5724,11,72,174,96
175,88000,20,17,21,0,17,17,21,83.8511,5559,0.0,0,0,0,0,0,0,0,0,-202455272,-402831077,78,5559,11,72,173,68
176,88500,20,17,21,0,17,17,22,34.2892,5559,0.0,0,0,0,0,0,0,0,0,-202455272,-402831077,78,5559,11,72,174,59
177,89000,20,17,22,0,17,17,22,84.2639,5418,0.0,0,0,0,0,0,0,0,0,-202456436,-402831840,78,5418,11,72,174,138
178,89500,20,17,22,0,17,17,23,34.265,5418,0.0,0,0,0,0,0,0,0,0,-202456436,-402831840,78,5418,11,72,173,129
179,90000,20,17,23,0,17,17,23,84.2636,5278,0.0,0,0,0,0,0,0,0,0,-202457561,-402832603,78,5278,11,75,176,251
180,90500,20,17,23,0,17,17,24,34.5279,5278,0.0,0,0,0,0,0,0,0,0,-202457561,-402832603,78,5278,11,75,176,242
181,91000,20,17,24,0,17,17,24,84.5279,5183,0.0,0,0,0,0,0,0,0,0,-202458667,-402833328,79,5183,10,75,172,253
182,91500,20,17,24,0,17,17,25,34.5295,5183,0.0,0,0,0,0,0,0,0,0,-202458667,-402833328,79,5183,10,75,173,244
183,92000,20,17,25,0,17,17,25,84.5284,5174,0.0,0,0,0,0,0,0,0,0,-202459774,-402834053,78,5174,11,75,173,171
184,92500,20,17,25,0,17,17,26,34.5285,5174,0.0,0,0,0,0,0,0,0,0,-202459774,-402834053,78,5174,11,75,172,162
185,93000,20,17,26,0,17,17,26,85.267,5133,0.0,0,0,0,0,0,0,0,0,-202460880,-402834777,76,5133,11,75,170,25
186,93500,20,17,26,0,17,17,27,35.2669,5133,0.0,0,0,0,0,0,0,0,0,-202460880,-402834777,76,5133,11,75,172,16
187,94000,20,17,27,0,17,17,27,85.2674,5087,0.0,0,0,0,0,0,0,0,0,-202461967,-402835502,75,5087,11,72,170,138
188,94500,20,17,27,0,17,17,28,34.2622,5087,0.0,0,0,0,0,0,0,0,0,-202461967,-402835502,75,5087,11,72,170,129
189,95000,20,17,28,0,17,17,28,84.3651,5041,0.0,0,0,0,0,0,0,0,0,-202463035,-402836189,75,5041,11,72,170,60
190,95500,20,17,28,0,17,17,29,34.3039,5041,0.0,0,0,0,0,0,0,0,0,-202463035,-402836189,75,5041,11,72,171,51
191,96000,20,17,29,0,17,17,29,84.3035,5020,0.0,0,0,0,0,0,0,0,0,-202464103,-402836875,75,5020,11,72,171,32
192,96500,20,17,29,0,17,17,30,34.6517,5020,0.0,0,0,0,0,0,0,0,0,-202464103,-402836875,75,5020,11,72,173,22
193,97000,20,17,30,0,17,17,30,84.652,5000,0.0,0,0,0,0,0,0,0,0,-202465171,-402837600,71,5000,10,89,171,234
194,97500,20,17,30,0,17,17,31,34.4013,5000,0.0,0,0,0,0,0,0,0,0,-202465171,-402837600,71,5000,10,89,173,225
195,98000,20,17,31,0,17,17,31,84.4005,4963,0.0,0,0,0,0,0,0,0,0,-202466220,-402838287,71,4963,10,78,173,181
196,98500,20,17,31,0,17,17,32,34.4004,4963,0.0,0,0,0,0,0,0,0,0,-202466220,-402838287,71,4963,10,78,172,172
197,99000,20,17,32,0,17,17,32,84.4009,4907,0.0,0,0,0,0,0,0,0,0,-202467269,-402838973,71,4907,10,89,172,114
198,99500,20,17,32,0,17,17,33,34.4002,4907,0.0,0,0,0,0,0,0,0,0,-202467269,-402838973,71,4907,10,89,170,105
199,100000,20,17,33,0,17,17,33,84.469,4863,0.0,0,0,0,0,0,0,0,0,-202468299,-402839660,70,4863,10,89,169,74
200,100500,20,17,33,0,17,17,34,34.4677,4863,0.0,0,0,0,0,0,0,0,0,-202468299,-402839660,70,4863,10,89,169,65
201,101000,20,17,34,0,17,17,34,85.194,4844,0.0,0,0,0,0,0,0,0,0,-202469329,-402840385,70,4844,9,83,172,42
202,101500,20,17,34,0,17,17,35,34.6828,4844,0.0,0,0,0,0,0,0,0,0,-202469329,-402840385,70,4844,9,83,170,33
203,102000,20,17,35,0,17,17,35,84.7807,4817,0.0,0,0,0,0,0,0,0,0,-202470359,-402841033,70,4817,10,83,168,80
204,102500,20,17,35,0,17,17,36,34.9313,4817,0.0,0,0,0,0,0,0,0,0,-202470359,-402841033,70,4817,10,83,163,71
205,103000,20,17,36,0,17,17,36,84.9307,4796,0.0,0,0,0,0,0,0,0,0,-202471370,-402841720,70,4796,10,78,170,103
206,103500,20,17,36,0,17,17,37,34.9308,4796,0.0,0,0,0,0,0,0,0,0,-202471370,-402841720,70,4796,10,78,170,94
207,104000,20,17,37,0,17,17,37,84.9189,4780,0.0,0,0,0,0,0,0,0,0,-202472400,-402842407,68,4780,10,78,170,120
208,104500,20,17,37,0,17,17,38,35.0906,4780,0.0,0,0,0,0,0,0,0,0,-202472400,-402842407,68,4780,10,78,168,111
209,105000,20,17,38,0,17,17,38,85.091,4763,0.0,0,0,0,0,0,0,0,0,-202473411,-402843055,66,4763,10,78,170,194
210,105500,20,17,38,0,17,17,39,35.0915,4763,0.0,0,0,0,0,0,0,0,0,-202473411,-402843055,66,4763,10,78,171,185
211,106000,20,17,39,0,17,17,39,85.0911,4752,0.0,0,0,0,0,0,0,0,0,-202474422,-402843704,68,4752,10,78,169,26
212,106500,20,17,39,0,17,17,40,34.7828,4752,0.0,0,0,0,0,0,0,0,0,-202474422,-402843704,68,4752,10,78,169,17
213,107000,20,17,40,0,17,17,40,84.7653,4802,0.0,0,0,0,0,0,0,0,0,-202475452,-402844390,68,4802,11,78,166,179
214,107500,20,17,40,0,17,17,41,34.7643,4802,0.0,0,0,0,0,0,0,0,0,-202475452,-402844390,68,4802,11,78,169,170
215,108000,20,17,41,0,17,17,41,84.7639,4830,0.0,0,0,0,0,0,0,0,0,-202476463,-402845039,66,4830,11,78,167,85
216,108500,20,17,41,0,17,17,42,34.7641,4830,0.0,0,0,0,0,0,0,0,0,-202476463,-402845039,66,4830,11,78,168,76
217,109000,20,17,42,0,17,17,42,84.7842,4824,0.0,0,0,0,0,0,0,0,0,-202477493,-402845726,66,4824,11,78,167,124
218,109500,20,17,42,0,17,17,43,34.7261,4824,0.0,0,0,0,0,0,0,0,0,-202477493,-402845726,66,4824,11,78,167,115
219,110000,20,17,43,0,17,17,43,84.7267,4791,0.0,0,0,0,0,0,0,0,0,-202478523,-402846412,68,4791,11,78,164,113
220,110500,20,17,43,0,17,17,44,34.6525,4791,0.0,0,0,0,0,0,0,0,0,-202478523,-402846412,68,4791,11,78,166,104
221,111000,20,17,44,0,17,17,44,84.6519,4813,0.0,0,0,0,0,0,0,0,0,-202479534,-402847099,61,4813,10,78,167,219
222,111500,20,17,44,0,17,17,45,34.9045,4813,0.0,0,0,0,0,0,0,0,0,-202479534,-402847099,61,4813,10,78,166,210
223,112000,20,17,45,0,17,17,45,84.9046,4842,0.0,0,0,0,0,0,0,0,0,-202480564,-402847785,60,4842,10,89,165,83
224,112500,20,17,45,0,17,17,46,34.9045,4842,0.0,0,0,0,0,0,0,0,0,-202480564,-402847785,60,4842,10,89,166,74
225,113000,20,17,46,0,17,17,46,84.9047,4855,0.0,0,0,0,0,0,0,0,0,-202481594,-402848472,59,4855,10,89,167,160
226,113500,20,17,46,0,17,17,47,35.3608,4855,0.0,0,0,0,0,0,0,0,0,-202481594,-402848472,59,4855,10,89,161,151
227,114000,20,17,47,0,17,17,47,84.6476,4868,0.0,0,0,0,0,0,0,0,0,-202482624,-402849121,59,4868,10,78,165,10
228,114500,20,17,47,0,17,17,48,34.6482,4868,0.0,0,0,0,0,0,0,0,0,-202482624,-402849121,59,4868,10,78,161,1
229,115000,20,17,48,0,17,17,48,84.6474,4915,0.0,0,0,0,0,0,0,0,0,-202483673,-402849807,59,4915,10,78,162,136
230,115500,20,17,48,0,17,17,49,34.6476,4915,0.0,0,0,0,0,0,0,0,0,-202483673,-402849807,59,4915,10,78,164,127
231,116000,20,17,49,0,17,17,49,85.0045,4933,0.0,0,0,0,0,0,0,0,0,-202484722,-402850494,59,4933,11,89,163,217
232,116500,20,17,49,0,17,17,50,35.0039,4933,0.0,0,0,0,0,0,0,0,0,-202484722,-402850494,59,4933,11,89,162,208
233,117000,20,17,50,0,17,17,50,85.0045,4972,0.0,0,0,0,0,0,0,0,0,-202485771,-402851219,56,4972,11,89,169,29
234,117500,20,17,50,0,17,17,51,35.0038,4972,0.0,0,0,0,0,0,0,0,0,-202485771,-402851219,56,4972,11,89,165,19
235,118000,20,17,51,0,17,17,51,85.0041,4992,0.0,0,0,0,0,0,0,0,0,-202486839,-402851905,55,4992,11,78,167,70
236,118500,20,17,51,0,17,17,52,34.5485,4992,0.0,0,0,0,0,0,0,0,0,-202486839,-402851905,55,4992,11,78,166,61
237,119000,20,17,52,0,17,17,52,84.548,5013,0.0,0,0,0,0,0,0,0,0,-202487888,-402852630,51,5013,10,89,168,112
238,119500,20,17,52,0,17,17,53,34.5485,5013,0.0,0,0,0,0,0,0,0,0,-202487888,-402852630,51,5013,10,89,166,103
239,120000,20,17,53,0,17,17,53,84.5476,5041,0.0,0,0,0,0,0,0,0,0,-202488956,-402853317,50,5041,10,89,166,181
240,120500,20,17,53,0,17,17,54,34.4485,5041,0.0,0,0,0,0,0,0,0,0,-202488956,-402853317,50,5041,10,89,167,172
241,121000,20,17,54,0,17,17,54,84.829,5033,0.0,0,0,0,0,0,0,0,0,-202490043,-402854042,50,5033,10,89,166,121
242,121500,20,17,54,0,17,17,55,34.829,5033,0.0,0,0,0,0,0,0,0,0,-202490043,-402854042,50,5033,10,89,166,112
243,122000,20,17,55,0,17,17,55,84.8302,5054,0.0,0,0,0,0,0,0,0,0,-202491111,-402854728,51,5054,11,89,167,179
244,122500,20,17,55,0,17,17,56,34.8287,5054,0.0,0,0,0,0,0,0,0,0,-202491111,-402854728,51,5054,11,89,165,170
245,123000,20,17,56,0,17,17,56,84.7556,5041,0.0,0,0,0,0,0,0,0,0,-202492198,-402855453,49,5041,11,89,164,106
246,123500,20,17,56,0,17,17,57,34.7552,5041,0.0,0,0,0,0,0,0,0,0,-202492198,-402855453,49,5041,11,89,163,97
247,124000,20,17,57,0,17,17,57,84.7551,5044,0.0,0,0,0,0,0,0,0,0,-202493267,-402856140,45,5044,10,89,163,120
248,124500,20,17,57,0,17,17,58,34.7556,5044,0.0,0,0,0,0,0,0,0,0,-202493267,-402856140,45,5044,10,89,165,111
249,125000,20,17,58,0,17,17,58,84.755,5067,0.0,0,0,0,0,0,0,0,0,-202494354,-402856864,45,5067,10,89,164,123
250,125500,20,17,58,0,17,17,59,34.3698,5067,0.0,0,0,0,0,0,0,0,0,-202494354,-402856864,45,5067,10,89,164,114
251,126000,20,17,59,0,17,17,59,84.369,5072,0.0,0,0,0,0,0,0,0,0,-202495422,-402857551,45,5072,11,75,165,133
252,126500,20,17,59,0,17,18,0,34.9289,5072,0.0,0,0,0,0,0,0,0,0,-202495422,-402857551,45,5072,11,75,163,124
253,127000,20,18,0,0,17,18,0,84.9288,5083,0.0,0,0,0,0,0,0,0,0,-202496509,-402858276,45,5083,11,75,163,52
254,127500,20,18,0,0,17,18,1,35.2698,5083,0.0,0,0,0,0,0,0,0,0,-202496509,-402858276,45,5083,11,75,163,43
255,128000,20,18,1,0,17,18,1,84.0136,5083,0.0,0,0,0,0,0,0,0,0,-202497596,-402859001,45,5083,11,75,162,8
256,128500,20,18,1,0,17,18,2,34.014,5083,0.0,0,0,0,0,0,0,0,0,-202497596,-402859001,45,5083,11,75,163,255
257,129000,20,18,2,0,17,18,2,84.0134,5107,0.0,0,0,0,0,0,0,0,0,-202498683,-402859687,45,5107,11,75,163,51
258,129500,20,18,2,0,17,18,3,34.0132,5107,0.0,0,0,0,0,0,0,0,0,-202498683,-402859687,45,5107,11,75,163,42
259,130000,20,18,3,0,17,18,3,84.003,5091,0.0,0,0,0,0,0,0,0,0,-202499771,-402860412,46,5091,11,72,163,228
260,130500,20,18,3,0,17,18,4,34.0035,5091,0.0,0,0,0,0,0,0,0,0,-202499771,-402860412,46,5091,11,72,163,219
261,131000,20,18,4,0,17,18,4,84.1496,5081,0.0,0,0,0,0,0,0,0,0,-202500839,-402861137,48,5081,11,78,162,191
262,131500,20,18,4,0,17,18,5,34.1494,5081,0.0,0,0,0,0,0,0,0,0,-202500839,-402861137,48,5081,11,78,161,183
263,132000,20,18,5,0,17,18,5,85.4821,5096,0.0,0,0,0,0,0,0,0,0,-202501945,-402861824,50,5096,11,72,162,193
264,132500,20,18,5,0,17,18,6,35.0656,5096,0.0,0,0,0,0,0,0,0,0,-202501945,-402861824,50,5096,11,72,163,184
265,133000,20,18,6,0,17,18,6,85.0647,5100,0.0,0,0,0,0,0,0,0,0,-202503032,-402862548,51,5100,11,72,163,159
266,133500,20,18,6,0,17,18,7,35.0652,5100,0.0,0,0,0,0,0,0,0,0,-202503032,-402862548,51,5100,11,72,161,150
267,134000,20,18,7,0,17,18,7,85.0651,5102,0.0,0,0,0,0,0,0,0,0,-202504119,-402863235,54,5102,11,72,163,160
268,134500,20,18,7,0,17,18,8,35.0987,5102,0.0,0,0,0,0,0,0,0,0,-202504119,-402863235,54,5102,11,72,165,151
269,135000,20,18,8,0,17,18,8,85.0992,5105,0.0,0,0,0,0,0,0,0,0,-202505207,-402863960,54,5105,11,72,165,121
270,135500,20,18,8,0,17,18,9,35.099,5105,0.0,0,0,0,0,0,0,0,0,-202505207,-402863960,54,5105,11,72,162,112
271,136000,20,18,9,0,17,18,9,85.0989,5139,0.0,0,0,0,0,0,0,0,0,-202506294,-402864685,55,5139,11,72,162,146
272,136500,20,18,9,0,17,18,10,34.2904,5139,0.0,0,0,0,0,0,0,0,0,-202506294,-402864685,55,5139,11,72,164,137
273,137000,20,18,10,0,17,18,10,84.6845,5130,0.0,0,0,0,0,0,0,0,0,-202507400,-402865409,55,5130,11,72,162,66
274,137500,20,18,10,0,17,18,11,34.6843,5130,0.0,0,0,0,0,0,0,0,0,-202507400,-402865409,55,5130,11,72,161,57
275,138000,20,18,11,0,17,18,11,84.6842,5113,0.0,0,0,0,0,0,0,0,0,-202508487,-402866096,55,5113,10,78,162,30
276,138500,20,18,11,0,17,18,12,34.6841,5113,0.0,0,0,0,0,0,0,0,0,-202508487,-402866096,55,5113,10,78,161,21
277,139000,20,18,12,0,17,18,12,85.2548,5067,0.0,0,0,0,0,0,0,0,0,-202509574,-402866821,55,5067,10,78,161,148
278,139500,20,18,12,0,17,18,13,35.3216,5067,0.0,0,0,0,0,0,0,0,0,-202509574,-402866821,55,5067,10,78,161,139
279,140000,20,18,13,0,17,18,13,85.3218,5000,0.0,0,0,0,0,0,0,0,0,-202510643,-402867507,55,5000,10,78,162,27
280,140500,20,18,13,0,17,18,14,35.3217,5000,0.0,0,0,0,0,0,0,0,0,-202510643,-402867507,55,5000,10,78,163,18
281,141000,20,18,14,0,17,18,14,85.3219,5015,0.0,0,0,0,0,0,0,0,0,-202511711,-402868194,55,5015,10,78,162,71
282,141500,20,18,14,0,17,18,15,34.3845,5015,0.0,0,0,0,0,0,0,0,0,-202511711,-402868194,55,5015,10,78,161,62
283,142000,20,18,15,0,17,18,15,84.3854,5061,0.0,0,0,0,0,0,0,0,0,-202512779,-402868919,55,5061,11,78,161,139
284,142500,20,18,15,0,17,18,16,34.3855,5061,0.0,0,0,0,0,0,0,0,0,-202512779,-402868919,55,5061,11,78,162,130
285,143000,20,18,16,0,17,18,16,84.3852,5102,0.0,0,0,0,0,0,0,0,0,-202513866,-402869644,55,5102,11,72,162,171
286,143500,20,18,16,0,17,18,17,34.3037,5102,0.0,0,0,0,0,0,0,0,0,-202513866,-402869644,55,5102,11,72,163,162
287,144000,20,18,17,0,17,18,17,84.5407,5130,0.0,0,0,0,0,0,0,0,0,-202514953,-402870368,55,5130,11,72,161,185
288,144500,20,18,17,0,17,18,18,34.5412,5130,0.0,0,0,0,0,0,0,0,0,-202514953,-402870368,55,5130,11,72,162,176
289,145000,20,18,18,0,17,18,18,84.5409,5180,0.0,0,0,0,0,0,0,0,0,-202516059,-402871093,54,5180,11,72,163,221
290,145500,20,18,18,0,17,18,19,34.5408,5180,0.0,0,0,0,0,0,0,0,0,-202516059,-402871093,54,5180,11,72,162,212
291,146000,20,18,19,0,17,18,19,84.6633,5207,0.0,0,0,0,0,0,0,0,0,-202517166,-402871818,53,5207,11,72,162,210
292,146500,20,18,19,0,17,18,20,34.746,5207,0.0,0,0,0,0,0,0,0,0,-202517166,-402871818,53,5207,11,72,161,201
293,147000,20,18,20,0,17,18,20,84.7454,5217,0.0,0,0,0,0,0,0,0,0,-202518272,-402872543,55,5217,11,72,165,170
295,148000,20,18,21,0,17,18,21,84.7455,5222,0.0,0,0,0,0,0,0,0,0,-202519378,-402873268,55,5222,11,72,164,116
297,149000,20,18,22,0,17,18,22,85.0467,5230,0.0,0,0,0,0,0,0,0,0,-202520484,-402873992,55,5230,11,73,163,71
298,149500,20,18,22,0,17,18,23,35.0465,5230,0.0,0,0,0,0,0,0,0,0,-202520484,-402873992,55,5230,11,73,161,61
299,150000,20,18,23,0,17,18,23,85.0196,5217,0.0,0,0,0,0,0,0,0,0,-202521610,-402874755,55,5217,11,72,162,177
300,150500,20,18,23,0,17,18,24,35.0189,5217,0.0,0,0,0,0,0,0,0,0,-202521610,-402874755,55,5217,11,72,161,168
301,151000,20,18,24,0,17,18,24,84.8033,5155,0.0,0,0,0,0,0,0,0,0,-202522697,-402875480,56,5155,11,72,161,10
302,151500,20,18,24,0,17,18,25,34.8047,5155,0.0,0,0,0,0,0,0,0,0,-202522697,-402875480,56,5155,11,72,159,1
303,152000,20,18,25,0,17,18,25,84.8033,5168,0.0,0,0,0,0,0,0,0,0,-202523784,-402876205,59,5168,12,68,161,248
304,152500,20,18,25,0,17,18,26,34.8036,5168,0.0,0,0,0,0,0,0,0,0,-202523784,-402876205,59,5168,12,68,161,239
306,153500,20,18,26,0,17,18,27,34.3779,5189,0.0,0,0,0,0,0,0,0,0,-202524890,-402876930,60,5189,12,71,159,222
307,154000,20,18,27,0,17,18,27,84.3778,5094,0.0,0,0,0,0,0,0,0,0,-202525978,-402877655,61,5094,12,68,161,248
308,154500,20,18,27,0,17,18,28,34.3783,5094,0.0,0,0,0,0,0,0,0,0,-202525978,-402877655,61,5094,12,68,160,239
309,155000,20,18,28,0,17,18,28,84.3785,4989,0.0,0,0,0,0,0,0,0,0,-202527065,-402878341,64,4989,12,70,159,38
310,155500,20,18,28,0,17,18,29,34.2289,4989,0.0,0,0,0,0,0,0,0,0,-202527065,-402878341,64,4989,12,70,160,29
311,156000,20,18,29,0,17,18,29,84.2295,4870,0.0,0,0,0,0,0,0,0,0,-202528114,-402878990,65,4870,12,70,162,127
312,156500,20,18,29,0,17,18,30,34.8772,4870,0.0,0,0,0,0,0,0,0,0,-202528114,-402878990,65,4870,12,70,163,118
313,157000,20,18,30,0,17,18,30,84.8777,4837,0.0,0,0,0,0,0,0,0,0,-202529163,-402879676,65,4837,12,70,161,93
314,157500,20,18,30,0,17,18,31,35.6381,4837,0.0,0,0,0,0,0,0,0,0,-202529163,-402879676,65,4837,12,70,161,84
315,158000,20,18,31,0,17,18,31,84.5191,4841,0.0,0,0,0,0,0,0,0,0,-202530193,-402880363,65,4841,12,70,161,152
316,158500,20,18,31,0,17,18,32,34.4298,4841,0.0,0,0,0,0,0,0,0,0,-202530193,-402880363,65,4841,12,70,161,143
317,159000,20,18,32,0,17,18,32,84.4309,4852,0.0,0,0,0,0,0,0,0,0,-202531223,-402881011,65,4852,12,70,161,9
318,159500,20,18,32,0,17,18,33,34.4306,4852,0.0,0,0,0,0,0,0,0,0,-202531223,-402881011,65,4852,12,70,161,0
319,160000,20,18,33,0,17,18,33,85.1599,4785,0.0,0,0,0,0,0,0,0,0,-202532253,-402881698,63,4785,12,70,160,180
320,160500,20,18,33,0,17,18,34,35.1589,4785,0.0,0,0,0,0,0,0,0,0,-202532253,-402881698,63,4785,12,70,160,170
322,161500,20,18,34,0,17,18,35,35.1595,4748,0.0,0,0,0,0,0,0,0,0,-202533264,-402882347,63,4748,12,70,158,204
323,162000,20,18,35,0,17,18,35,85.1585,4718,0.0,0,0,0,0,0,0,0,0,-202534255,-402883033,65,4718,12,71,160,248
326,163500,20,18,36,0,17,18,37,35.4836,4663,0.0,0,0,0,0,0,0,0,0,-202535247,-402883682,65,4663,12,90,159,19
342,171500,20,18,44,0,17,18,45,35.3606,3950,1310.4,51,0,0,-32640,8,12288,3,0,-202542610,-402888526,61,3950,11,76,160,0
348,174500,20,18,47,0,17,18,48,35.0089,3761,0.0,0,0,0,0,0,0,0,0,-202545051,-402890167,63,3761,12,76,158,83
356,178500,20,18,51,0,17,18,52,34.5579,3405,0.0,0,0,0,0,0,0,0,0,-202548122,-402892227,65,3405,11,76,161,39
366,183500,20,18,56,0,17,18,57,35.0484,2240,0.0,0,0,0,0,0,0,0,0,-202551136,-402894210,56,2240,12,74,159,10
367,184000,20,18,57,0,17,18,57,85.048,1955,0.0,0,0,0,0,0,0,0,0,-202551574,-402894515,49,1955,12,74,158,213
380,190500,20,19,3,0,17,19,4,34.943,2122,0.0,0,0,0,0,0,0,0,0,-202553787,-402896041,80,2122,12,90,160,1
382,191500,20,19,4,0,17,19,5,34.9224,2126,0.0,0,0,0,0,0,0,0,0,-202554244,-402896347,86,2126,12,90,162,0
383,192000,20,19,5,0,17,19,5,84.8245,2316,0.0,0,0,0,0,0,0,0,0,-202554740,-402896652,86,2316,11,97,161,87
385,193000,20,19,6,0,17,19,6,84.2812,2522,0.0,0,0,0,0,0,0,0,0,-202555274,-402896995,93,2522,11,97,160,120
411,206000,20,19,19,0,17,19,19,85.075,4057,0.0,0,0,0,0,0,0,0,0,-202564868,-402903099,64,4057,11,76,160,227
418,209500,20,19,22,0,17,19,23,34.7761,4007,0.0,0,0,0,0,0,0,0,0,-202567405,-402904739,60,4007,12,74,161,222
426,213500,20,19,26,0,17,19,27,34.8771,4135,0.0,0,0,0,0,0,0,0,0,-202570934,-402906913,51,4135,10,84,163,60
427,214000,20,19,27,0,17,19,27,84.879,4326,0.0,0,0,0,0,0,0,0,0,-202571887,-402907485,45,4326,12,74,161,168
430,215500,20,19,28,0,17,19,29,34.5138,4228,0.0,0,0,0,0,0,0,0,0,-202572803,-402908058,45,4228,12,74,162,243
431,216000,20,19,29,0,17,19,29,84.518,4185,0.0,0,0,0,0,0,0,0,0,-202573699,-402908630,46,4185,12,74,161,213
435,218000,20,19,31,0,17,19,31,84.9302,4176,0.0,0,0,0,0,0,0,0,0,-202575454,-402909774,46,4176,12,76,161,68
437,219000,20,19,32,0,17,19,32,84.9294,4242,0.0,0,0,0,0,0,0,0,0,-202576370,-402910346,45,4242,11,76,159,224
442,221500,20,19,34,0,17,19,35,35.4049,4268,0.0,0,0,0,0,0,0,0,0,-202578201,-402911567,46,4268,11,76,159,241
444,222500,20,19,35,0,17,19,36,35.1865,4246,0.0,0,0,0,0,0,0,0,0,-202579097,-402912139,45,4246,11,76,160,242
445,223000,20,19,36,0,17,19,36,85.1856,4248,0.0,0,0,0,0,0,0,0,0,-202580013,-402912750,45,4248,11,76,159,241
446,223500,20,19,36,0,17,19,37,35.1864,4248,0.0,0,0,0,0,0,0,0,0,-202580013,-402912750,45,4248,11,76,159,232
447,224000,20,19,37,0,17,19,37,85.1858,4244,0.0,0,0,0,0,0,0,0,0,-202580928,-402913360,49,4244,11,76,161,225
448,224500,20,19,37,0,17,19,38,35.1861,4244,0.0,0,0,0,0,0,0,0,0,-202580928,-402913360,49,4244,11,76,159,215
449,225000,20,19,38,0,17,19,38,85.1411,4283,0.0,0,0,0,0,0,0,0,0,-202581825,-402913932,50,4283,11,76,159,91
451,226000,20,19,39,0,17,19,39,85.1414,4294,0.0,0,0,0,0,0,0,0,0,-202582759,-402914543,50,4294,11,76,159,82
453,227000,20,19,40,0,17,19,40,85.5001,4339,0.0,0,0,0,0,0,0,0,0,-202583694,-402915153,55,4339,11,79,161,147
454,227500,20,19,40,0,17,19,41,35.626,4339,0.0,0,0,0,0,0,0,0,0,-202583694,-402915153,55,4339,11,79,161,138
455,228000,20,19,41,0,17,19,41,85.6262,4283,0.0,0,0,0,0,0,0,0,0,-202584609,-402915725,55,4283,10,81,161,61
456,228500,20,19,41,0,17,19,42,35.6267,4283,0.0,0,0,0,0,0,0,0,0,-202584609,-402915725,55,4283,10,81,159,52
460,230500,20,19,43,0,17,19,44,35.6472,4239,0.0,0,0,0,0,0,0,0,0,-202586421,-402916946,50,4239,11,83,160,211
462,231500,20,19,44,0,17,19,45,35.6465,4189,0.0,0,0,0,0,0,0,0,0,-202587318,-402917518,50,4189,12,74,160,148
464,232500,20,19,45,0,17,19,46,35.0813,4189,0.0,0,0,0,0,0,0,0,0,-202588214,-402918128,49,4189,12,77,160,157
469,235000,20,19,48,0,17,19,48,85.4492,4174,0.0,0,0,0,0,0,0,0,0,-202590923,-402919883,54,4174,12,74,160,213
476,238500,20,19,51,0,17,19,52,35.9401,4289,0.0,0,0,0,0,0,0,0,0,-202593650,-402921714,59,4289,10,83,160,171
478,239500,20,19,52,0,17,19,53,34.7941,4296,0.0,0,0,0,0,0,0,0,0,-202594566,-402922325,61,4296,10,83,158,172
486,243500,20,19,56,0,17,19,57,34.7283,4324,244.8,153,0,0,0,0,0,0,0,-202598285,-402924652,75,4324,11,76,157,243
