PACKAGE,ELAPSED_TIME,HOUR_GPS,MIN_GPS,SEC_GPS,CENT_GPS,HOUR_PC,MIN_PC,SEC_PC,CENT_PC,VEL_RODA,ROTACAO,TEMP,FLUIDO,AX,AY,AZ,ROLL,PITCH,HEADING,LAT,LON,ALT,VEL_GPS,SAT,HDOP,RSSI,CHECKSUM
0,1000,21,10,17,10,18,10,19,25.8542,0,0.0,0,0,0,0,0,0,0,0,0,0,0,0,0,15,223,54
1,2000,21,10,19,0,18,10,20,26.0078,0,0.0,0,0,0,0,0,0,0,0,0,0,0,0,0,15,237,27
2,3000,21,10,20,0,18,10,21,24.7015,0,0.0,0,0,0,0,0,0,0,0,0,0,0,0,0,15,237,9
3,4000,21,10,21,0,18,10,22,24.7021,0,0.0,0,0,0,0,0,0,0,0,0,0,0,0,0,15,238,247
4,5000,21,10,22,0,18,10,23,25.2051,0,0.0,0,0,0,0,0,0,0,0,0,0,0,0,0,15,235,229
5,6000,21,10,23,0,18,10,24,25.2026,0,0.0,0,0,0,0,0,0,0,0,0,0,0,0,0,15,240,211
6,7000,21,10,23,0,18,10,25,25.6798,0,0.0,0,0,0,0,0,0,0,0,0,0,0,0,0,15,246,192
7,8000,21,10,25,0,18,10,26,25.6817,0,0.0,0,0,0,0,0,0,0,0,0,0,0,0,0,15,246,175
8,9000,21,10,26,0,18,10,27,25.9947,0,0.0,0,0,0,0,0,0,0,0,0,0,0,0,0,15,245,157
9,10000,21,10,27,0,18,10,28,25.2842,0,0.0,0,0,0,0,0,0,0,0,0,0,0,0,0,15,245,139
10,11000,21,10,28,0,18,10,29,25.283,0,0.0,0,0,0,0,0,0,0,0,0,0,0,0,0,15,241,120
11,12000,21,10,29,0,18,10,30,25.0534,0,0.0,0,0,0,0,0,0,0,0,0,0,0,0,0,15,245,102
12,13000,21,10,29,0,18,10,31,25.053,0,0.0,0,0,0,0,0,0,0,0,0,0,0,0,0,15,246,83
13,14000,21,10,31,0,18,10,32,25.081,0,0.0,0,0,0,0,0,0,0,0,0,0,0,0,0,15,247,66
14,15000,21,10,32,0,18,10,33,25.3312,0,0.0,0,0,0,0,0,0,0,0,0,0,0,0,0,15,243,48
15,16000,21,10,33,0,18,10,34,25.2924,0,0.0,0,0,0,0,0,0,0,0,0,0,0,0,0,15,245,30
16,17000,21,10,34,0,18,10,35,25.2921,0,0.0,0,0,0,0,0,0,0,0,0,0,0,0,0,15,223,12
17,18000,21,10,35,0,18,10,36,25.2768,0,0.0,0,0,0,0,0,0,0,0,0,0,0,0,0,15,245,250
18,19000,21,10,35,0,18,10,37,24.9231,0,0.0,0,0,0,0,0,0,0,0,0,0,0,0,0,15,245,231
19,20000,21,10,37,0,18,10,38,25.4482,0,0.0,0,0,0,0,0,0,0,0,0,0,0,0,3,212,246,158
20,21000,21,10,37,0,18,10,39,25.8356,0,0.0,0,0,0,0,0,0,0,0,0,0,0,0,3,210,246,137
21,22000,21,10,38,0,18,10,40,25.8339,0,0.0,0,0,0,0,0,0,0,0,0,0,0,0,5,145,244,55
22,23000,21,10,39,0,18,10,41,25.8413,209,0.0,0,0,0,0,0,0,0,0,-202389373,-402787208,202,209,8,145,247,17
23,24000,21,10,40,0,18,10,42,25.8413,544,0.0,0,0,0,0,0,0,0,0,-202389259,-402787132,212,544,8,105,247,65
24,25000,21,10,41,0,18,10,43,26.2652,583,0.0,0,0,0,0,0,0,0,0,-202389335,-402787132,237,583,9,95,247,65
25,26000,21,10,42,0,18,10,44,24.9267,192,0.0,0,0,0,0,0,0,0,0,-202389354,-402787132,262,192,9,95,248,36
26,27000,21,10,43,0,18,10,45,24.9261,83,0.0,0,0,0,0,0,0,0,0,-202389392,-402787055,268,83,8,95,247,101
27,28000,21,10,44,0,18,10,46,25.278,285,0.0,0,0,0,0,0,0,0,0,-202389335,-402787017,277,285,9,95,248,82
28,29000,21,10,45,0,18,10,47,25.2796,18,0.0,0,0,0,0,0,0,0,0,-202389316,-402787055,282,18,8,102,248,32
29,30000,21,10,46,0,18,10,48,25.1906,75,0.0,0,0,0,0,0,0,0,0,-202389259,-402787094,287,75,9,102,248,151
30,31000,21,10,47,0,18,10,49,25.1906,29,0.0,0,0,0,0,0,0,0,0,-202389183,-402787055,292,29,9,95,248,156
31,32000,21,10,48,0,18,10,50,26.3433,18,0.0,0,0,0,0,0,0,0,0,-202389125,-402787055,291,18,9,95,248,173
32,33000,21,10,49,0,18,10,51,24.8735,51,0.0,0,0,0,0,0,0,0,0,-202389087,-402787055,295,51,9,95,247,6
33,34000,21,10,50,0,18,10,52,24.7783,98,0.0,0,0,0,0,0,0,0,0,-202389049,-402787055,297,98,8,105,247,131
34,35000,21,10,51,0,18,10,53,25.2011,216,0.0,0,0,0,0,0,0,0,0,-202388992,-402787017,302,216,9,105,246,195
35,36000,21,10,52,0,18,10,54,25.1978,314,0.0,0,0,0,0,0,0,0,0,-202388896,-402786979,310,314,9,105,246,5
36,37000,21,10,53,0,18,10,55,25.1305,50,0.0,0,0,0,0,0,0,0,0,-202388877,-402786979,320,50,9,105,247,254
37,38000,21,10,54,0,18,10,56,25.008,20,0.0,0,0,0,0,0,0,0,0,-202388877,-402786941,327,20,9,95,247,211
38,39000,21,10,55,0,18,10,57,26.0625,48,0.0,0,0,0,0,0,0,0,0,-202388858,-402786941,335,48,9,95,247,20
39,40000,21,10,56,0,18,10,58,25.5161,68,0.0,0,0,0,0,0,0,0,0,-202388839,-402786941,334,68,9,95,248,60
40,41000,21,10,57,0,18,10,59,25.5143,53,0.0,0,0,0,0,0,0,0,0,-202388839,-402786941,340,53,9,95,247,18
41,42000,21,10,58,0,18,11,0,25.6741,62,0.0,0,0,0,0,0,0,0,0,-202388858,-402786903,345,62,9,95,248,42
42,43000,21,10,59,0,18,11,1,26.0246,85,0.0,0,0,0,0,0,0,0,0,-202388877,-402786903,345,85,9,95,247,50
43,44000,21,11,0,0,18,11,2,26.1636,79,0.0,0,0,0,0,0,0,0,0,-202388896,-402786903,342,79,9,95,248,195
44,45000,21,11,1,0,18,11,3,25.2988,53,0.0,0,0,0,0,0,0,0,0,-202388916,-402786903,337,53,9,95,243,100
45,46000,21,11,2,0,18,11,4,25.0731,24,0.0,0,0,0,0,0,0,0,0,-202388916,-402786903,332,24,9,95,249,19
46,47000,21,11,3,0,18,11,5,25.0723,18,0.0,0,0,0,0,0,0,0,0,-202388935,-402786903,332,18,9,95,249,226
47,48000,21,11,4,0,18,11,6,25.0714,31,0.0,0,0,0,0,0,0,0,0,-202388992,-402786865,332,31,8,95,249,214
48,49000,21,11,5,0,18,11,7,25.2411,11,0.0,0,0,0,0,0,0,0,0,-202388992,-402786865,332,11,8,95,249,156
49,50000,21,11,6,0,18,11,8,25.39,29,0.0,0,0,0,0,0,0,0,0,-202389011,-402786903,330,29,8,95,249,114
50,51000,21,11,7,0,18,11,9,24.8983,0,0.0,0,0,0,0,0,0,0,0,-202389030,-402786865,330,0,8,95,249,57
51,52000,21,11,8,0,18,11,10,24.8982,7,0.0,0,0,0,0,0,0,0,0,-202389030,-402786903,330,7,8,95,251,15
52,53000,21,11,9,0,18,11,11,25.3248,9,0.0,0,0,0,0,0,0,0,0,-202389049,-402786865,330,9,8,95,251,20
53,54000,21,11,10,0,18,11,12,25.3224,11,0.0,0,0,0,0,0,0,0,0,-202389049,-402786903,332,11,8,95,250,225
54,55000,21,11,11,0,18,11,13,25.4864,9,0.0,0,0,0,0,0,0,0,0,-202389068,-402786903,334,9,8,95,246,186
55,56000,21,11,12,0,18,11,14,26.338,5,0.0,0,0,0,0,0,0,0,0,-202389087,-402786903,332,5,8,95,249,139
56,57000,21,11,13,0,18,11,15,26.3381,14,0.0,0,0,0,0,0,0,0,0,-202389106,-402786903,330,14,8,95,248,118
57,58000,21,11,14,0,18,11,16,25.0561,3,0.0,0,0,0,0,0,0,0,0,-202389106,-402786903,330,3,8,95,248,78
58,59000,21,11,15,0,18,11,17,25.0551,37,0.0,0,0,0,0,0,0,0,0,-202389106,-402786903,332,37,8,95,248,130
59,60000,21,11,16,0,18,11,18,25.1816,116,0.0,0,0,0,0,0,0,0,0,-202389087,-402786903,337,116,8,95,249,38
60,61000,21,11,17,0,18,11,19,25.1675,105,0.0,0,0,0,0,0,0,0,0,-202389068,-402786865,342,105,8,95,249,60
61,62000,21,11,18,0,18,11,20,26.1689,50,0.0,0,0,0,0,0,0,0,0,-202389087,-402786865,342,50,8,95,250,169
62,63000,21,11,19,0,18,11,21,26.1384,25,0.0,0,0,0,0,0,0,0,0,-202389106,-402786903,342,25,8,95,249,44
63,64000,21,11,20,0,18,11,22,26.1386,16,0.0,0,0,0,0,0,0,0,0,-202389106,-402786865,342,16,8,95,250,46
64,65000,21,11,21,0,18,11,23,25.046,9,0.0,0,0,0,0,0,0,0,0,-202389125,-402786903,337,9,8,95,251,207
65,66000,21,11,22,0,18,11,24,25.046,11,0.0,0,0,0,0,0,0,0,0,-202389125,-402786903,334,11,8,95,250,191
66,67000,21,11,23,0,18,11,25,25.5577,5,0.0,0,0,0,0,0,0,0,0,-202389125,-402786903,332,5,8,95,250,159
67,68000,21,11,24,0,18,11,26,25.5282,18,0.0,0,0,0,0,0,0,0,0,-202389125,-402786903,330,18,8,95,250,165
